{
"type": "FeatureCollection",
"crs": { "type": "name", "properties": { "name": "urn:ogc:def:crs:OGC:1.3:CRS84" } },
                                                                                
"features": [
{ "type": "Feature", "properties": { "Number": 17, "Name": "Ben Vorlich", "Classifica": "Ma,M,Mur", "Metres": 985.0, "Feet": 3232, "Grid Ref": "NN629189", "Xcoord": 262910, "Ycoord": 718915, "Latitude": 56.342671, "Longitude": -4.21948, "Viewable": 2666.0 }, "geometry": { "type": "Point", "coordinates": [ -4.219495635291023, 56.342677209723341 ] } },
{ "type": "Feature", "properties": { "Number": 26, "Name": "Ben More", "Classifica": "Ma,M,Mur,CoU,CoA", "Metres": 1174.0, "Feet": 3852, "Grid Ref": "NN432244", "Xcoord": 243275, "Ycoord": 724417, "Latitude": 56.385952, "Longitude": -4.540103, "Viewable": 5395.04 }, "geometry": { "type": "Point", "coordinates": [ -4.540113304326504, 56.385966153011587 ] } },
{ "type": "Feature", "properties": { "Number": 27, "Name": "Stob Binnein", "Classifica": "Ma,M,Mur", "Metres": 1165.0, "Feet": 3822, "Grid Ref": "NN434227", "Xcoord": 243481, "Ycoord": 722714, "Latitude": 56.370735, "Longitude": -4.535754, "Viewable": 5454.05 }, "geometry": { "type": "Point", "coordinates": [ -4.535764148329166, 56.3707494599198 ] } },
{ "type": "Feature", "properties": { "Number": 30, "Name": "Cruach Ardrain", "Classifica": "Ma,M,Mur", "Metres": 1046.0, "Feet": 3432, "Grid Ref": "NN409212", "Xcoord": 240927, "Ycoord": 721215, "Latitude": 56.356429, "Longitude": -4.576151, "Viewable": 1327.33 }, "geometry": { "type": "Point", "coordinates": [ -4.576160402591344, 56.356443613961282 ] } },
{ "type": "Feature", "properties": { "Number": 31, "Name": "An Caisteal", "Classifica": "Ma,M,Mur", "Metres": 995.0, "Feet": 3264, "Grid Ref": "NN378193", "Xcoord": 237873, "Ycoord": 719345, "Latitude": 56.338618, "Longitude": -4.62437, "Viewable": 1717.21 }, "geometry": { "type": "Point", "coordinates": [ -4.624377236134579, 56.338624251970657 ] } },
{ "type": "Feature", "properties": { "Number": 32, "Name": "Ben Lomond", "Classifica": "Ma,M,Mur,CoH", "Metres": 974.0, "Feet": 3196, "Grid Ref": "NN367028", "Xcoord": 236703, "Ycoord": 702866, "Latitude": 56.190319, "Longitude": -4.633075, "Viewable": 2750.61 }, "geometry": { "type": "Point", "coordinates": [ -4.63309783142891, 56.190327102826281 ] } },
{ "type": "Feature", "properties": { "Number": 38, "Name": "Beinn Chabhair", "Classifica": "Ma,M,Mur", "Metres": 933.0, "Feet": 3061, "Grid Ref": "NN367179", "Xcoord": 236758, "Ycoord": 717968, "Latitude": 56.325877, "Longitude": -4.641532, "Viewable": 1289.78 }, "geometry": { "type": "Point", "coordinates": [ -4.641538972349795, 56.325883066484238 ] } },
{ "type": "Feature", "properties": { "Number": 67, "Name": "Ben Oss", "Classifica": "Ma,M,Mur", "Metres": 1029.0, "Feet": 3376, "Grid Ref": "NN287253", "Xcoord": 228761, "Ycoord": 725347, "Latitude": 56.389263, "Longitude": -4.775488, "Viewable": 1445.66 }, "geometry": { "type": "Point", "coordinates": [ -4.775509457776855, 56.389276301083441 ] } },
{ "type": "Feature", "properties": { "Number": 103, "Name": "Schiehallion", "Classifica": "Ma,M,Mur", "Metres": 1083.0, "Feet": 3553, "Grid Ref": "NN713547", "Xcoord": 271393, "Ycoord": 754756, "Latitude": 56.666828, "Longitude": -4.100076, "Viewable": 1237.27 }, "geometry": { "type": "Point", "coordinates": [ -4.100081581565044, 56.666837133441902 ] } },
{ "type": "Feature", "properties": { "Number": 104, "Name": "Beinn a'Chreachain", "Classifica": "Ma,M,Mur", "Metres": 1081.0, "Feet": 3547, "Grid Ref": "NN373440", "Xcoord": 237389, "Ycoord": 744075, "Latitude": 56.560387, "Longitude": -4.647589, "Viewable": 1044.86 }, "geometry": { "type": "Point", "coordinates": [ -4.647598463275189, 56.560397108836888 ] } },
{ "type": "Feature", "properties": { "Number": 105, "Name": "Beinn Dorain", "Classifica": "Ma,M,Mur", "Metres": 1076.0, "Feet": 3530, "Grid Ref": "NN325378", "Xcoord": 232563, "Ycoord": 737875, "Latitude": 56.503053, "Longitude": -4.722024, "Viewable": 1045.8 }, "geometry": { "type": "Point", "coordinates": [ -4.722031289863984, 56.50306380306229 ] } },
{ "type": "Feature", "properties": { "Number": 107, "Name": "Carn Mairg", "Classifica": "Ma,M,Mur", "Metres": 1041.0, "Feet": 3415, "Grid Ref": "NN684512", "Xcoord": 268400, "Ycoord": 751200, "Latitude": 56.634069, "Longitude": -4.147057, "Viewable": 512.17 }, "geometry": { "type": "Point", "coordinates": [ -4.147063802322598, 56.634080576322447 ] } },
{ "type": "Feature", "properties": { "Number": 108, "Name": "Beinn Achaladair", "Classifica": "Ma,M,Mur", "Metres": 1038.0, "Feet": 3406, "Grid Ref": "NN346433", "Xcoord": 234600, "Ycoord": 743300, "Latitude": 56.552454, "Longitude": -4.692417, "Viewable": 406.94 }, "geometry": { "type": "Point", "coordinates": [ -4.692430335326931, 56.552468136667706 ] } },
{ "type": "Feature", "properties": { "Number": 112, "Name": "Beinn an Dothaidh", "Classifica": "Ma,M,Mur", "Metres": 1004.0, "Feet": 3294, "Grid Ref": "NN331408", "Xcoord": 233100, "Ycoord": 740800, "Latitude": 56.529489, "Longitude": -4.715181, "Viewable": 377.06 }, "geometry": { "type": "Point", "coordinates": [ -4.715195049676126, 56.529503044917327 ] } },
{ "type": "Feature", "properties": { "Number": 115, "Name": "Meall na Aighean", "Classifica": "Hu,M,Mur", "Metres": 981.0, "Feet": 3219, "Grid Ref": "NN694496", "Xcoord": 269400, "Ycoord": 749600, "Latitude": 56.619985, "Longitude": -4.129957, "Viewable": 426.25 }, "geometry": { "type": "Point", "coordinates": [ -4.129964132743359, 56.61999656717358 ] } },
{ "type": "Feature", "properties": { "Number": 141, "Name": "Ben Lawers", "Classifica": "Ma,M,Mur,CoH,CoU,CoA", "Metres": 1214.0, "Feet": 3983, "Grid Ref": "NN635414", "Xcoord": 263551, "Ycoord": 741423, "Latitude": 56.544912, "Longitude": -4.220892, "Viewable": 5284.86 }, "geometry": { "type": "Point", "coordinates": [ -4.220893941012826, 56.544923728277958 ] } },
{ "type": "Feature", "properties": { "Number": 142, "Name": "An Stuc", "Classifica": "Ma=,Hu,M,Mur", "Metres": 1118.0, "Feet": 3668, "Grid Ref": "NN638430", "Xcoord": 263875, "Ycoord": 743089, "Latitude": 56.559962, "Longitude": -4.216501, "Viewable": 3238.06 }, "geometry": { "type": "Point", "coordinates": [ -4.216503123509484, 56.55997366235917 ] } },
{ "type": "Feature", "properties": { "Number": 143, "Name": "Meall Garbh", "Classifica": "Ma,M,Mur", "Metres": 1118.0, "Feet": 3668, "Grid Ref": "NN644437", "Xcoord": 264437, "Ycoord": 743759, "Latitude": 56.56614, "Longitude": -4.207715, "Viewable": 3439.07 }, "geometry": { "type": "Point", "coordinates": [ -4.20771694560595, 56.566151003705386 ] } },
{ "type": "Feature", "properties": { "Number": 145, "Name": "Beinn Heasgarnich [Beinn Sheasgarnaich]", "Classifica": "Ma,M,Mur", "Metres": 1078.0, "Feet": 3537, "Grid Ref": "NN413383", "Xcoord": 241381, "Ycoord": 738338, "Latitude": 56.510263, "Longitude": -4.579202, "Viewable": 1004.4 }, "geometry": { "type": "Point", "coordinates": [ -4.579212071225244, 56.51027446945659 ] } },
{ "type": "Feature", "properties": { "Number": 148, "Name": "Creag Mhor", "Classifica": "Ma,M,Mur", "Metres": 1047.0, "Feet": 3435, "Grid Ref": "NN391361", "Xcoord": 239149, "Ycoord": 736111, "Latitude": 56.489518, "Longitude": -4.614054, "Viewable": 747.97 }, "geometry": { "type": "Point", "coordinates": [ -4.614064052174806, 56.489530160021879 ] } },
{ "type": "Feature", "properties": { "Number": 150, "Name": "Meall Ghaordaidh", "Classifica": "Ma,M,Mur", "Metres": 1039.0, "Feet": 3409, "Grid Ref": "NN514397", "Xcoord": 251443, "Ycoord": 739704, "Latitude": 56.52581, "Longitude": -4.416638, "Viewable": 961.75 }, "geometry": { "type": "Point", "coordinates": [ -4.416652099640396, 56.525821187234897 ] } },
{ "type": "Feature", "properties": { "Number": 152, "Name": "Ben Challum [Beinn Challuim]", "Classifica": "Ma,M,Mur", "Metres": 1025.0, "Feet": 3363, "Grid Ref": "NN386322", "Xcoord": 238684, "Ycoord": 732233, "Latitude": 56.454555, "Longitude": -4.619199, "Viewable": 830.36 }, "geometry": { "type": "Point", "coordinates": [ -4.619208155609058, 56.454567612188477 ] } },
{ "type": "Feature", "properties": { "Number": 163, "Name": "Meall a'Choire Leith", "Classifica": "Ma,M,Mur", "Metres": 926.0, "Feet": 3038, "Grid Ref": "NN612439", "Xcoord": 261200, "Ycoord": 743900, "Latitude": 56.566459, "Longitude": -4.260415, "Viewable": 235.4 }, "geometry": { "type": "Point", "coordinates": [ -4.260424568714782, 56.56647061462904 ] } },
{ "type": "Feature", "properties": { "Number": 179, "Name": "Aonach Eagach - Meall Dearg", "Classifica": "Hu,M,Mur", "Metres": 953.0, "Feet": 3127, "Grid Ref": "NN161583", "Xcoord": 216128, "Ycoord": 758364, "Latitude": 56.680732, "Longitude": -5.003202, "Viewable": 551.01 }, "geometry": { "type": "Point", "coordinates": [ -5.003221597667999, 56.680747490816657 ] } },
{ "type": "Feature", "properties": { "Number": 196, "Name": "Buachaille Etive Mor - Stob Dearg", "Classifica": "Ma,M,Mur", "Metres": 1022.0, "Feet": 3353, "Grid Ref": "NN223543", "Xcoord": 222362, "Ycoord": 754320, "Latitude": 56.646858, "Longitude": -4.898794, "Viewable": 777.53 }, "geometry": { "type": "Point", "coordinates": [ -4.898816139709804, 56.646874627501717 ] } },
{ "type": "Feature", "properties": { "Number": 203, "Name": "Buachaille Etive Mor - Stob na Broige", "Classifica": "Hu,M,Mur", "Metres": 956.0, "Feet": 3136, "Grid Ref": "NN190525", "Xcoord": 219070, "Ycoord": 752564, "Latitude": 56.629843, "Longitude": -4.951175, "Viewable": 569.02 }, "geometry": { "type": "Point", "coordinates": [ -4.951195988833401, 56.629859158153067 ] } },
{ "type": "Feature", "properties": { "Number": 209, "Name": "Buachaille Etive Beag - Stob Coire Raineach", "Classifica": "Ma,M,Mur", "Metres": 925.0, "Feet": 3035, "Grid Ref": "NN191548", "Xcoord": 219132, "Ycoord": 754807, "Latitude": 56.649991, "Longitude": -4.951739, "Viewable": 459.04 }, "geometry": { "type": "Point", "coordinates": [ -4.951759351470444, 56.650006898533121 ] } },
{ "type": "Feature", "properties": { "Number": 233, "Name": "Meall a'Bhuiridh", "Classifica": "Ma,M,Mur", "Metres": 1108.0, "Feet": 3635, "Grid Ref": "NN250503", "Xcoord": 225064, "Ycoord": 750351, "Latitude": 56.612262, "Longitude": -4.852114, "Viewable": 2067.61 }, "geometry": { "type": "Point", "coordinates": [ -4.85212015905547, 56.612280070453025 ] } },
{ "type": "Feature", "properties": { "Number": 235, "Name": "Creise", "Classifica": "Ma,M,Mur", "Metres": 1100.0, "Feet": 3609, "Grid Ref": "NN238506", "Xcoord": 223857, "Ycoord": 750650, "Latitude": 56.614494, "Longitude": -4.871942, "Viewable": 808.6 }, "geometry": { "type": "Point", "coordinates": [ -4.87196368041109, 56.61451074814989 ] } },
{ "type": "Feature", "properties": { "Number": 237, "Name": "Stob Ghabhar", "Classifica": "Ma,M,Mur", "Metres": 1090.0, "Feet": 3576, "Grid Ref": "NN230455", "Xcoord": 223016, "Ycoord": 745514, "Latitude": 56.568093, "Longitude": -4.882114, "Viewable": 554.06 }, "geometry": { "type": "Point", "coordinates": [ -4.882136027082328, 56.568111493494541 ] } },
{ "type": "Feature", "properties": { "Number": 255, "Name": "Stob a'Choire Odhair", "Classifica": "Ma,M,Mur", "Metres": 945.0, "Feet": 3100, "Grid Ref": "NN257459", "Xcoord": 225732, "Ycoord": 745982, "Latitude": 56.573309, "Longitude": -4.838285, "Viewable": 1287.03 }, "geometry": { "type": "Point", "coordinates": [ -4.838307959394458, 56.573326914702086 ] } },
{ "type": "Feature", "properties": { "Number": 278, "Name": "Ben Nevis", "Classifica": "Ma,M,Mur,CoH,CoU,CoA", "Metres": 1344.0, "Feet": 4409, "Grid Ref": "NN166712", "Xcoord": 216676, "Ycoord": 771283, "Latitude": 56.79685, "Longitude": -5.003508, "Viewable": 3454.84 }, "geometry": { "type": "Point", "coordinates": [ -5.003528959242606, 56.796862774329121 ] } },
{ "type": "Feature", "properties": { "Number": 282, "Name": "Carn Mor Dearg", "Classifica": "Ma,M,Mur", "Metres": 1220.0, "Feet": 4003, "Grid Ref": "NN177721", "Xcoord": 217749, "Ycoord": 772171, "Latitude": 56.805237, "Longitude": -4.986615, "Viewable": 1247.66 }, "geometry": { "type": "Point", "coordinates": [ -4.986619736971463, 56.80525070755079 ] } },
{ "type": "Feature", "properties": { "Number": 285, "Name": "Stob Choire Claurigh", "Classifica": "Ma,M,Mur", "Metres": 1177.0, "Feet": 3862, "Grid Ref": "NN262738", "Xcoord": 226196, "Ycoord": 773878, "Latitude": 56.823786, "Longitude": -4.849624, "Viewable": 2114.97 }, "geometry": { "type": "Point", "coordinates": [ -4.84963222209415, 56.823799001967252 ] } },
{ "type": "Feature", "properties": { "Number": 287, "Name": "Binnein Mor", "Classifica": "Ma,M,Mur", "Metres": 1130.0, "Feet": 3707, "Grid Ref": "NN212663", "Xcoord": 221200, "Ycoord": 766300, "Latitude": 56.7539, "Longitude": -4.926063, "Viewable": 606.93 }, "geometry": { "type": "Point", "coordinates": [ -4.926075871750523, 56.753916334241787 ] } },
{ "type": "Feature", "properties": { "Number": 289, "Name": "Stob Coire an Laoigh", "Classifica": "M,Mur", "Metres": 1116.0, "Feet": 3661, "Grid Ref": "NN239725", "Xcoord": 223983, "Ycoord": 772532, "Latitude": 56.810877, "Longitude": -4.884907, "Viewable": 1572.66 }, "geometry": { "type": "Point", "coordinates": [ -4.88491440814614, 56.810890002103996 ] } },
{ "type": "Feature", "properties": { "Number": 295, "Name": "Sgurr a'Mhaim", "Classifica": "Ma,M,Mur", "Metres": 1099.0, "Feet": 3606, "Grid Ref": "NN164667", "Xcoord": 216466, "Ycoord": 766730, "Latitude": 56.75592, "Longitude": -5.003674, "Viewable": 775.08 }, "geometry": { "type": "Point", "coordinates": [ -5.003694533482893, 56.755934227643827 ] } },
{ "type": "Feature", "properties": { "Number": 296, "Name": "Sgurr Choinnich Mor", "Classifica": "Ma,M,Mur", "Metres": 1094.0, "Feet": 3589, "Grid Ref": "NN227714", "Xcoord": 222772, "Ycoord": 771419, "Latitude": 56.800431, "Longitude": -4.903943, "Viewable": 786.54 }, "geometry": { "type": "Point", "coordinates": [ -4.903949863605304, 56.800444384930834 ] } },
{ "type": "Feature", "properties": { "Number": 301, "Name": "Na Gruagaichean", "Classifica": "M,Mur,sHu", "Metres": 1056.0, "Feet": 3465, "Grid Ref": "NN203652", "Xcoord": 220309, "Ycoord": 765202, "Latitude": 56.743708, "Longitude": -4.939852, "Viewable": 402.14 }, "geometry": { "type": "Point", "coordinates": [ -4.939857208257561, 56.743722750177909 ] } },
{ "type": "Feature", "properties": { "Number": 303, "Name": "Am Bodach", "Classifica": "Ma,M,Mur", "Metres": 1032.0, "Feet": 3386, "Grid Ref": "NN176650", "Xcoord": 217637, "Ycoord": 765096, "Latitude": 56.74172, "Longitude": -4.983386, "Viewable": 951.61 }, "geometry": { "type": "Point", "coordinates": [ -4.983406719563914, 56.741734570230378 ] } },
{ "type": "Feature", "properties": { "Number": 305, "Name": "Sgurr Eilde Mor", "Classifica": "Ma,M,Mur", "Metres": 1010.0, "Feet": 3314, "Grid Ref": "NN230657", "Xcoord": 223052, "Ycoord": 765792, "Latitude": 56.750051, "Longitude": -4.895471, "Viewable": 473.18 }, "geometry": { "type": "Point", "coordinates": [ -4.895477572987912, 56.750065201284677 ] } },
{ "type": "Feature", "properties": { "Number": 309, "Name": "Stob Ban", "Classifica": "Ma,M,Mur", "Metres": 999.0, "Feet": 3278, "Grid Ref": "NN147654", "Xcoord": 214775, "Ycoord": 765443, "Latitude": 56.743706, "Longitude": -5.03036, "Viewable": 603.66 }, "geometry": { "type": "Point", "coordinates": [ -5.030380075341562, 56.74371967663371 ] } },
{ "type": "Feature", "properties": { "Number": 312, "Name": "An Gearanach", "Classifica": "Ma,M,Mur", "Metres": 982.0, "Feet": 3222, "Grid Ref": "NN187669", "Xcoord": 218771, "Ycoord": 766994, "Latitude": 56.759191, "Longitude": -4.966215, "Viewable": 273.1 }, "geometry": { "type": "Point", "coordinates": [ -4.966235985438726, 56.759204596865587 ] } },
{ "type": "Feature", "properties": { "Number": 313, "Name": "Stob Coire a'Chairn", "Classifica": "Hu,M,Mur", "Metres": 981.0, "Feet": 3219, "Grid Ref": "NN185660", "Xcoord": 218560, "Ycoord": 766067, "Latitude": 56.750792, "Longitude": -4.969004, "Viewable": 218.68 }, "geometry": { "type": "Point", "coordinates": [ -4.969025522855325, 56.750805917866565 ] } },
{ "type": "Feature", "properties": { "Number": 320, "Name": "Binnein Beag", "Classifica": "Ma,M,Mur", "Metres": 943.0, "Feet": 3094, "Grid Ref": "NN221677", "Xcoord": 222100, "Ycoord": 767700, "Latitude": 56.766805, "Longitude": -4.912337, "Viewable": 203.51 }, "geometry": { "type": "Point", "coordinates": [ -4.912350033435073, 56.766821418959147 ] } },
{ "type": "Feature", "properties": { "Number": 321, "Name": "Mullach nan Coirean", "Classifica": "M,Mur,sHu", "Metres": 939.0, "Feet": 3081, "Grid Ref": "NN122662", "Xcoord": 212237, "Ycoord": 766243, "Latitude": 56.749867, "Longitude": -5.072381, "Viewable": 537.02 }, "geometry": { "type": "Point", "coordinates": [ -5.072400098007091, 56.749881298336973 ] } },
{ "type": "Feature", "properties": { "Number": 345, "Name": "Ben Alder", "Classifica": "Ma,M,Mur", "Metres": 1148.0, "Feet": 3766, "Grid Ref": "NN496718", "Xcoord": 249614, "Ycoord": 771854, "Latitude": 56.813786, "Longitude": -4.465122, "Viewable": 2082.27 }, "geometry": { "type": "Point", "coordinates": [ -4.465137117274049, 56.813800128859604 ] } },
{ "type": "Feature", "properties": { "Number": 346, "Name": "Geal-charn", "Classifica": "Ma,M,Mur", "Metres": 1132.0, "Feet": 3714, "Grid Ref": "NN469746", "Xcoord": 246992, "Ycoord": 774631, "Latitude": 56.837854, "Longitude": -4.509695, "Viewable": 1903.89 }, "geometry": { "type": "Point", "coordinates": [ -4.509709856998947, 56.837867963742397 ] } },
{ "type": "Feature", "properties": { "Number": 347, "Name": "Aonach Beag", "Classifica": "M,Mur,sHu", "Metres": 1115.7, "Feet": 3660, "Grid Ref": "NN457741", "Xcoord": 245787, "Ycoord": 774189, "Latitude": 56.833489, "Longitude": -4.529158, "Viewable": 1466.08 }, "geometry": { "type": "Point", "coordinates": [ -4.529172705545435, 56.833502736108279 ] } },
{ "type": "Feature", "properties": { "Number": 348, "Name": "Beinn Eibhinn", "Classifica": "Hu,M,Mur", "Metres": 1103.2, "Feet": 3619, "Grid Ref": "NN449733", "Xcoord": 244965, "Ycoord": 773302, "Latitude": 56.825255, "Longitude": -4.542077, "Viewable": 608.6 }, "geometry": { "type": "Point", "coordinates": [ -4.542090575895859, 56.825268724361742 ] } },
{ "type": "Feature", "properties": { "Number": 349, "Name": "Beinn a'Chlachair", "Classifica": "Ma,M,Mur", "Metres": 1087.0, "Feet": 3566, "Grid Ref": "NN471781", "Xcoord": 247122, "Ycoord": 778154, "Latitude": 56.869516, "Longitude": -4.509683, "Viewable": 405.57 }, "geometry": { "type": "Point", "coordinates": [ -4.509698424369988, 56.869529037504861 ] } },
{ "type": "Feature", "properties": { "Number": 361, "Name": "Sgor Gaibhre", "Classifica": "Ma,M,Mur", "Metres": 955.0, "Feet": 3133, "Grid Ref": "NN444674", "Xcoord": 244477, "Ycoord": 767447, "Latitude": 56.772544, "Longitude": -4.546498, "Viewable": 600.31 }, "geometry": { "type": "Point", "coordinates": [ -4.546511422189329, 56.772559295617498 ] } },
{ "type": "Feature", "properties": { "Number": 363, "Name": "Carn Dearg", "Classifica": "Ma,M,Mur", "Metres": 941.0, "Feet": 3087, "Grid Ref": "NN417661", "Xcoord": 241773, "Ycoord": 766142, "Latitude": 56.759922, "Longitude": -4.589888, "Viewable": 640.53 }, "geometry": { "type": "Point", "coordinates": [ -4.589900321158842, 56.759936999163656 ] } },
{ "type": "Feature", "properties": { "Number": 364, "Name": "Beinn na Lap", "Classifica": "Ma,M,Mur", "Metres": 935.0, "Feet": 3068, "Grid Ref": "NN376695", "Xcoord": 237616, "Ycoord": 769585, "Latitude": 56.78939, "Longitude": -4.659994, "Viewable": 432.6 }, "geometry": { "type": "Point", "coordinates": [ -4.660005162001085, 56.789404018260548 ] } },
{ "type": "Feature", "properties": { "Number": 383, "Name": "Beinn Udlamain", "Classifica": "Ma,M,Mur", "Metres": 1011.0, "Feet": 3317, "Grid Ref": "NN579739", "Xcoord": 257949, "Ycoord": 773977, "Latitude": 56.835463, "Longitude": -4.329912, "Viewable": 595.24 }, "geometry": { "type": "Point", "coordinates": [ -4.329914080025146, 56.835477368553079 ] } },
{ "type": "Feature", "properties": { "Number": 384, "Name": "Sgairneach Mhor", "Classifica": "Ma,M,Mur", "Metres": 991.0, "Feet": 3251, "Grid Ref": "NN598731", "Xcoord": 259882, "Ycoord": 773128, "Latitude": 56.828429, "Longitude": -4.297791, "Viewable": 777.91 }, "geometry": { "type": "Point", "coordinates": [ -4.297793226574294, 56.828443554831217 ] } },
{ "type": "Feature", "properties": { "Number": 388, "Name": "Meall Chuaich", "Classifica": "Ma,M,Mur", "Metres": 951.0, "Feet": 3120, "Grid Ref": "NN716878", "Xcoord": 271646, "Ycoord": 787832, "Latitude": 56.963832, "Longitude": -4.1126, "Viewable": 672.97 }, "geometry": { "type": "Point", "coordinates": [ -4.112607676588073, 56.963843983786262 ] } },
{ "type": "Feature", "properties": { "Number": 406, "Name": "Beinn Dearg", "Classifica": "Ma,M,Mur", "Metres": 1008.0, "Feet": 3307, "Grid Ref": "NN852777", "Xcoord": 285290, "Ycoord": 777785, "Latitude": 56.87721, "Longitude": -3.88381, "Viewable": 737.51 }, "geometry": { "type": "Point", "coordinates": [ -3.88380534041963, 56.877224771395241 ] } },
{ "type": "Feature", "properties": { "Number": 407, "Name": "An Sgarsoch", "Classifica": "Ma,M,Mur", "Metres": 1006.0, "Feet": 3301, "Grid Ref": "NN933836", "Xcoord": 293333, "Ycoord": 783666, "Latitude": 56.931937, "Longitude": -3.754384, "Viewable": 557.75 }, "geometry": { "type": "Point", "coordinates": [ -3.75438221530339, 56.931951034660415 ] } },
{ "type": "Feature", "properties": { "Number": 408, "Name": "Carn an Fhidhleir [Carn Ealar]", "Classifica": "Ma,M,Mur", "Metres": 994.0, "Feet": 3261, "Grid Ref": "NN904841", "Xcoord": 290470, "Ycoord": 784186, "Latitude": 56.935938, "Longitude": -3.801629, "Viewable": 549.26 }, "geometry": { "type": "Point", "coordinates": [ -3.801626261865756, 56.93595125911412 ] } },
{ "type": "Feature", "properties": { "Number": 409, "Name": "Carn a'Chlamain", "Classifica": "Ma,M,Mur", "Metres": 963.0, "Feet": 3159, "Grid Ref": "NN915758", "Xcoord": 291590, "Ycoord": 775807, "Latitude": 56.860965, "Longitude": -3.779651, "Viewable": 736.46 }, "geometry": { "type": "Point", "coordinates": [ -3.779647869429781, 56.860979812633659 ] } },
{ "type": "Feature", "properties": { "Number": 422, "Name": "Beinn a'Ghlo - Braigh Coire Chruinn-bhalgain", "Classifica": "Ma,M,Mur", "Metres": 1070.0, "Feet": 3510, "Grid Ref": "NN945724", "Xcoord": 294565, "Ycoord": 772411, "Latitude": 56.831156, "Longitude": -3.729475, "Viewable": 1692.16 }, "geometry": { "type": "Point", "coordinates": [ -3.729473194694906, 56.831171530904811 ] } },
{ "type": "Feature", "properties": { "Number": 425, "Name": "Beinn Iutharn Mhor", "Classifica": "Ma,M,Mur", "Metres": 1045.0, "Feet": 3428, "Grid Ref": "NO045792", "Xcoord": 304566, "Ycoord": 779280, "Latitude": 56.895003, "Longitude": -3.56823, "Viewable": 999.33 }, "geometry": { "type": "Point", "coordinates": [ -3.568231422071947, 56.89501814414416 ] } },
{ "type": "Feature", "properties": { "Number": 426, "Name": "Carn an Righ", "Classifica": "Ma,M,Mur", "Metres": 1029.0, "Feet": 3376, "Grid Ref": "NO028772", "Xcoord": 302871, "Ycoord": 777266, "Latitude": 56.876565, "Longitude": -3.595272, "Viewable": 1126.49 }, "geometry": { "type": "Point", "coordinates": [ -3.595272772876817, 56.876580400801124 ] } },
{ "type": "Feature", "properties": { "Number": 461, "Name": "Glas Maol", "Classifica": "Ma,M,Mur,CoH,CoU", "Metres": 1068.0, "Feet": 3504, "Grid Ref": "NO166765", "Xcoord": 316699, "Ycoord": 776577, "Latitude": 56.873068, "Longitude": -3.368237, "Viewable": 1654.25 }, "geometry": { "type": "Point", "coordinates": [ -3.368242306779357, 56.873083554161347 ] } },
{ "type": "Feature", "properties": { "Number": 472, "Name": "Creag Leacach", "Classifica": "M,Mur", "Metres": 987.0, "Feet": 3238, "Grid Ref": "NO154745", "Xcoord": 315467, "Ycoord": 774549, "Latitude": 56.85464, "Longitude": -3.387768, "Viewable": 1466.22 }, "geometry": { "type": "Point", "coordinates": [ -3.387772742848489, 56.854647540038549 ] } },
{ "type": "Feature", "properties": { "Number": 483, "Name": "Driesh", "Classifica": "Hu,M,Mur", "Metres": 947.0, "Feet": 3107, "Grid Ref": "NO271735", "Xcoord": 327117, "Ycoord": 773589, "Latitude": 56.847994, "Longitude": -3.196522, "Viewable": 1682.44 }, "geometry": { "type": "Point", "coordinates": [ -3.196514597396369, 56.848001988544333 ] } },
{ "type": "Feature", "properties": { "Number": 486, "Name": "Mayar", "Classifica": "Hu,M,Mur", "Metres": 928.0, "Feet": 3045, "Grid Ref": "NO240737", "Xcoord": 324081, "Ycoord": 773749, "Latitude": 56.848936, "Longitude": -3.246316, "Viewable": 1541.99 }, "geometry": { "type": "Point", "coordinates": [ -3.246323559038592, 56.848952168235172 ] } },
{ "type": "Feature", "properties": { "Number": 518, "Name": "Ben Macdui [Beinn Macduibh]", "Classifica": "Ma,M,Mur,CoH,CoU,CoA", "Metres": 1309.0, "Feet": 4295, "Grid Ref": "NN988989", "Xcoord": 298899, "Ycoord": 798943, "Latitude": 57.070368, "Longitude": -3.669099, "Viewable": 4570.33 }, "geometry": { "type": "Point", "coordinates": [ -3.669099512465734, 57.070379220462421 ] } },
{ "type": "Feature", "properties": { "Number": 521, "Name": "Cairn Toul", "Classifica": "Ma,M,Mur", "Metres": 1291.0, "Feet": 4236, "Grid Ref": "NN963972", "Xcoord": 296329, "Ycoord": 797228, "Latitude": 57.054397, "Longitude": -3.710757, "Viewable": 2574.53 }, "geometry": { "type": "Point", "coordinates": [ -3.710756759669017, 57.054408366486456 ] } },
{ "type": "Feature", "properties": { "Number": 523, "Name": "Sgor an Lochain Uaine", "Classifica": "Hu,M,Mur", "Metres": 1258.0, "Feet": 4127, "Grid Ref": "NN954976", "Xcoord": 295429, "Ycoord": 797694, "Latitude": 57.058378, "Longitude": -3.725781, "Viewable": 1793.45 }, "geometry": { "type": "Point", "coordinates": [ -3.725780773743956, 57.058389151684217 ] } },
{ "type": "Feature", "properties": { "Number": 538, "Name": "Beinn Bhrotain", "Classifica": "Ma,M,Mur", "Metres": 1157.0, "Feet": 3796, "Grid Ref": "NN954922", "Xcoord": 295412, "Ycoord": 792292, "Latitude": 57.009868, "Longitude": -3.723813, "Viewable": 1633.68 }, "geometry": { "type": "Point", "coordinates": [ -3.723812806956967, 57.00988020568748 ] } },
{ "type": "Feature", "properties": { "Number": 549, "Name": "Monadh Mor", "Classifica": "Hu,M,Mur", "Metres": 1113.0, "Feet": 3652, "Grid Ref": "NN938942", "Xcoord": 293864, "Ycoord": 794216, "Latitude": 57.02679, "Longitude": -3.750102, "Viewable": 1710.43 }, "geometry": { "type": "Point", "coordinates": [ -3.750101030355451, 57.026802294245719 ] } },
{ "type": "Feature", "properties": { "Number": 624, "Name": "Geal Charn", "Classifica": "Hu,M,Mur", "Metres": 926.0, "Feet": 3038, "Grid Ref": "NN561987", "Xcoord": 256143, "Ycoord": 798769, "Latitude": 57.057427, "Longitude": -4.373589, "Viewable": 744.72 }, "geometry": { "type": "Point", "coordinates": [ -4.373592477792414, 57.057445526872527 ] } },
{ "type": "Feature", "properties": { "Number": 668, "Name": "Carn Liath", "Classifica": "M,Mur", "Metres": 1006.0, "Feet": 3301, "Grid Ref": "NN472903", "Xcoord": 247200, "Ycoord": 790300, "Latitude": 56.978546, "Longitude": -4.515741, "Viewable": 389.74 }, "geometry": { "type": "Point", "coordinates": [ -4.515749107151332, 56.978561325611771 ] } },
{ "type": "Feature", "properties": { "Number": 684, "Name": "Sgurr a'Mhaoraich", "Classifica": "Ma,M,Mur", "Metres": 1027.0, "Feet": 3369, "Grid Ref": "NG983065", "Xcoord": 198392, "Ycoord": 806549, "Latitude": 57.105562, "Longitude": -5.330483, "Viewable": 745.69 }, "geometry": { "type": "Point", "coordinates": [ -5.330500235468167, 57.105577138489807 ] } },
{ "type": "Feature", "properties": { "Number": 688, "Name": "The Saddle", "Classifica": "Ma,M,Mur", "Metres": 1010.0, "Feet": 3314, "Grid Ref": "NG936131", "Xcoord": 193611, "Ycoord": 813122, "Latitude": 57.162375, "Longitude": -5.414697, "Viewable": 575.44 }, "geometry": { "type": "Point", "coordinates": [ -5.414713543894793, 57.162397895829351 ] } },
{ "type": "Feature", "properties": { "Number": 690, "Name": "Sgurr an Lochain", "Classifica": "Hu,M,Mur", "Metres": 1004.0, "Feet": 3294, "Grid Ref": "NH005104", "Xcoord": 200580, "Ycoord": 810421, "Latitude": 57.141232, "Longitude": -5.297527, "Viewable": 628.6 }, "geometry": { "type": "Point", "coordinates": [ -5.29752930314419, 57.141255588766676 ] } },
{ "type": "Feature", "properties": { "Number": 701, "Name": "Sgurr na Sgine", "Classifica": "Ma,M,Mur", "Metres": 946.0, "Feet": 3104, "Grid Ref": "NG946113", "Xcoord": 194617, "Ycoord": 811368, "Latitude": 57.147098, "Longitude": -5.39665, "Viewable": 102.14 }, "geometry": { "type": "Point", "coordinates": [ -5.396666966178255, 57.147120621384502 ] } },
{ "type": "Feature", "properties": { "Number": 708, "Name": "Creag nan Damh", "Classifica": "Ma,M,Mur", "Metres": 918.0, "Feet": 3012, "Grid Ref": "NG983112", "Xcoord": 198370, "Ycoord": 811201, "Latitude": 57.147263, "Longitude": -5.334597, "Viewable": 427.51 }, "geometry": { "type": "Point", "coordinates": [ -5.334614704455023, 57.147285864126303 ] } },
{ "type": "Feature", "properties": { "Number": 733, "Name": "Sgurr Mor", "Classifica": "Ma,M,Mur", "Metres": 1003.0, "Feet": 3291, "Grid Ref": "NM965980", "Xcoord": 196534, "Ycoord": 798039, "Latitude": 57.028428, "Longitude": -5.354204, "Viewable": 835.14 }, "geometry": { "type": "Point", "coordinates": [ -5.354220067571761, 57.028444089839631 ] } },
{ "type": "Feature", "properties": { "Number": 736, "Name": "Sgurr nan Coireachan", "Classifica": "Ma,M,Mur", "Metres": 953.0, "Feet": 3127, "Grid Ref": "NM933958", "Xcoord": 193308, "Ycoord": 795827, "Latitude": 57.007158, "Longitude": -5.40544, "Viewable": 486.25 }, "geometry": { "type": "Point", "coordinates": [ -5.405454425030401, 57.007174573810467 ] } },
{ "type": "Feature", "properties": { "Number": 741, "Name": "Gairich", "Classifica": "Ma,M,Mur", "Metres": 919.0, "Feet": 3015, "Grid Ref": "NN025995", "Xcoord": 202589, "Ycoord": 799581, "Latitude": 57.044888, "Longitude": -5.255844, "Viewable": 461.5 }, "geometry": { "type": "Point", "coordinates": [ -5.255845764915696, 57.044904334909674 ] } },
{ "type": "Feature", "properties": { "Number": 773, "Name": "Gulvain [Gaor Bheinn]", "Classifica": "Ma,M,Mur", "Metres": 987.0, "Feet": 3238, "Grid Ref": "NN002875", "Xcoord": 200267, "Ycoord": 787572, "Latitude": 56.936184, "Longitude": -5.284525, "Viewable": 866.62 }, "geometry": { "type": "Point", "coordinates": [ -5.284541540899108, 56.93620256284256 ] } },
{ "type": "Feature", "properties": { "Number": 815, "Name": "Sgurr Fhuaran", "Classifica": "Ma,M,Mur", "Metres": 1067.0, "Feet": 3501, "Grid Ref": "NG978166", "Xcoord": 197847, "Ycoord": 816679, "Latitude": 57.196158, "Longitude": -5.347684, "Viewable": 578.1 }, "geometry": { "type": "Point", "coordinates": [ -5.347685883393633, 57.1961807850534 ] } },
{ "type": "Feature", "properties": { "Number": 818, "Name": "Toll Creagach", "Classifica": "Ma,M,Mur", "Metres": 1054.0, "Feet": 3458, "Grid Ref": "NH194282", "Xcoord": 219401, "Ycoord": 828280, "Latitude": 57.309227, "Longitude": -4.999953, "Viewable": 1278.57 }, "geometry": { "type": "Point", "coordinates": [ -4.99996269918986, 57.309247837009487 ] } },
{ "type": "Feature", "properties": { "Number": 825, "Name": "Sgurr na Ciste Duibhe", "Classifica": "Ma,M,Mur", "Metres": 1027.0, "Feet": 3369, "Grid Ref": "NG984149", "Xcoord": 198398, "Ycoord": 814952, "Latitude": 57.180914, "Longitude": -5.337167, "Viewable": 697.45 }, "geometry": { "type": "Point", "coordinates": [ -5.337185016470358, 57.18093619951275 ] } },
{ "type": "Feature", "properties": { "Number": 2925, "Name": "Beinn a'Chroin", "Classifica": "Hu,M,Mur", "Metres": 942.0, "Feet": 3091, "Grid Ref": "NN387185", "Xcoord": 238756, "Ycoord": 718574, "Latitude": 56.332, "Longitude": -4.609629, "Viewable": 1035.09 }, "geometry": { "type": "Point", "coordinates": [ -4.609636788652143, 56.332006177725845 ] } }
]
}
