{
"type": "FeatureCollection",
"crs": { "type": "name", "properties": { "name": "urn:ogc:def:crs:OGC:1.3:CRS84" } },
                                                                                
"features": [
{ "type": "Feature", "properties": { "Number": 519, "Name": "Braeriach", "Classifica": "Ma,M,Mur", "Metres": 1296.0, "Feet": 4252, "Grid Ref": "NN953999", "Xcoord": 295315, "Ycoord": 799901, "Latitude": 57.078169, "Longitude": -3.728581, "Viewable": 3686.65 }, "geometry": { "type": "Point", "coordinates": [ -3.728580783883529, 57.078179977584583 ] } },
{ "type": "Feature", "properties": { "Number": 521, "Name": "Cairn Toul", "Classifica": "Ma,M,Mur", "Metres": 1291.0, "Feet": 4236, "Grid Ref": "NN963972", "Xcoord": 296329, "Ycoord": 797228, "Latitude": 57.054397, "Longitude": -3.710757, "Viewable": 2574.53 }, "geometry": { "type": "Point", "coordinates": [ -3.710756759669017, 57.054408366486456 ] } },
{ "type": "Feature", "properties": { "Number": 571, "Name": "Mullach Clach a'Bhlair", "Classifica": "Hu,M,Mur", "Metres": 1019.0, "Feet": 3343, "Grid Ref": "NN882927", "Xcoord": 288285, "Ycoord": 792701, "Latitude": 57.01187, "Longitude": -3.841287, "Viewable": 678.2 }, "geometry": { "type": "Point", "coordinates": [ -3.841283450325847, 57.011881869137305 ] } },
{ "type": "Feature", "properties": { "Number": 658, "Name": "Creag Meagaidh", "Classifica": "Ma,M,Mur", "Metres": 1128.0, "Feet": 3701, "Grid Ref": "NN418875", "Xcoord": 241840, "Ycoord": 787549, "Latitude": 56.952051, "Longitude": -4.602102, "Viewable": 1986.23 }, "geometry": { "type": "Point", "coordinates": [ -4.602116508723091, 56.952070584197493 ] } },
{ "type": "Feature", "properties": { "Number": 662, "Name": "Stob Poite Coire Ardair", "Classifica": "Hu,M,Mur", "Metres": 1054.0, "Feet": 3458, "Grid Ref": "NN428888", "Xcoord": 242800, "Ycoord": 788800, "Latitude": 56.963609, "Longitude": -4.58712, "Viewable": 136.16 }, "geometry": { "type": "Point", "coordinates": [ -4.587128639432613, 56.963624433276401 ] } },
{ "type": "Feature", "properties": { "Number": 803, "Name": "Carn Eige [Carn Eighe]", "Classifica": "Ma,M,Mur,CoH", "Metres": 1183.0, "Feet": 3881, "Grid Ref": "NH123261", "Xcoord": 212357, "Ycoord": 826197, "Latitude": 57.287702, "Longitude": -5.115126, "Viewable": 2895.56 }, "geometry": { "type": "Point", "coordinates": [ -5.115133233590298, 57.28772302799166 ] } },
{ "type": "Feature", "properties": { "Number": 804, "Name": "Mam Sodhail", "Classifica": "Hu,M,Mur", "Metres": 1181.0, "Feet": 3875, "Grid Ref": "NH119253", "Xcoord": 211962, "Ycoord": 825351, "Latitude": 57.279951, "Longitude": -5.121026, "Viewable": 3011.5 }, "geometry": { "type": "Point", "coordinates": [ -5.121033309424234, 57.279972431026664 ] } },
{ "type": "Feature", "properties": { "Number": 810, "Name": "Tom a'Choinich", "Classifica": "Hu,M,Mur,sMa", "Metres": 1112.0, "Feet": 3648, "Grid Ref": "NH164273", "Xcoord": 216403, "Ycoord": 827335, "Latitude": 57.299554, "Longitude": -5.048945, "Viewable": 1682.74 }, "geometry": { "type": "Point", "coordinates": [ -5.048953904304225, 57.299575067005392 ] } },
{ "type": "Feature", "properties": { "Number": 884, "Name": "Sgurr a'Choire Ghlais", "Classifica": "Ma,M,Mur", "Metres": 1083.0, "Feet": 3553, "Grid Ref": "NH258430", "Xcoord": 225882, "Ycoord": 843016, "Latitude": 57.443947, "Longitude": -4.902963, "Viewable": 2122.31 }, "geometry": { "type": "Point", "coordinates": [ -4.902958898057218, 57.443965771145983 ] } },
{ "type": "Feature", "properties": { "Number": 894, "Name": "Sgurr na Ruaidhe", "Classifica": "Ma,M,Mur", "Metres": 993.0, "Feet": 3258, "Grid Ref": "NH289426", "Xcoord": 228900, "Ycoord": 842614, "Latitude": 57.441488, "Longitude": -4.852464, "Viewable": 1705.41 }, "geometry": { "type": "Point", "coordinates": [ -4.852461095128953, 57.441506570677539 ] } },
{ "type": "Feature", "properties": { "Number": 895, "Name": "Carn nan Gobhar", "Classifica": "Hu,M,Mur", "Metres": 992.0, "Feet": 3255, "Grid Ref": "NH273438", "Xcoord": 227303, "Ycoord": 843890, "Latitude": 57.452331, "Longitude": -4.879935, "Viewable": 2461.46 }, "geometry": { "type": "Point", "coordinates": [ -4.879931902065454, 57.452349317361076 ] } },
{ "type": "Feature", "properties": { "Number": 926, "Name": "Sgurr na Lapaich", "Classifica": "Ma,M,Mur", "Metres": 1150.0, "Feet": 3773, "Grid Ref": "NH160351", "Xcoord": 216102, "Ycoord": 835126, "Latitude": 57.369319, "Longitude": -5.059743, "Viewable": 2551.19 }, "geometry": { "type": "Point", "coordinates": [ -5.05975181485052, 57.369338804802695 ] } },
{ "type": "Feature", "properties": { "Number": 936, "Name": "Carn nan Gobhar", "Classifica": "Ma,M,Mur", "Metres": 993.0, "Feet": 3258, "Grid Ref": "NH181343", "Xcoord": 218188, "Ycoord": 834362, "Latitude": 57.363304, "Longitude": -5.024544, "Viewable": 1464.98 }, "geometry": { "type": "Point", "coordinates": [ -5.024553927647769, 57.363323225569012 ] } },
{ "type": "Feature", "properties": { "Number": 953, "Name": "Liathach - Spidean a'Choire Leith", "Classifica": "Ma,M,Mur", "Metres": 1055.0, "Feet": 3461, "Grid Ref": "NG929579", "Xcoord": 192936, "Ycoord": 857969, "Latitude": 57.564189, "Longitude": -5.463575, "Viewable": 699.32 }, "geometry": { "type": "Point", "coordinates": [ -5.463577674939199, 57.564212637401894 ] } },
{ "type": "Feature", "properties": { "Number": 955, "Name": "Beinn Eighe - Ruadh-stac Mor", "Classifica": "Ma,M,Mur", "Metres": 1010.0, "Feet": 3314, "Grid Ref": "NG951611", "Xcoord": 195142, "Ycoord": 861151, "Latitude": 57.593726, "Longitude": -5.429453, "Viewable": 1029.43 }, "geometry": { "type": "Point", "coordinates": [ -5.4294570723097, 57.593748493508556 ] } },
{ "type": "Feature", "properties": { "Number": 956, "Name": "Beinn Eighe - Spidean Coire nan Clach", "Classifica": "Ma,M,Mur", "Metres": 993.0, "Feet": 3258, "Grid Ref": "NG966597", "Xcoord": 196615, "Ycoord": 859780, "Latitude": 57.582098, "Longitude": -5.403706, "Viewable": 625.99 }, "geometry": { "type": "Point", "coordinates": [ -5.403710261342403, 57.582121282610728 ] } },
{ "type": "Feature", "properties": { "Number": 982, "Name": "Maol Chean-dearg", "Classifica": "Ma,M,Mur", "Metres": 933.0, "Feet": 3061, "Grid Ref": "NG924499", "Xcoord": 192406, "Ycoord": 849911, "Latitude": 57.491697, "Longitude": -5.465549, "Viewable": 613.72 }, "geometry": { "type": "Point", "coordinates": [ -5.465551027918687, 57.491721609267501 ] } },
{ "type": "Feature", "properties": { "Number": 1003, "Name": "An Teallach - Bidein a'Ghlas Thuill", "Classifica": "Ma,M,Mur", "Metres": 1062.0, "Feet": 3484, "Grid Ref": "NH069843", "Xcoord": 206899, "Ycoord": 884372, "Latitude": 57.807153, "Longitude": -5.251721, "Viewable": 1629.76 }, "geometry": { "type": "Point", "coordinates": [ -5.251730197609828, 57.807171838301372 ] } },
{ "type": "Feature", "properties": { "Number": 1004, "Name": "An Teallach - Sgurr Fiona", "Classifica": "Hu,M,Mur,sMa", "Metres": 1060.0, "Feet": 3478, "Grid Ref": "NH064836", "Xcoord": 206407, "Ycoord": 883678, "Latitude": 57.800717, "Longitude": -5.259425, "Viewable": 399.64 }, "geometry": { "type": "Point", "coordinates": [ -5.259433755465578, 57.80073595909947 ] } },
{ "type": "Feature", "properties": { "Number": 1007, "Name": "Mullach Coire Mhic Fhearchair", "Classifica": "Ma,M,Mur", "Metres": 1018.0, "Feet": 3340, "Grid Ref": "NH052735", "Xcoord": 205202, "Ycoord": 873506, "Latitude": 57.708976, "Longitude": -5.271405, "Viewable": 1072.93 }, "geometry": { "type": "Point", "coordinates": [ -5.271413220520044, 57.708996630453591 ] } },
{ "type": "Feature", "properties": { "Number": 1009, "Name": "Sgurr Ban", "Classifica": "Ma,M,Mur", "Metres": 989.0, "Feet": 3245, "Grid Ref": "NH055745", "Xcoord": 205579, "Ycoord": 874553, "Latitude": 57.718528, "Longitude": -5.265935, "Viewable": 1161.73 }, "geometry": { "type": "Point", "coordinates": [ -5.265943204964962, 57.718548920403421 ] } },
{ "type": "Feature", "properties": { "Number": 1014, "Name": "A'Mhaighdean", "Classifica": "Ma,M,Mur", "Metres": 967.0, "Feet": 3173, "Grid Ref": "NH007749", "Xcoord": 200773, "Ycoord": 874917, "Latitude": 57.719688, "Longitude": -5.346774, "Viewable": 1137.96 }, "geometry": { "type": "Point", "coordinates": [ -5.346780781494364, 57.719707900285158 ] } },
{ "type": "Feature", "properties": { "Number": 1023, "Name": "Ruadh Stac Mor", "Classifica": "Ma,M,Mur", "Metres": 918.7, "Feet": 3014, "Grid Ref": "NH018756", "Xcoord": 201853, "Ycoord": 875655, "Latitude": 57.726783, "Longitude": -5.329288, "Viewable": 797.71 }, "geometry": { "type": "Point", "coordinates": [ -5.329290492984533, 57.726803097811434 ] } },
{ "type": "Feature", "properties": { "Number": 1040, "Name": "Sgurr Mor", "Classifica": "Ma,M,Mur", "Metres": 1108.0, "Feet": 3635, "Grid Ref": "NH203718", "Xcoord": 220323, "Ycoord": 871817, "Latitude": 57.700124, "Longitude": -5.016764, "Viewable": 1047.37 }, "geometry": { "type": "Point", "coordinates": [ -5.016760485603925, 57.700146021255712 ] } },
{ "type": "Feature", "properties": { "Number": 1041, "Name": "Sgurr nan Clach Geala", "Classifica": "Ma,M,Mur", "Metres": 1093.0, "Feet": 3586, "Grid Ref": "NH184714", "Xcoord": 218428, "Ycoord": 871474, "Latitude": 57.696287, "Longitude": -5.048238, "Viewable": 1006.71 }, "geometry": { "type": "Point", "coordinates": [ -5.04824994433955, 57.696308253293921 ] } },
{ "type": "Feature", "properties": { "Number": 1042, "Name": "Sgurr Breac", "Classifica": "Ma,M,Mur", "Metres": 999.0, "Feet": 3278, "Grid Ref": "NH158711", "Xcoord": 215816, "Ycoord": 871121, "Latitude": 57.692058, "Longitude": -5.091723, "Viewable": 1036.59 }, "geometry": { "type": "Point", "coordinates": [ -5.091734129120164, 57.692079982793778 ] } },
{ "type": "Feature", "properties": { "Number": 1043, "Name": "A'Chailleach", "Classifica": "Ma,M,Mur", "Metres": 997.0, "Feet": 3271, "Grid Ref": "NH136714", "Xcoord": 213620, "Ycoord": 871414, "Latitude": 57.693782, "Longitude": -5.12873, "Viewable": 1097.64 }, "geometry": { "type": "Point", "coordinates": [ -5.128740912993928, 57.693803270317147 ] } },
{ "type": "Feature", "properties": { "Number": 1050, "Name": "Fionn Bheinn", "Classifica": "Ma,M,Mur", "Metres": 933.0, "Feet": 3061, "Grid Ref": "NH147621", "Xcoord": 214749, "Ycoord": 862149, "Latitude": 57.611148, "Longitude": -5.102713, "Viewable": 1003.33 }, "geometry": { "type": "Point", "coordinates": [ -5.102723237832324, 57.611171219653755 ] } },
{ "type": "Feature", "properties": { "Number": 1051, "Name": "Sgurr nan Each", "Classifica": "Hu,M,Mur", "Metres": 923.0, "Feet": 3028, "Grid Ref": "NH184697", "Xcoord": 218400, "Ycoord": 869700, "Latitude": 57.680366, "Longitude": -5.047378, "Viewable": 411.52 }, "geometry": { "type": "Point", "coordinates": [ -5.047381773937665, 57.680385026502641 ] } },
{ "type": "Feature", "properties": { "Number": 1052, "Name": "An Coileachan", "Classifica": "Hu,M,Mur,sMa", "Metres": 923.0, "Feet": 3028, "Grid Ref": "NH241680", "Xcoord": 224177, "Ycoord": 868018, "Latitude": 57.667569, "Longitude": -4.949418, "Viewable": 1178.45 }, "geometry": { "type": "Point", "coordinates": [ -4.949415134171296, 57.66759140432049 ] } },
{ "type": "Feature", "properties": { "Number": 1064, "Name": "Meall nan Ceapraichean", "Classifica": "Hu,M,Mur", "Metres": 977.0, "Feet": 3205, "Grid Ref": "NH257825", "Xcoord": 225725, "Ycoord": 882547, "Latitude": 57.798505, "Longitude": -4.934044, "Viewable": 1174.02 }, "geometry": { "type": "Point", "coordinates": [ -4.934042937050728, 57.798524666790982 ] } },
{ "type": "Feature", "properties": { "Number": 1068, "Name": "Eididh nan Clach Geala", "Classifica": "Ma,M,Mur", "Metres": 927.0, "Feet": 3041, "Grid Ref": "NH257842", "Xcoord": 225789, "Ycoord": 884214, "Latitude": 57.813483, "Longitude": -4.934184, "Viewable": 881.41 }, "geometry": { "type": "Point", "coordinates": [ -4.934182607558127, 57.813503028049553 ] } },
{ "type": "Feature", "properties": { "Number": 1069, "Name": "Seana Bhraigh", "Classifica": "Ma,M,Mur", "Metres": 926.0, "Feet": 3038, "Grid Ref": "NH281878", "Xcoord": 228180, "Ycoord": 887883, "Latitude": 57.847321, "Longitude": -4.896636, "Viewable": 1392.35 }, "geometry": { "type": "Point", "coordinates": [ -4.896635523571217, 57.847340104020759 ] } },
{ "type": "Feature", "properties": { "Number": 1088, "Name": "Ben Wyvis - Glas Leathad Mor", "Classifica": "Ma,M,Mur", "Metres": 1046.0, "Feet": 3432, "Grid Ref": "NH462683", "Xcoord": 246295, "Ycoord": 868377, "Latitude": 57.678895, "Longitude": -4.579282, "Viewable": 3059.04 }, "geometry": { "type": "Point", "coordinates": [ -4.579285998528604, 57.678909576503514 ] } },
{ "type": "Feature", "properties": { "Number": 1165, "Name": "Ben Klibreck - Meall nan Con", "Classifica": "Ma,M,Mur", "Metres": 962.0, "Feet": 3156, "Grid Ref": "NC585299", "Xcoord": 258526, "Ycoord": 929917, "Latitude": 58.235162, "Longitude": -4.411194, "Viewable": 3244.3 }, "geometry": { "type": "Point", "coordinates": [ -4.411189690343812, 58.235182813215133 ] } },
{ "type": "Feature", "properties": { "Number": 1184, "Name": "Conival", "Classifica": "Hu,M,Mur", "Metres": 987.0, "Feet": 3238, "Grid Ref": "NC303199", "Xcoord": 230330, "Ycoord": 919939, "Latitude": 58.135698, "Longitude": -4.883498, "Viewable": 2103.19 }, "geometry": { "type": "Point", "coordinates": [ -4.883500568285841, 58.135719925791129 ] } },
{ "type": "Feature", "properties": { "Number": 1247, "Name": "Bruach na Frithe", "Classifica": "Hu,M,Mur", "Metres": 958.0, "Feet": 3143, "Grid Ref": "NG460251", "Xcoord": 146084, "Ycoord": 825201, "Latitude": 57.24677, "Longitude": -6.210796, "Viewable": 1777.84 }, "geometry": { "type": "Point", "coordinates": [ -6.210814244546882, 57.24679693648681 ] } }
]
}
