{
"type": "FeatureCollection",
"crs": { "type": "name", "properties": { "name": "urn:ogc:def:crs:OGC:1.3:CRS84" } },
                                                                                
"features": [
{ "type": "Feature", "properties": { "Number": 1, "Name": "Ben Chonzie", "Classifica": "Ma,M,Mur", "Metres": 931.0, "Feet": 3054, "Grid Ref": "NN773308", "Xcoord": 277324, "Ycoord": 730857, "Latitude": 56.453851, "Longitude": -3.992057, "Viewable": 2111.33 }, "geometry": { "type": "Point", "coordinates": [ -3.99206200693323, 56.453856530406412 ] } },
{ "type": "Feature", "properties": { "Number": 17, "Name": "Ben Vorlich", "Classifica": "Ma,M,Mur", "Metres": 985.0, "Feet": 3232, "Grid Ref": "NN629189", "Xcoord": 262910, "Ycoord": 718915, "Latitude": 56.342671, "Longitude": -4.21948, "Viewable": 2666.0 }, "geometry": { "type": "Point", "coordinates": [ -4.219495635291023, 56.342677209723341 ] } },
{ "type": "Feature", "properties": { "Number": 18, "Name": "Stuc a'Chroin", "Classifica": "Ma,M,Mur", "Metres": 975.0, "Feet": 3199, "Grid Ref": "NN617174", "Xcoord": 261746, "Ycoord": 717466, "Latitude": 56.329324, "Longitude": -4.237534, "Viewable": 2772.99 }, "geometry": { "type": "Point", "coordinates": [ -4.237549383185885, 56.329330486973426 ] } },
{ "type": "Feature", "properties": { "Number": 421, "Name": "Beinn a'Ghlo - Carn nan Gabhar", "Classifica": "Ma,M,Mur", "Metres": 1121.0, "Feet": 3678, "Grid Ref": "NN971733", "Xcoord": 297118, "Ycoord": 773314, "Latitude": 56.839837, "Longitude": -3.688022, "Viewable": 3436.57 }, "geometry": { "type": "Point", "coordinates": [ -3.688020790055512, 56.839852557144795 ] } },
{ "type": "Feature", "properties": { "Number": 457, "Name": "Lochnagar - Cac Carn Beag", "Classifica": "Ma,M,Mur", "Metres": 1155.0, "Feet": 3789, "Grid Ref": "NO243861", "Xcoord": 324373, "Ycoord": 786139, "Latitude": 56.960263, "Longitude": -3.245244, "Viewable": 4178.17 }, "geometry": { "type": "Point", "coordinates": [ -3.245236420830211, 56.960277441300491 ] } },
{ "type": "Feature", "properties": { "Number": 459, "Name": "Carn a'Choire Bhoidheach", "Classifica": "M,Mur", "Metres": 1110.0, "Feet": 3642, "Grid Ref": "NO226845", "Xcoord": 322671, "Ycoord": 784557, "Latitude": 56.945773, "Longitude": -3.272724, "Viewable": 3021.53 }, "geometry": { "type": "Point", "coordinates": [ -3.272731923768839, 56.945787663282445 ] } },
{ "type": "Feature", "properties": { "Number": 461, "Name": "Glas Maol", "Classifica": "Ma,M,Mur,CoH,CoU", "Metres": 1068.0, "Feet": 3504, "Grid Ref": "NO166765", "Xcoord": 316699, "Ycoord": 776577, "Latitude": 56.873068, "Longitude": -3.368237, "Viewable": 1654.25 }, "geometry": { "type": "Point", "coordinates": [ -3.368242306779357, 56.873083554161347 ] } },
{ "type": "Feature", "properties": { "Number": 468, "Name": "Cairn Bannoch", "Classifica": "M,Mur", "Metres": 1012.0, "Feet": 3320, "Grid Ref": "NO222825", "Xcoord": 322286, "Ycoord": 782554, "Latitude": 56.927719, "Longitude": -3.278435, "Viewable": 556.54 }, "geometry": { "type": "Point", "coordinates": [ -3.278442892067615, 56.927734013195526 ] } },
{ "type": "Feature", "properties": { "Number": 470, "Name": "Broad Cairn", "Classifica": "M,Mur", "Metres": 998.0, "Feet": 3274, "Grid Ref": "NO240815", "Xcoord": 324055, "Ycoord": 781569, "Latitude": 56.919166, "Longitude": -3.249083, "Viewable": 597.62 }, "geometry": { "type": "Point", "coordinates": [ -3.249091009378762, 56.919181335827261 ] } },
{ "type": "Feature", "properties": { "Number": 472, "Name": "Creag Leacach", "Classifica": "M,Mur", "Metres": 987.0, "Feet": 3238, "Grid Ref": "NO154745", "Xcoord": 315467, "Ycoord": 774549, "Latitude": 56.85464, "Longitude": -3.387768, "Viewable": 1466.22 }, "geometry": { "type": "Point", "coordinates": [ -3.387772742848489, 56.854647540038549 ] } },
{ "type": "Feature", "properties": { "Number": 479, "Name": "Tolmount", "Classifica": "M,Mur", "Metres": 958.0, "Feet": 3143, "Grid Ref": "NO210800", "Xcoord": 321050, "Ycoord": 780018, "Latitude": 56.904733, "Longitude": -3.297946, "Viewable": 313.53 }, "geometry": { "type": "Point", "coordinates": [ -3.297953226751834, 56.904748827841267 ] } },
{ "type": "Feature", "properties": { "Number": 480, "Name": "Tom Buidhe", "Classifica": "M,Mur", "Metres": 957.0, "Feet": 3140, "Grid Ref": "NO213787", "Xcoord": 321367, "Ycoord": 778773, "Latitude": 56.893606, "Longitude": -3.292356, "Viewable": 722.94 }, "geometry": { "type": "Point", "coordinates": [ -3.292363409623434, 56.893621327638492 ] } },
{ "type": "Feature", "properties": { "Number": 486, "Name": "Mayar", "Classifica": "Hu,M,Mur", "Metres": 928.0, "Feet": 3045, "Grid Ref": "NO240737", "Xcoord": 324081, "Ycoord": 773749, "Latitude": 56.848936, "Longitude": -3.246316, "Viewable": 1541.99 }, "geometry": { "type": "Point", "coordinates": [ -3.246323559038592, 56.848952168235172 ] } },
{ "type": "Feature", "properties": { "Number": 518, "Name": "Ben Macdui [Beinn Macduibh]", "Classifica": "Ma,M,Mur,CoH,CoU,CoA", "Metres": 1309.0, "Feet": 4295, "Grid Ref": "NN988989", "Xcoord": 298899, "Ycoord": 798943, "Latitude": 57.070368, "Longitude": -3.669099, "Viewable": 4570.33 }, "geometry": { "type": "Point", "coordinates": [ -3.669099512465734, 57.070379220462421 ] } },
{ "type": "Feature", "properties": { "Number": 519, "Name": "Braeriach", "Classifica": "Ma,M,Mur", "Metres": 1296.0, "Feet": 4252, "Grid Ref": "NN953999", "Xcoord": 295315, "Ycoord": 799901, "Latitude": 57.078169, "Longitude": -3.728581, "Viewable": 3686.65 }, "geometry": { "type": "Point", "coordinates": [ -3.728580783883529, 57.078179977584583 ] } },
{ "type": "Feature", "properties": { "Number": 521, "Name": "Cairn Toul", "Classifica": "Ma,M,Mur", "Metres": 1291.0, "Feet": 4236, "Grid Ref": "NN963972", "Xcoord": 296329, "Ycoord": 797228, "Latitude": 57.054397, "Longitude": -3.710757, "Viewable": 2574.53 }, "geometry": { "type": "Point", "coordinates": [ -3.710756759669017, 57.054408366486456 ] } },
{ "type": "Feature", "properties": { "Number": 525, "Name": "Cairn Gorm", "Classifica": "Hu,M,Mur,sMa", "Metres": 1244.0, "Feet": 4081, "Grid Ref": "NJ005040", "Xcoord": 300519, "Ycoord": 804067, "Latitude": 57.116732, "Longitude": -3.644428, "Viewable": 4038.33 }, "geometry": { "type": "Point", "coordinates": [ -3.644429601408166, 57.116742590420714 ] } },
{ "type": "Feature", "properties": { "Number": 529, "Name": "Beinn a'Bhuird North Top", "Classifica": "Ma,M,Mur", "Metres": 1197.0, "Feet": 3927, "Grid Ref": "NJ092006", "Xcoord": 309231, "Ycoord": 800622, "Latitude": 57.087599, "Longitude": -3.499367, "Viewable": 3264.15 }, "geometry": { "type": "Point", "coordinates": [ -3.499371312370937, 57.087610385062767 ] } },
{ "type": "Feature", "properties": { "Number": 531, "Name": "Beinn Mheadhoin", "Classifica": "Ma,M,Mur", "Metres": 1182.0, "Feet": 3878, "Grid Ref": "NJ024016", "Xcoord": 302458, "Ycoord": 801694, "Latitude": 57.095839, "Longitude": -3.611497, "Viewable": 1344.42 }, "geometry": { "type": "Point", "coordinates": [ -3.611498719165926, 57.09584995725838 ] } },
{ "type": "Feature", "properties": { "Number": 536, "Name": "Ben Avon - Leabaidh an Daimh Bhuidhe", "Classifica": "Ma,M,Mur", "Metres": 1171.0, "Feet": 3842, "Grid Ref": "NJ131018", "Xcoord": 313193, "Ycoord": 801848, "Latitude": 57.099374, "Longitude": -3.434439, "Viewable": 3365.96 }, "geometry": { "type": "Point", "coordinates": [ -3.434445164748285, 57.099385106798351 ] } },
{ "type": "Feature", "properties": { "Number": 539, "Name": "Derry Cairngorm", "Classifica": "Hu,M,Mur,sMa", "Metres": 1155.0, "Feet": 3789, "Grid Ref": "NO017980", "Xcoord": 301734, "Ycoord": 798032, "Latitude": 57.062801, "Longitude": -3.622004, "Viewable": 1496.44 }, "geometry": { "type": "Point", "coordinates": [ -3.622006225533656, 57.062812871535137 ] } },
{ "type": "Feature", "properties": { "Number": 559, "Name": "Beinn a'Chaorainn", "Classifica": "Ma,M,Mur", "Metres": 1083.0, "Feet": 3553, "Grid Ref": "NJ045013", "Xcoord": 304514, "Ycoord": 801367, "Latitude": 57.093334, "Longitude": -3.577453, "Viewable": 263.79 }, "geometry": { "type": "Point", "coordinates": [ -3.577455844581287, 57.09334516161038 ] } },
{ "type": "Feature", "properties": { "Number": 587, "Name": "Beinn Bhreac", "Classifica": "M,Mur", "Metres": 931.0, "Feet": 3054, "Grid Ref": "NO058970", "Xcoord": 305869, "Ycoord": 797074, "Latitude": 57.055063, "Longitude": -3.553488, "Viewable": 211.88 }, "geometry": { "type": "Point", "coordinates": [ -3.553491066496706, 57.055074226353696 ] } }
]
}
