{
"type": "FeatureCollection",
"crs": { "type": "name", "properties": { "name": "urn:ogc:def:crs:OGC:1.3:CRS84" } },
                                                                                
"features": [
{ "type": "Feature", "properties": { "Number": 884, "Name": "Sgurr a'Choire Ghlais", "Classifica": "Ma,M,Mur", "Metres": 1083.0, "Feet": 3553, "Grid Ref": "NH258430", "Xcoord": 225882, "Ycoord": 843016, "Latitude": 57.443947, "Longitude": -4.902963, "Viewable": 2122.31 }, "geometry": { "type": "Point", "coordinates": [ -4.902958898057218, 57.443965771145983 ] } },
{ "type": "Feature", "properties": { "Number": 894, "Name": "Sgurr na Ruaidhe", "Classifica": "Ma,M,Mur", "Metres": 993.0, "Feet": 3258, "Grid Ref": "NH289426", "Xcoord": 228900, "Ycoord": 842614, "Latitude": 57.441488, "Longitude": -4.852464, "Viewable": 1705.41 }, "geometry": { "type": "Point", "coordinates": [ -4.852461095128953, 57.441506570677539 ] } },
{ "type": "Feature", "properties": { "Number": 1003, "Name": "An Teallach - Bidein a'Ghlas Thuill", "Classifica": "Ma,M,Mur", "Metres": 1062.0, "Feet": 3484, "Grid Ref": "NH069843", "Xcoord": 206899, "Ycoord": 884372, "Latitude": 57.807153, "Longitude": -5.251721, "Viewable": 1629.76 }, "geometry": { "type": "Point", "coordinates": [ -5.251730197609828, 57.807171838301372 ] } },
{ "type": "Feature", "properties": { "Number": 1040, "Name": "Sgurr Mor", "Classifica": "Ma,M,Mur", "Metres": 1108.0, "Feet": 3635, "Grid Ref": "NH203718", "Xcoord": 220323, "Ycoord": 871817, "Latitude": 57.700124, "Longitude": -5.016764, "Viewable": 1047.37 }, "geometry": { "type": "Point", "coordinates": [ -5.016760485603925, 57.700146021255712 ] } },
{ "type": "Feature", "properties": { "Number": 1041, "Name": "Sgurr nan Clach Geala", "Classifica": "Ma,M,Mur", "Metres": 1093.0, "Feet": 3586, "Grid Ref": "NH184714", "Xcoord": 218428, "Ycoord": 871474, "Latitude": 57.696287, "Longitude": -5.048238, "Viewable": 1006.71 }, "geometry": { "type": "Point", "coordinates": [ -5.04824994433955, 57.696308253293921 ] } },
{ "type": "Feature", "properties": { "Number": 1042, "Name": "Sgurr Breac", "Classifica": "Ma,M,Mur", "Metres": 999.0, "Feet": 3278, "Grid Ref": "NH158711", "Xcoord": 215816, "Ycoord": 871121, "Latitude": 57.692058, "Longitude": -5.091723, "Viewable": 1036.59 }, "geometry": { "type": "Point", "coordinates": [ -5.091734129120164, 57.692079982793778 ] } },
{ "type": "Feature", "properties": { "Number": 1043, "Name": "A'Chailleach", "Classifica": "Ma,M,Mur", "Metres": 997.0, "Feet": 3271, "Grid Ref": "NH136714", "Xcoord": 213620, "Ycoord": 871414, "Latitude": 57.693782, "Longitude": -5.12873, "Viewable": 1097.64 }, "geometry": { "type": "Point", "coordinates": [ -5.128740912993928, 57.693803270317147 ] } },
{ "type": "Feature", "properties": { "Number": 1049, "Name": "Meall a'Chrasgaidh", "Classifica": "Hu,M,Mur", "Metres": 934.0, "Feet": 3064, "Grid Ref": "NH184733", "Xcoord": 218475, "Ycoord": 873323, "Latitude": 57.712891, "Longitude": -5.048845, "Viewable": 634.95 }, "geometry": { "type": "Point", "coordinates": [ -5.048857289976441, 57.712911817197543 ] } },
{ "type": "Feature", "properties": { "Number": 1064, "Name": "Meall nan Ceapraichean", "Classifica": "Hu,M,Mur", "Metres": 977.0, "Feet": 3205, "Grid Ref": "NH257825", "Xcoord": 225725, "Ycoord": 882547, "Latitude": 57.798505, "Longitude": -4.934044, "Viewable": 1174.02 }, "geometry": { "type": "Point", "coordinates": [ -4.934042937050728, 57.798524666790982 ] } },
{ "type": "Feature", "properties": { "Number": 1068, "Name": "Eididh nan Clach Geala", "Classifica": "Ma,M,Mur", "Metres": 927.0, "Feet": 3041, "Grid Ref": "NH257842", "Xcoord": 225789, "Ycoord": 884214, "Latitude": 57.813483, "Longitude": -4.934184, "Viewable": 881.41 }, "geometry": { "type": "Point", "coordinates": [ -4.934182607558127, 57.813503028049553 ] } },
{ "type": "Feature", "properties": { "Number": 1088, "Name": "Ben Wyvis - Glas Leathad Mor", "Classifica": "Ma,M,Mur", "Metres": 1046.0, "Feet": 3432, "Grid Ref": "NH462683", "Xcoord": 246295, "Ycoord": 868377, "Latitude": 57.678895, "Longitude": -4.579282, "Viewable": 3059.04 }, "geometry": { "type": "Point", "coordinates": [ -4.579285998528604, 57.678909576503514 ] } },
{ "type": "Feature", "properties": { "Number": 1123, "Name": "Ben Hope", "Classifica": "Ma,M,Mur", "Metres": 927.0, "Feet": 3041, "Grid Ref": "NC477501", "Xcoord": 247750, "Ycoord": 950151, "Latitude": 58.413113, "Longitude": -4.60786, "Viewable": 1503.84 }, "geometry": { "type": "Point", "coordinates": [ -4.607853262796916, 58.413129957255826 ] } },
{ "type": "Feature", "properties": { "Number": 1165, "Name": "Ben Klibreck - Meall nan Con", "Classifica": "Ma,M,Mur", "Metres": 962.0, "Feet": 3156, "Grid Ref": "NC585299", "Xcoord": 258526, "Ycoord": 929917, "Latitude": 58.235162, "Longitude": -4.411194, "Viewable": 3244.3 }, "geometry": { "type": "Point", "coordinates": [ -4.411189690343812, 58.235182813215133 ] } },
{ "type": "Feature", "properties": { "Number": 1183, "Name": "Ben More Assynt", "Classifica": "Ma,M,Mur,CoH", "Metres": 998.0, "Feet": 3274, "Grid Ref": "NC318201", "Xcoord": 231830, "Ycoord": 920150, "Latitude": 58.138164, "Longitude": -4.858208, "Viewable": 1835.44 }, "geometry": { "type": "Point", "coordinates": [ -4.858211664004492, 58.138185800448525 ] } },
{ "type": "Feature", "properties": { "Number": 1184, "Name": "Conival", "Classifica": "Hu,M,Mur", "Metres": 987.0, "Feet": 3238, "Grid Ref": "NC303199", "Xcoord": 230330, "Ycoord": 919939, "Latitude": 58.135698, "Longitude": -4.883498, "Viewable": 2103.19 }, "geometry": { "type": "Point", "coordinates": [ -4.883500568285841, 58.135719925791129 ] } }
]
}
