{
"type": "FeatureCollection",
"crs": { "type": "name", "properties": { "name": "urn:ogc:def:crs:OGC:1.3:CRS84" } },
                                                                                
"features": [
{ "type": "Feature", "properties": { "Number": 26, "Name": "Ben More", "Classifica": "Ma,M,Mur,CoU,CoA", "Metres": 1174.0, "Feet": 3852, "Grid Ref": "NN432244", "Xcoord": 243275, "Ycoord": 724417, "Latitude": 56.385952, "Longitude": -4.540103, "Viewable": 5395.04 }, "geometry": { "type": "Point", "coordinates": [ -4.540113304326504, 56.385966153011587 ] } },
{ "type": "Feature", "properties": { "Number": 27, "Name": "Stob Binnein", "Classifica": "Ma,M,Mur", "Metres": 1165.0, "Feet": 3822, "Grid Ref": "NN434227", "Xcoord": 243481, "Ycoord": 722714, "Latitude": 56.370735, "Longitude": -4.535754, "Viewable": 5454.05 }, "geometry": { "type": "Point", "coordinates": [ -4.535764148329166, 56.3707494599198 ] } },
{ "type": "Feature", "properties": { "Number": 31, "Name": "An Caisteal", "Classifica": "Ma,M,Mur", "Metres": 995.0, "Feet": 3264, "Grid Ref": "NN378193", "Xcoord": 237873, "Ycoord": 719345, "Latitude": 56.338618, "Longitude": -4.62437, "Viewable": 1717.21 }, "geometry": { "type": "Point", "coordinates": [ -4.624377236134579, 56.338624251970657 ] } },
{ "type": "Feature", "properties": { "Number": 32, "Name": "Ben Lomond", "Classifica": "Ma,M,Mur,CoH", "Metres": 974.0, "Feet": 3196, "Grid Ref": "NN367028", "Xcoord": 236703, "Ycoord": 702866, "Latitude": 56.190319, "Longitude": -4.633075, "Viewable": 2750.61 }, "geometry": { "type": "Point", "coordinates": [ -4.63309783142891, 56.190327102826281 ] } },
{ "type": "Feature", "properties": { "Number": 38, "Name": "Beinn Chabhair", "Classifica": "Ma,M,Mur", "Metres": 933.0, "Feet": 3061, "Grid Ref": "NN367179", "Xcoord": 236758, "Ycoord": 717968, "Latitude": 56.325877, "Longitude": -4.641532, "Viewable": 1289.78 }, "geometry": { "type": "Point", "coordinates": [ -4.641538972349795, 56.325883066484238 ] } },
{ "type": "Feature", "properties": { "Number": 65, "Name": "Ben Lui [Beinn Laoigh]", "Classifica": "Ma,M,Mur", "Metres": 1130.0, "Feet": 3707, "Grid Ref": "NN266263", "Xcoord": 226635, "Ycoord": 726297, "Latitude": 56.397013, "Longitude": -4.81051, "Viewable": 3782.59 }, "geometry": { "type": "Point", "coordinates": [ -4.81053058075227, 56.39702582631709 ] } },
{ "type": "Feature", "properties": { "Number": 67, "Name": "Ben Oss", "Classifica": "Ma,M,Mur", "Metres": 1029.0, "Feet": 3376, "Grid Ref": "NN287253", "Xcoord": 228761, "Ycoord": 725347, "Latitude": 56.389263, "Longitude": -4.775488, "Viewable": 1445.66 }, "geometry": { "type": "Point", "coordinates": [ -4.775509457776855, 56.389276301083441 ] } },
{ "type": "Feature", "properties": { "Number": 68, "Name": "Beinn Ime", "Classifica": "Ma,M,Mur", "Metres": 1011.0, "Feet": 3317, "Grid Ref": "NN254084", "Xcoord": 225494, "Ycoord": 708491, "Latitude": 56.23682, "Longitude": -4.817175, "Viewable": 1774.61 }, "geometry": { "type": "Point", "coordinates": [ -4.817193927797842, 56.236827174716026 ] } },
{ "type": "Feature", "properties": { "Number": 69, "Name": "Beinn Dubhchraig", "Classifica": "Ma,M,Mur", "Metres": 978.0, "Feet": 3209, "Grid Ref": "NN307254", "Xcoord": 230762, "Ycoord": 725494, "Latitude": 56.391303, "Longitude": -4.74321, "Viewable": 588.08 }, "geometry": { "type": "Point", "coordinates": [ -4.743232250358528, 56.391316270580418 ] } },
{ "type": "Feature", "properties": { "Number": 70, "Name": "Beinn Bhuidhe", "Classifica": "Ma,M,Mur", "Metres": 948.0, "Feet": 3110, "Grid Ref": "NN203187", "Xcoord": 220369, "Ycoord": 718722, "Latitude": 56.326704, "Longitude": -4.90671, "Viewable": 1380.77 }, "geometry": { "type": "Point", "coordinates": [ -4.906728470563254, 56.326718033585649 ] } },
{ "type": "Feature", "properties": { "Number": 71, "Name": "Ben Vorlich", "Classifica": "Ma,M,Mur,CoH", "Metres": 943.0, "Feet": 3094, "Grid Ref": "NN295124", "Xcoord": 229509, "Ycoord": 712475, "Latitude": 56.27403, "Longitude": -4.755047, "Viewable": 1094.11 }, "geometry": { "type": "Point", "coordinates": [ -4.755067535252079, 56.274036411876125 ] } },
{ "type": "Feature", "properties": { "Number": 75, "Name": "Beinn a'Chleibh", "Classifica": "Hu,M,Mur,sMa", "Metres": 916.3, "Feet": 3006, "Grid Ref": "NN250256", "Xcoord": 225054, "Ycoord": 725606, "Latitude": 56.390231, "Longitude": -4.835634, "Viewable": 674.28 }, "geometry": { "type": "Point", "coordinates": [ -4.835650055329889, 56.390242652383144 ] } },
{ "type": "Feature", "properties": { "Number": 76, "Name": "Ben Vane", "Classifica": "Ma,M,Mur", "Metres": 915.76, "Feet": 3004, "Grid Ref": "NN277098", "Xcoord": 227754, "Ycoord": 709843, "Latitude": 56.249777, "Longitude": -4.781638, "Viewable": 1686.11 }, "geometry": { "type": "Point", "coordinates": [ -4.781658370233979, 56.249784025496517 ] } },
{ "type": "Feature", "properties": { "Number": 104, "Name": "Beinn a'Chreachain", "Classifica": "Ma,M,Mur", "Metres": 1081.0, "Feet": 3547, "Grid Ref": "NN373440", "Xcoord": 237389, "Ycoord": 744075, "Latitude": 56.560387, "Longitude": -4.647589, "Viewable": 1044.86 }, "geometry": { "type": "Point", "coordinates": [ -4.647598463275189, 56.560397108836888 ] } },
{ "type": "Feature", "properties": { "Number": 105, "Name": "Beinn Dorain", "Classifica": "Ma,M,Mur", "Metres": 1076.0, "Feet": 3530, "Grid Ref": "NN325378", "Xcoord": 232563, "Ycoord": 737875, "Latitude": 56.503053, "Longitude": -4.722024, "Viewable": 1045.8 }, "geometry": { "type": "Point", "coordinates": [ -4.722031289863984, 56.50306380306229 ] } },
{ "type": "Feature", "properties": { "Number": 108, "Name": "Beinn Achaladair", "Classifica": "Ma,M,Mur", "Metres": 1038.0, "Feet": 3406, "Grid Ref": "NN346433", "Xcoord": 234600, "Ycoord": 743300, "Latitude": 56.552454, "Longitude": -4.692417, "Viewable": 406.94 }, "geometry": { "type": "Point", "coordinates": [ -4.692430335326931, 56.552468136667706 ] } },
{ "type": "Feature", "properties": { "Number": 112, "Name": "Beinn an Dothaidh", "Classifica": "Ma,M,Mur", "Metres": 1004.0, "Feet": 3294, "Grid Ref": "NN331408", "Xcoord": 233100, "Ycoord": 740800, "Latitude": 56.529489, "Longitude": -4.715181, "Viewable": 377.06 }, "geometry": { "type": "Point", "coordinates": [ -4.715195049676126, 56.529503044917327 ] } },
{ "type": "Feature", "properties": { "Number": 141, "Name": "Ben Lawers", "Classifica": "Ma,M,Mur,CoH,CoU,CoA", "Metres": 1214.0, "Feet": 3983, "Grid Ref": "NN635414", "Xcoord": 263551, "Ycoord": 741423, "Latitude": 56.544912, "Longitude": -4.220892, "Viewable": 5284.86 }, "geometry": { "type": "Point", "coordinates": [ -4.220893941012826, 56.544923728277958 ] } },
{ "type": "Feature", "properties": { "Number": 142, "Name": "An Stuc", "Classifica": "Ma=,Hu,M,Mur", "Metres": 1118.0, "Feet": 3668, "Grid Ref": "NN638430", "Xcoord": 263875, "Ycoord": 743089, "Latitude": 56.559962, "Longitude": -4.216501, "Viewable": 3238.06 }, "geometry": { "type": "Point", "coordinates": [ -4.216503123509484, 56.55997366235917 ] } },
{ "type": "Feature", "properties": { "Number": 143, "Name": "Meall Garbh", "Classifica": "Ma,M,Mur", "Metres": 1118.0, "Feet": 3668, "Grid Ref": "NN644437", "Xcoord": 264437, "Ycoord": 743759, "Latitude": 56.56614, "Longitude": -4.207715, "Viewable": 3439.07 }, "geometry": { "type": "Point", "coordinates": [ -4.20771694560595, 56.566151003705386 ] } },
{ "type": "Feature", "properties": { "Number": 145, "Name": "Beinn Heasgarnich [Beinn Sheasgarnaich]", "Classifica": "Ma,M,Mur", "Metres": 1078.0, "Feet": 3537, "Grid Ref": "NN413383", "Xcoord": 241381, "Ycoord": 738338, "Latitude": 56.510263, "Longitude": -4.579202, "Viewable": 1004.4 }, "geometry": { "type": "Point", "coordinates": [ -4.579212071225244, 56.51027446945659 ] } },
{ "type": "Feature", "properties": { "Number": 146, "Name": "Meall Corranaich", "Classifica": "Ma,M,Mur", "Metres": 1069.0, "Feet": 3507, "Grid Ref": "NN615410", "Xcoord": 261543, "Ycoord": 741036, "Latitude": 56.54085, "Longitude": -4.253317, "Viewable": 1037.77 }, "geometry": { "type": "Point", "coordinates": [ -4.253318415840341, 56.540862054936831 ] } },
{ "type": "Feature", "properties": { "Number": 148, "Name": "Creag Mhor", "Classifica": "Ma,M,Mur", "Metres": 1047.0, "Feet": 3435, "Grid Ref": "NN391361", "Xcoord": 239149, "Ycoord": 736111, "Latitude": 56.489518, "Longitude": -4.614054, "Viewable": 747.97 }, "geometry": { "type": "Point", "coordinates": [ -4.614064052174806, 56.489530160021879 ] } },
{ "type": "Feature", "properties": { "Number": 152, "Name": "Ben Challum [Beinn Challuim]", "Classifica": "Ma,M,Mur", "Metres": 1025.0, "Feet": 3363, "Grid Ref": "NN386322", "Xcoord": 238684, "Ycoord": 732233, "Latitude": 56.454555, "Longitude": -4.619199, "Viewable": 830.36 }, "geometry": { "type": "Point", "coordinates": [ -4.619208155609058, 56.454567612188477 ] } },
{ "type": "Feature", "properties": { "Number": 158, "Name": "Meall Glas", "Classifica": "Ma,M,Mur", "Metres": 959.0, "Feet": 3146, "Grid Ref": "NN431321", "Xcoord": 243148, "Ycoord": 732193, "Latitude": 56.455703, "Longitude": -4.54682, "Viewable": 449.56 }, "geometry": { "type": "Point", "coordinates": [ -4.546830691522209, 56.455715147645982 ] } },
{ "type": "Feature", "properties": { "Number": 163, "Name": "Meall a'Choire Leith", "Classifica": "Ma,M,Mur", "Metres": 926.0, "Feet": 3038, "Grid Ref": "NN612439", "Xcoord": 261200, "Ycoord": 743900, "Latitude": 56.566459, "Longitude": -4.260415, "Viewable": 235.4 }, "geometry": { "type": "Point", "coordinates": [ -4.260424568714782, 56.56647061462904 ] } },
{ "type": "Feature", "properties": { "Number": 165, "Name": "Sgiath Chuil", "Classifica": "Ma,M,Mur", "Metres": 921.0, "Feet": 3022, "Grid Ref": "NN462317", "Xcoord": 246292, "Ycoord": 731795, "Latitude": 56.453166, "Longitude": -4.495622, "Viewable": 380.45 }, "geometry": { "type": "Point", "coordinates": [ -4.495634047045189, 56.453178655637181 ] } },
{ "type": "Feature", "properties": { "Number": 179, "Name": "Aonach Eagach - Meall Dearg", "Classifica": "Hu,M,Mur", "Metres": 953.0, "Feet": 3127, "Grid Ref": "NN161583", "Xcoord": 216128, "Ycoord": 758364, "Latitude": 56.680732, "Longitude": -5.003202, "Viewable": 551.01 }, "geometry": { "type": "Point", "coordinates": [ -5.003221597667999, 56.680747490816657 ] } },
{ "type": "Feature", "properties": { "Number": 191, "Name": "Bidean nam Bian", "Classifica": "Ma,M,Mur,CoH", "Metres": 1150.0, "Feet": 3773, "Grid Ref": "NN143542", "Xcoord": 214341, "Ycoord": 754208, "Latitude": 56.642741, "Longitude": -5.029333, "Viewable": 2093.69 }, "geometry": { "type": "Point", "coordinates": [ -5.029352296575269, 56.642757150427322 ] } },
{ "type": "Feature", "properties": { "Number": 194, "Name": "Stob Coire Sgreamhach", "Classifica": "Hu,M,Mur", "Metres": 1072.0, "Feet": 3517, "Grid Ref": "NN154536", "Xcoord": 215487, "Ycoord": 753664, "Latitude": 56.638314, "Longitude": -5.010284, "Viewable": 845.48 }, "geometry": { "type": "Point", "coordinates": [ -5.010303435041324, 56.638329838759503 ] } },
{ "type": "Feature", "properties": { "Number": 195, "Name": "Beinn a'Bheithir - Sgorr Dhearg", "Classifica": "Ma,M,Mur", "Metres": 1024.0, "Feet": 3360, "Grid Ref": "NN056558", "Xcoord": 205682, "Ycoord": 755846, "Latitude": 56.65392, "Longitude": -5.171543, "Viewable": 1009.01 }, "geometry": { "type": "Point", "coordinates": [ -5.171558924244988, 56.653936142474116 ] } },
{ "type": "Feature", "properties": { "Number": 196, "Name": "Buachaille Etive Mor - Stob Dearg", "Classifica": "Ma,M,Mur", "Metres": 1022.0, "Feet": 3353, "Grid Ref": "NN223543", "Xcoord": 222362, "Ycoord": 754320, "Latitude": 56.646858, "Longitude": -4.898794, "Viewable": 777.53 }, "geometry": { "type": "Point", "coordinates": [ -4.898816139709804, 56.646874627501717 ] } },
{ "type": "Feature", "properties": { "Number": 198, "Name": "Beinn a'Bheithir - Sgorr Dhonuill", "Classifica": "Ma,M,Mur", "Metres": 1001.0, "Feet": 3284, "Grid Ref": "NN040555", "Xcoord": 204057, "Ycoord": 755539, "Latitude": 56.650489, "Longitude": -5.197772, "Viewable": 862.62 }, "geometry": { "type": "Point", "coordinates": [ -5.197787973770389, 56.650504865166425 ] } },
{ "type": "Feature", "properties": { "Number": 199, "Name": "Sgor na h-Ulaidh", "Classifica": "Ma,M,Mur", "Metres": 994.0, "Feet": 3261, "Grid Ref": "NN111518", "Xcoord": 211116, "Ycoord": 751797, "Latitude": 56.619822, "Longitude": -5.080078, "Viewable": 575.79 }, "geometry": { "type": "Point", "coordinates": [ -5.080096307242775, 56.619838583393971 ] } },
{ "type": "Feature", "properties": { "Number": 201, "Name": "Beinn Fhionnlaidh", "Classifica": "Ma,M,Mur", "Metres": 959.0, "Feet": 3146, "Grid Ref": "NN095497", "Xcoord": 209498, "Ycoord": 749773, "Latitude": 56.60101, "Longitude": -5.104914, "Viewable": 735.31 }, "geometry": { "type": "Point", "coordinates": [ -5.104931589549937, 56.601027095744641 ] } },
{ "type": "Feature", "properties": { "Number": 202, "Name": "Buachaille Etive Beag - Stob Dubh", "Classifica": "Ma,M,Mur", "Metres": 958.0, "Feet": 3143, "Grid Ref": "NN179535", "Xcoord": 217906, "Ycoord": 753552, "Latitude": 56.638256, "Longitude": -4.97082, "Viewable": 264.64 }, "geometry": { "type": "Point", "coordinates": [ -4.9708402809518, 56.638272062668577 ] } },
{ "type": "Feature", "properties": { "Number": 203, "Name": "Buachaille Etive Mor - Stob na Broige", "Classifica": "Hu,M,Mur", "Metres": 956.0, "Feet": 3136, "Grid Ref": "NN190525", "Xcoord": 219070, "Ycoord": 752564, "Latitude": 56.629843, "Longitude": -4.951175, "Viewable": 569.02 }, "geometry": { "type": "Point", "coordinates": [ -4.951195988833401, 56.629859158153067 ] } },
{ "type": "Feature", "properties": { "Number": 207, "Name": "Beinn Sgulaird", "Classifica": "Ma,M,Mur", "Metres": 937.0, "Feet": 3074, "Grid Ref": "NN053460", "Xcoord": 205304, "Ycoord": 746089, "Latitude": 56.566241, "Longitude": -5.17035, "Viewable": 340.75 }, "geometry": { "type": "Point", "coordinates": [ -5.170365649008637, 56.566258800016826 ] } },
{ "type": "Feature", "properties": { "Number": 209, "Name": "Buachaille Etive Beag - Stob Coire Raineach", "Classifica": "Ma,M,Mur", "Metres": 925.0, "Feet": 3035, "Grid Ref": "NN191548", "Xcoord": 219132, "Ycoord": 754807, "Latitude": 56.649991, "Longitude": -4.951739, "Viewable": 459.04 }, "geometry": { "type": "Point", "coordinates": [ -4.951759351470444, 56.650006898533121 ] } },
{ "type": "Feature", "properties": { "Number": 232, "Name": "Ben Cruachan", "Classifica": "Ma,M,Mur,CoU,CoA", "Metres": 1126.0, "Feet": 3694, "Grid Ref": "NN069304", "Xcoord": 206965, "Ycoord": 730473, "Latitude": 56.42685, "Longitude": -5.131786, "Viewable": 3851.54 }, "geometry": { "type": "Point", "coordinates": [ -5.131801144890179, 56.426861734335596 ] } },
{ "type": "Feature", "properties": { "Number": 233, "Name": "Meall a'Bhuiridh", "Classifica": "Ma,M,Mur", "Metres": 1108.0, "Feet": 3635, "Grid Ref": "NN250503", "Xcoord": 225064, "Ycoord": 750351, "Latitude": 56.612262, "Longitude": -4.852114, "Viewable": 2067.61 }, "geometry": { "type": "Point", "coordinates": [ -4.85212015905547, 56.612280070453025 ] } },
{ "type": "Feature", "properties": { "Number": 235, "Name": "Creise", "Classifica": "Ma,M,Mur", "Metres": 1100.0, "Feet": 3609, "Grid Ref": "NN238506", "Xcoord": 223857, "Ycoord": 750650, "Latitude": 56.614494, "Longitude": -4.871942, "Viewable": 808.6 }, "geometry": { "type": "Point", "coordinates": [ -4.87196368041109, 56.61451074814989 ] } },
{ "type": "Feature", "properties": { "Number": 238, "Name": "Ben Starav", "Classifica": "Ma,M,Mur", "Metres": 1078.0, "Feet": 3537, "Grid Ref": "NN125427", "Xcoord": 212573, "Ycoord": 742717, "Latitude": 56.538948, "Longitude": -5.049799, "Viewable": 1028.5 }, "geometry": { "type": "Point", "coordinates": [ -5.049816929267415, 56.538966371010453 ] } },
{ "type": "Feature", "properties": { "Number": 244, "Name": "Stob Diamh", "Classifica": "Hu,M,Mur", "Metres": 998.0, "Feet": 3274, "Grid Ref": "NN094308", "Xcoord": 209478, "Ycoord": 730852, "Latitude": 56.431271, "Longitude": -5.091379, "Viewable": 1354.9 }, "geometry": { "type": "Point", "coordinates": [ -5.091394615857054, 56.431282837656511 ] } },
{ "type": "Feature", "properties": { "Number": 245, "Name": "Glas Bheinn Mhor", "Classifica": "Ma,M,Mur", "Metres": 997.0, "Feet": 3271, "Grid Ref": "NN153429", "Xcoord": 215328, "Ycoord": 742982, "Latitude": 56.542416, "Longitude": -5.005251, "Viewable": 515.43 }, "geometry": { "type": "Point", "coordinates": [ -5.005269812082387, 56.5424344622635 ] } },
{ "type": "Feature", "properties": { "Number": 249, "Name": "Beinn Eunaich", "Classifica": "Ma,M,Mur", "Metres": 989.0, "Feet": 3245, "Grid Ref": "NN135328", "Xcoord": 213561, "Ycoord": 732799, "Latitude": 56.45037, "Longitude": -5.026656, "Viewable": 1141.35 }, "geometry": { "type": "Point", "coordinates": [ -5.026673153660358, 56.450381176917283 ] } },
{ "type": "Feature", "properties": { "Number": 251, "Name": "Beinn a'Chochuill", "Classifica": "Ma,M,Mur", "Metres": 980.0, "Feet": 3215, "Grid Ref": "NN109328", "Xcoord": 210978, "Ycoord": 732847, "Latitude": 56.449772, "Longitude": -5.068535, "Viewable": 1021.65 }, "geometry": { "type": "Point", "coordinates": [ -5.068550989443159, 56.449783497157711 ] } },
{ "type": "Feature", "properties": { "Number": 254, "Name": "Beinn nan Aighenan", "Classifica": "Ma,M,Mur", "Metres": 960.0, "Feet": 3150, "Grid Ref": "NN148405", "Xcoord": 214852, "Ycoord": 740528, "Latitude": 56.520221, "Longitude": -5.011233, "Viewable": 595.73 }, "geometry": { "type": "Point", "coordinates": [ -5.011250872178819, 56.52023114844954 ] } },
{ "type": "Feature", "properties": { "Number": 255, "Name": "Stob a'Choire Odhair", "Classifica": "Ma,M,Mur", "Metres": 945.0, "Feet": 3100, "Grid Ref": "NN257459", "Xcoord": 225732, "Ycoord": 745982, "Latitude": 56.573309, "Longitude": -4.838285, "Viewable": 1287.03 }, "geometry": { "type": "Point", "coordinates": [ -4.838307959394458, 56.573326914702086 ] } },
{ "type": "Feature", "properties": { "Number": 258, "Name": "Meall nan Eun", "Classifica": "Ma,M,Mur", "Metres": 928.0, "Feet": 3045, "Grid Ref": "NN192449", "Xcoord": 219246, "Ycoord": 744904, "Latitude": 56.561184, "Longitude": -4.942959, "Viewable": 312.68 }, "geometry": { "type": "Point", "coordinates": [ -4.942979250813648, 56.561202149398611 ] } },
{ "type": "Feature", "properties": { "Number": 278, "Name": "Ben Nevis", "Classifica": "Ma,M,Mur,CoH,CoU,CoA", "Metres": 1344.0, "Feet": 4409, "Grid Ref": "NN166712", "Xcoord": 216676, "Ycoord": 771283, "Latitude": 56.79685, "Longitude": -5.003508, "Viewable": 3454.84 }, "geometry": { "type": "Point", "coordinates": [ -5.003528959242606, 56.796862774329121 ] } },
{ "type": "Feature", "properties": { "Number": 281, "Name": "Aonach Mor", "Classifica": "Hu,M,Mur", "Metres": 1221.0, "Feet": 4006, "Grid Ref": "NN193729", "Xcoord": 219304, "Ycoord": 772961, "Latitude": 56.812932, "Longitude": -4.961744, "Viewable": 2128.06 }, "geometry": { "type": "Point", "coordinates": [ -4.961749311088616, 56.812944718201692 ] } },
{ "type": "Feature", "properties": { "Number": 282, "Name": "Carn Mor Dearg", "Classifica": "Ma,M,Mur", "Metres": 1220.0, "Feet": 4003, "Grid Ref": "NN177721", "Xcoord": 217749, "Ycoord": 772171, "Latitude": 56.805237, "Longitude": -4.986615, "Viewable": 1247.66 }, "geometry": { "type": "Point", "coordinates": [ -4.986619736971463, 56.80525070755079 ] } },
{ "type": "Feature", "properties": { "Number": 287, "Name": "Binnein Mor", "Classifica": "Ma,M,Mur", "Metres": 1130.0, "Feet": 3707, "Grid Ref": "NN212663", "Xcoord": 221200, "Ycoord": 766300, "Latitude": 56.7539, "Longitude": -4.926063, "Viewable": 606.93 }, "geometry": { "type": "Point", "coordinates": [ -4.926075871750523, 56.753916334241787 ] } },
{ "type": "Feature", "properties": { "Number": 290, "Name": "Stob Coire Easain", "Classifica": "Ma,M,Mur", "Metres": 1115.0, "Feet": 3658, "Grid Ref": "NN308730", "Xcoord": 230800, "Ycoord": 773000, "Latitude": 56.817603, "Longitude": -4.773698, "Viewable": 467.85 }, "geometry": { "type": "Point", "coordinates": [ -4.773708437582187, 56.817619228504668 ] } },
{ "type": "Feature", "properties": { "Number": 292, "Name": "Stob a'Choire Mheadhoin", "Classifica": "Hu,M,Mur,sMa", "Metres": 1105.0, "Feet": 3625, "Grid Ref": "NN316736", "Xcoord": 231600, "Ycoord": 773600, "Latitude": 56.823277, "Longitude": -4.761005, "Viewable": 844.84 }, "geometry": { "type": "Point", "coordinates": [ -4.761015220555818, 56.823293465222648 ] } },
{ "type": "Feature", "properties": { "Number": 295, "Name": "Sgurr a'Mhaim", "Classifica": "Ma,M,Mur", "Metres": 1099.0, "Feet": 3606, "Grid Ref": "NN164667", "Xcoord": 216466, "Ycoord": 766730, "Latitude": 56.75592, "Longitude": -5.003674, "Viewable": 775.08 }, "geometry": { "type": "Point", "coordinates": [ -5.003694533482893, 56.755934227643827 ] } },
{ "type": "Feature", "properties": { "Number": 296, "Name": "Sgurr Choinnich Mor", "Classifica": "Ma,M,Mur", "Metres": 1094.0, "Feet": 3589, "Grid Ref": "NN227714", "Xcoord": 222772, "Ycoord": 771419, "Latitude": 56.800431, "Longitude": -4.903943, "Viewable": 786.54 }, "geometry": { "type": "Point", "coordinates": [ -4.903949863605304, 56.800444384930834 ] } },
{ "type": "Feature", "properties": { "Number": 301, "Name": "Na Gruagaichean", "Classifica": "M,Mur,sHu", "Metres": 1056.0, "Feet": 3465, "Grid Ref": "NN203652", "Xcoord": 220309, "Ycoord": 765202, "Latitude": 56.743708, "Longitude": -4.939852, "Viewable": 402.14 }, "geometry": { "type": "Point", "coordinates": [ -4.939857208257561, 56.743722750177909 ] } },
{ "type": "Feature", "properties": { "Number": 303, "Name": "Am Bodach", "Classifica": "Ma,M,Mur", "Metres": 1032.0, "Feet": 3386, "Grid Ref": "NN176650", "Xcoord": 217637, "Ycoord": 765096, "Latitude": 56.74172, "Longitude": -4.983386, "Viewable": 951.61 }, "geometry": { "type": "Point", "coordinates": [ -4.983406719563914, 56.741734570230378 ] } },
{ "type": "Feature", "properties": { "Number": 309, "Name": "Stob Ban", "Classifica": "Ma,M,Mur", "Metres": 999.0, "Feet": 3278, "Grid Ref": "NN147654", "Xcoord": 214775, "Ycoord": 765443, "Latitude": 56.743706, "Longitude": -5.03036, "Viewable": 603.66 }, "geometry": { "type": "Point", "coordinates": [ -5.030380075341562, 56.74371967663371 ] } },
{ "type": "Feature", "properties": { "Number": 312, "Name": "An Gearanach", "Classifica": "Ma,M,Mur", "Metres": 982.0, "Feet": 3222, "Grid Ref": "NN187669", "Xcoord": 218771, "Ycoord": 766994, "Latitude": 56.759191, "Longitude": -4.966215, "Viewable": 273.1 }, "geometry": { "type": "Point", "coordinates": [ -4.966235985438726, 56.759204596865587 ] } },
{ "type": "Feature", "properties": { "Number": 346, "Name": "Geal-charn", "Classifica": "Ma,M,Mur", "Metres": 1132.0, "Feet": 3714, "Grid Ref": "NN469746", "Xcoord": 246992, "Ycoord": 774631, "Latitude": 56.837854, "Longitude": -4.509695, "Viewable": 1903.89 }, "geometry": { "type": "Point", "coordinates": [ -4.509709856998947, 56.837867963742397 ] } },
{ "type": "Feature", "properties": { "Number": 347, "Name": "Aonach Beag", "Classifica": "M,Mur,sHu", "Metres": 1115.7, "Feet": 3660, "Grid Ref": "NN457741", "Xcoord": 245787, "Ycoord": 774189, "Latitude": 56.833489, "Longitude": -4.529158, "Viewable": 1466.08 }, "geometry": { "type": "Point", "coordinates": [ -4.529172705545435, 56.833502736108279 ] } },
{ "type": "Feature", "properties": { "Number": 348, "Name": "Beinn Eibhinn", "Classifica": "Hu,M,Mur", "Metres": 1103.2, "Feet": 3619, "Grid Ref": "NN449733", "Xcoord": 244965, "Ycoord": 773302, "Latitude": 56.825255, "Longitude": -4.542077, "Viewable": 608.6 }, "geometry": { "type": "Point", "coordinates": [ -4.542090575895859, 56.825268724361742 ] } },
{ "type": "Feature", "properties": { "Number": 351, "Name": "Chno Dearg", "Classifica": "Ma,M,Mur", "Metres": 1046.0, "Feet": 3432, "Grid Ref": "NN377741", "Xcoord": 237741, "Ycoord": 774115, "Latitude": 56.830086, "Longitude": -4.660831, "Viewable": 881.44 }, "geometry": { "type": "Point", "coordinates": [ -4.660842305740955, 56.830098983145518 ] } },
{ "type": "Feature", "properties": { "Number": 356, "Name": "Stob Coire Sgriodain", "Classifica": "M,Mur,sHu", "Metres": 979.0, "Feet": 3212, "Grid Ref": "NN356743", "Xcoord": 235669, "Ycoord": 774380, "Latitude": 56.831736, "Longitude": -4.694917, "Viewable": 653.38 }, "geometry": { "type": "Point", "coordinates": [ -4.694928388028243, 56.831748978559368 ] } },
{ "type": "Feature", "properties": { "Number": 361, "Name": "Sgor Gaibhre", "Classifica": "Ma,M,Mur", "Metres": 955.0, "Feet": 3133, "Grid Ref": "NN444674", "Xcoord": 244477, "Ycoord": 767447, "Latitude": 56.772544, "Longitude": -4.546498, "Viewable": 600.31 }, "geometry": { "type": "Point", "coordinates": [ -4.546511422189329, 56.772559295617498 ] } },
{ "type": "Feature", "properties": { "Number": 363, "Name": "Carn Dearg", "Classifica": "Ma,M,Mur", "Metres": 941.0, "Feet": 3087, "Grid Ref": "NN417661", "Xcoord": 241773, "Ycoord": 766142, "Latitude": 56.759922, "Longitude": -4.589888, "Viewable": 640.53 }, "geometry": { "type": "Point", "coordinates": [ -4.589900321158842, 56.759936999163656 ] } },
{ "type": "Feature", "properties": { "Number": 364, "Name": "Beinn na Lap", "Classifica": "Ma,M,Mur", "Metres": 935.0, "Feet": 3068, "Grid Ref": "NN376695", "Xcoord": 237616, "Ycoord": 769585, "Latitude": 56.78939, "Longitude": -4.659994, "Viewable": 432.6 }, "geometry": { "type": "Point", "coordinates": [ -4.660005162001085, 56.789404018260548 ] } },
{ "type": "Feature", "properties": { "Number": 668, "Name": "Carn Liath", "Classifica": "M,Mur", "Metres": 1006.0, "Feet": 3301, "Grid Ref": "NN472903", "Xcoord": 247200, "Ycoord": 790300, "Latitude": 56.978546, "Longitude": -4.515741, "Viewable": 389.74 }, "geometry": { "type": "Point", "coordinates": [ -4.515749107151332, 56.978561325611771 ] } },
{ "type": "Feature", "properties": { "Number": 675, "Name": "Beinn Teallach", "Classifica": "Ma,M,Mur,xC", "Metres": 914.6, "Feet": 3001, "Grid Ref": "NN361859", "Xcoord": 236136, "Ycoord": 785973, "Latitude": 56.935928, "Longitude": -4.69476, "Viewable": 217.8 }, "geometry": { "type": "Point", "coordinates": [ -4.694765725113984, 56.935943366948379 ] } },
{ "type": "Feature", "properties": { "Number": 815, "Name": "Sgurr Fhuaran", "Classifica": "Ma,M,Mur", "Metres": 1067.0, "Feet": 3501, "Grid Ref": "NG978166", "Xcoord": 197847, "Ycoord": 816679, "Latitude": 57.196158, "Longitude": -5.347684, "Viewable": 578.1 }, "geometry": { "type": "Point", "coordinates": [ -5.347685883393633, 57.1961807850534 ] } },
{ "type": "Feature", "properties": { "Number": 825, "Name": "Sgurr na Ciste Duibhe", "Classifica": "Ma,M,Mur", "Metres": 1027.0, "Feet": 3369, "Grid Ref": "NG984149", "Xcoord": 198398, "Ycoord": 814952, "Latitude": 57.180914, "Longitude": -5.337167, "Viewable": 697.45 }, "geometry": { "type": "Point", "coordinates": [ -5.337185016470358, 57.18093619951275 ] } },
{ "type": "Feature", "properties": { "Number": 1301, "Name": "Ben More", "Classifica": "Ma,M,Mur", "Metres": 966.0, "Feet": 3169, "Grid Ref": "NM525330", "Xcoord": 152575, "Ycoord": 733078, "Latitude": 56.424828, "Longitude": -6.014032, "Viewable": 1694.32 }, "geometry": { "type": "Point", "coordinates": [ -6.014061352581966, 56.424845962354034 ] } }
]
}
