{
"type": "FeatureCollection",
"crs": { "type": "name", "properties": { "name": "urn:ogc:def:crs:OGC:1.3:CRS84" } },
                                                                                
"features": [
{ "type": "Feature", "properties": { "Number": 1, "Name": "Ben Chonzie", "Classifica": "Ma,M,Mur", "Metres": 931.0, "Feet": 3054, "Grid Ref": "NN773308", "Xcoord": 277324, "Ycoord": 730857, "Latitude": 56.453851, "Longitude": -3.992057, "Viewable": 2111.33 }, "geometry": { "type": "Point", "coordinates": [ -3.99206200693323, 56.453856530406412 ] } },
{ "type": "Feature", "properties": { "Number": 17, "Name": "Ben Vorlich", "Classifica": "Ma,M,Mur", "Metres": 985.0, "Feet": 3232, "Grid Ref": "NN629189", "Xcoord": 262910, "Ycoord": 718915, "Latitude": 56.342671, "Longitude": -4.21948, "Viewable": 2666.0 }, "geometry": { "type": "Point", "coordinates": [ -4.219495635291023, 56.342677209723341 ] } },
{ "type": "Feature", "properties": { "Number": 18, "Name": "Stuc a'Chroin", "Classifica": "Ma,M,Mur", "Metres": 975.0, "Feet": 3199, "Grid Ref": "NN617174", "Xcoord": 261746, "Ycoord": 717466, "Latitude": 56.329324, "Longitude": -4.237534, "Viewable": 2772.99 }, "geometry": { "type": "Point", "coordinates": [ -4.237549383185885, 56.329330486973426 ] } },
{ "type": "Feature", "properties": { "Number": 26, "Name": "Ben More", "Classifica": "Ma,M,Mur,CoU,CoA", "Metres": 1174.0, "Feet": 3852, "Grid Ref": "NN432244", "Xcoord": 243275, "Ycoord": 724417, "Latitude": 56.385952, "Longitude": -4.540103, "Viewable": 5395.04 }, "geometry": { "type": "Point", "coordinates": [ -4.540113304326504, 56.385966153011587 ] } },
{ "type": "Feature", "properties": { "Number": 27, "Name": "Stob Binnein", "Classifica": "Ma,M,Mur", "Metres": 1165.0, "Feet": 3822, "Grid Ref": "NN434227", "Xcoord": 243481, "Ycoord": 722714, "Latitude": 56.370735, "Longitude": -4.535754, "Viewable": 5454.05 }, "geometry": { "type": "Point", "coordinates": [ -4.535764148329166, 56.3707494599198 ] } },
{ "type": "Feature", "properties": { "Number": 31, "Name": "An Caisteal", "Classifica": "Ma,M,Mur", "Metres": 995.0, "Feet": 3264, "Grid Ref": "NN378193", "Xcoord": 237873, "Ycoord": 719345, "Latitude": 56.338618, "Longitude": -4.62437, "Viewable": 1717.21 }, "geometry": { "type": "Point", "coordinates": [ -4.624377236134579, 56.338624251970657 ] } },
{ "type": "Feature", "properties": { "Number": 32, "Name": "Ben Lomond", "Classifica": "Ma,M,Mur,CoH", "Metres": 974.0, "Feet": 3196, "Grid Ref": "NN367028", "Xcoord": 236703, "Ycoord": 702866, "Latitude": 56.190319, "Longitude": -4.633075, "Viewable": 2750.61 }, "geometry": { "type": "Point", "coordinates": [ -4.63309783142891, 56.190327102826281 ] } },
{ "type": "Feature", "properties": { "Number": 103, "Name": "Schiehallion", "Classifica": "Ma,M,Mur", "Metres": 1083.0, "Feet": 3553, "Grid Ref": "NN713547", "Xcoord": 271393, "Ycoord": 754756, "Latitude": 56.666828, "Longitude": -4.100076, "Viewable": 1237.27 }, "geometry": { "type": "Point", "coordinates": [ -4.100081581565044, 56.666837133441902 ] } },
{ "type": "Feature", "properties": { "Number": 104, "Name": "Beinn a'Chreachain", "Classifica": "Ma,M,Mur", "Metres": 1081.0, "Feet": 3547, "Grid Ref": "NN373440", "Xcoord": 237389, "Ycoord": 744075, "Latitude": 56.560387, "Longitude": -4.647589, "Viewable": 1044.86 }, "geometry": { "type": "Point", "coordinates": [ -4.647598463275189, 56.560397108836888 ] } },
{ "type": "Feature", "properties": { "Number": 107, "Name": "Carn Mairg", "Classifica": "Ma,M,Mur", "Metres": 1041.0, "Feet": 3415, "Grid Ref": "NN684512", "Xcoord": 268400, "Ycoord": 751200, "Latitude": 56.634069, "Longitude": -4.147057, "Viewable": 512.17 }, "geometry": { "type": "Point", "coordinates": [ -4.147063802322598, 56.634080576322447 ] } },
{ "type": "Feature", "properties": { "Number": 115, "Name": "Meall na Aighean", "Classifica": "Hu,M,Mur", "Metres": 981.0, "Feet": 3219, "Grid Ref": "NN694496", "Xcoord": 269400, "Ycoord": 749600, "Latitude": 56.619985, "Longitude": -4.129957, "Viewable": 426.25 }, "geometry": { "type": "Point", "coordinates": [ -4.129964132743359, 56.61999656717358 ] } },
{ "type": "Feature", "properties": { "Number": 141, "Name": "Ben Lawers", "Classifica": "Ma,M,Mur,CoH,CoU,CoA", "Metres": 1214.0, "Feet": 3983, "Grid Ref": "NN635414", "Xcoord": 263551, "Ycoord": 741423, "Latitude": 56.544912, "Longitude": -4.220892, "Viewable": 5284.86 }, "geometry": { "type": "Point", "coordinates": [ -4.220893941012826, 56.544923728277958 ] } },
{ "type": "Feature", "properties": { "Number": 142, "Name": "An Stuc", "Classifica": "Ma=,Hu,M,Mur", "Metres": 1118.0, "Feet": 3668, "Grid Ref": "NN638430", "Xcoord": 263875, "Ycoord": 743089, "Latitude": 56.559962, "Longitude": -4.216501, "Viewable": 3238.06 }, "geometry": { "type": "Point", "coordinates": [ -4.216503123509484, 56.55997366235917 ] } },
{ "type": "Feature", "properties": { "Number": 143, "Name": "Meall Garbh", "Classifica": "Ma,M,Mur", "Metres": 1118.0, "Feet": 3668, "Grid Ref": "NN644437", "Xcoord": 264437, "Ycoord": 743759, "Latitude": 56.56614, "Longitude": -4.207715, "Viewable": 3439.07 }, "geometry": { "type": "Point", "coordinates": [ -4.20771694560595, 56.566151003705386 ] } },
{ "type": "Feature", "properties": { "Number": 146, "Name": "Meall Corranaich", "Classifica": "Ma,M,Mur", "Metres": 1069.0, "Feet": 3507, "Grid Ref": "NN615410", "Xcoord": 261543, "Ycoord": 741036, "Latitude": 56.54085, "Longitude": -4.253317, "Viewable": 1037.77 }, "geometry": { "type": "Point", "coordinates": [ -4.253318415840341, 56.540862054936831 ] } },
{ "type": "Feature", "properties": { "Number": 150, "Name": "Meall Ghaordaidh", "Classifica": "Ma,M,Mur", "Metres": 1039.0, "Feet": 3409, "Grid Ref": "NN514397", "Xcoord": 251443, "Ycoord": 739704, "Latitude": 56.52581, "Longitude": -4.416638, "Viewable": 961.75 }, "geometry": { "type": "Point", "coordinates": [ -4.416652099640396, 56.525821187234897 ] } },
{ "type": "Feature", "properties": { "Number": 154, "Name": "Meall Greigh", "Classifica": "Ma,M,Mur", "Metres": 1001.0, "Feet": 3284, "Grid Ref": "NN674438", "Xcoord": 267401, "Ycoord": 743808, "Latitude": 56.567426, "Longitude": -4.159543, "Viewable": 702.0 }, "geometry": { "type": "Point", "coordinates": [ -4.159546000467555, 56.567437701653247 ] } },
{ "type": "Feature", "properties": { "Number": 163, "Name": "Meall a'Choire Leith", "Classifica": "Ma,M,Mur", "Metres": 926.0, "Feet": 3038, "Grid Ref": "NN612439", "Xcoord": 261200, "Ycoord": 743900, "Latitude": 56.566459, "Longitude": -4.260415, "Viewable": 235.4 }, "geometry": { "type": "Point", "coordinates": [ -4.260424568714782, 56.56647061462904 ] } },
{ "type": "Feature", "properties": { "Number": 345, "Name": "Ben Alder", "Classifica": "Ma,M,Mur", "Metres": 1148.0, "Feet": 3766, "Grid Ref": "NN496718", "Xcoord": 249614, "Ycoord": 771854, "Latitude": 56.813786, "Longitude": -4.465122, "Viewable": 2082.27 }, "geometry": { "type": "Point", "coordinates": [ -4.465137117274049, 56.813800128859604 ] } },
{ "type": "Feature", "properties": { "Number": 350, "Name": "Geal Charn", "Classifica": "Ma,M,Mur", "Metres": 1049.0, "Feet": 3442, "Grid Ref": "NN504811", "Xcoord": 250432, "Ycoord": 781181, "Latitude": 56.897763, "Longitude": -4.457236, "Viewable": 318.32 }, "geometry": { "type": "Point", "coordinates": [ -4.457235922272134, 56.897775470682362 ] } },
{ "type": "Feature", "properties": { "Number": 388, "Name": "Meall Chuaich", "Classifica": "Ma,M,Mur", "Metres": 951.0, "Feet": 3120, "Grid Ref": "NN716878", "Xcoord": 271646, "Ycoord": 787832, "Latitude": 56.963832, "Longitude": -4.1126, "Viewable": 672.97 }, "geometry": { "type": "Point", "coordinates": [ -4.112607676588073, 56.963843983786262 ] } },
{ "type": "Feature", "properties": { "Number": 389, "Name": "Carn na Caim", "Classifica": "Ma,M,Mur", "Metres": 941.0, "Feet": 3087, "Grid Ref": "NN677821", "Xcoord": 267701, "Ycoord": 782150, "Latitude": 56.911712, "Longitude": -4.17446, "Viewable": 417.55 }, "geometry": { "type": "Point", "coordinates": [ -4.174465370868574, 56.911725517432373 ] } },
{ "type": "Feature", "properties": { "Number": 407, "Name": "An Sgarsoch", "Classifica": "Ma,M,Mur", "Metres": 1006.0, "Feet": 3301, "Grid Ref": "NN933836", "Xcoord": 293333, "Ycoord": 783666, "Latitude": 56.931937, "Longitude": -3.754384, "Viewable": 557.75 }, "geometry": { "type": "Point", "coordinates": [ -3.75438221530339, 56.931951034660415 ] } },
{ "type": "Feature", "properties": { "Number": 421, "Name": "Beinn a'Ghlo - Carn nan Gabhar", "Classifica": "Ma,M,Mur", "Metres": 1121.0, "Feet": 3678, "Grid Ref": "NN971733", "Xcoord": 297118, "Ycoord": 773314, "Latitude": 56.839837, "Longitude": -3.688022, "Viewable": 3436.57 }, "geometry": { "type": "Point", "coordinates": [ -3.688020790055512, 56.839852557144795 ] } },
{ "type": "Feature", "properties": { "Number": 424, "Name": "Glas Tulaichean", "Classifica": "Ma,M,Mur", "Metres": 1051.0, "Feet": 3448, "Grid Ref": "NO051760", "Xcoord": 305106, "Ycoord": 776011, "Latitude": 56.865758, "Longitude": -3.558147, "Viewable": 334.74 }, "geometry": { "type": "Point", "coordinates": [ -3.558148475969903, 56.865773219393894 ] } },
{ "type": "Feature", "properties": { "Number": 425, "Name": "Beinn Iutharn Mhor", "Classifica": "Ma,M,Mur", "Metres": 1045.0, "Feet": 3428, "Grid Ref": "NO045792", "Xcoord": 304566, "Ycoord": 779280, "Latitude": 56.895003, "Longitude": -3.56823, "Viewable": 999.33 }, "geometry": { "type": "Point", "coordinates": [ -3.568231422071947, 56.89501814414416 ] } },
{ "type": "Feature", "properties": { "Number": 426, "Name": "Carn an Righ", "Classifica": "Ma,M,Mur", "Metres": 1029.0, "Feet": 3376, "Grid Ref": "NO028772", "Xcoord": 302871, "Ycoord": 777266, "Latitude": 56.876565, "Longitude": -3.595272, "Viewable": 1126.49 }, "geometry": { "type": "Point", "coordinates": [ -3.595272772876817, 56.876580400801124 ] } },
{ "type": "Feature", "properties": { "Number": 428, "Name": "Carn a'Gheoidh", "Classifica": "Ma,M,Mur", "Metres": 975.0, "Feet": 3199, "Grid Ref": "NO107767", "Xcoord": 310702, "Ycoord": 776702, "Latitude": 56.873074, "Longitude": -3.466633, "Viewable": 943.95 }, "geometry": { "type": "Point", "coordinates": [ -3.466636576760508, 56.8730898952738 ] } },
{ "type": "Feature", "properties": { "Number": 429, "Name": "Beinn a'Ghlo - Carn Liath", "Classifica": "Ma,M,Mur", "Metres": 976.0, "Feet": 3202, "Grid Ref": "NN936698", "Xcoord": 293606, "Ycoord": 769831, "Latitude": 56.80777, "Longitude": -3.744106, "Viewable": 946.06 }, "geometry": { "type": "Point", "coordinates": [ -3.744103806291568, 56.807786235505787 ] } },
{ "type": "Feature", "properties": { "Number": 432, "Name": "Carn Bhac", "Classifica": "Ma,M,Mur", "Metres": 946.0, "Feet": 3104, "Grid Ref": "NO051832", "Xcoord": 305098, "Ycoord": 783255, "Latitude": 56.930809, "Longitude": -3.560989, "Viewable": 361.91 }, "geometry": { "type": "Point", "coordinates": [ -3.560991467184193, 56.930822972302352 ] } },
{ "type": "Feature", "properties": { "Number": 433, "Name": "An Socach", "Classifica": "Ma,M,Mur", "Metres": 944.0, "Feet": 3097, "Grid Ref": "NO079799", "Xcoord": 307900, "Ycoord": 779900, "Latitude": 56.901249, "Longitude": -3.513748, "Viewable": 241.22 }, "geometry": { "type": "Point", "coordinates": [ -3.513749058662352, 56.901260643588287 ] } },
{ "type": "Feature", "properties": { "Number": 435, "Name": "The Cairnwell", "Classifica": "Hu,M,Mur", "Metres": 933.0, "Feet": 3061, "Grid Ref": "NO134773", "Xcoord": 313485, "Ycoord": 777375, "Latitude": 56.879646, "Longitude": -3.42122, "Viewable": 712.83 }, "geometry": { "type": "Point", "coordinates": [ -3.421224505647298, 56.879661507579669 ] } },
{ "type": "Feature", "properties": { "Number": 438, "Name": "Carn Aosda", "Classifica": "Hu,M,Mur", "Metres": 917.0, "Feet": 3009, "Grid Ref": "NO134791", "Xcoord": 313400, "Ycoord": 779100, "Latitude": 56.895126, "Longitude": -3.423207, "Viewable": 30.21 }, "geometry": { "type": "Point", "coordinates": [ -3.423207690095367, 56.89513718960864 ] } },
{ "type": "Feature", "properties": { "Number": 467, "Name": "Carn an Tuirc", "Classifica": "M,Mur", "Metres": 1019.0, "Feet": 3343, "Grid Ref": "NO174804", "Xcoord": 317400, "Ycoord": 780400, "Latitude": 56.907531, "Longitude": -3.357991, "Viewable": 165.14 }, "geometry": { "type": "Point", "coordinates": [ -3.35799075083474, 56.907542792050556 ] } },
{ "type": "Feature", "properties": { "Number": 571, "Name": "Mullach Clach a'Bhlair", "Classifica": "Hu,M,Mur", "Metres": 1019.0, "Feet": 3343, "Grid Ref": "NN882927", "Xcoord": 288285, "Ycoord": 792701, "Latitude": 57.01187, "Longitude": -3.841287, "Viewable": 678.2 }, "geometry": { "type": "Point", "coordinates": [ -3.841283450325847, 57.011881869137305 ] } },
{ "type": "Feature", "properties": { "Number": 624, "Name": "Geal Charn", "Classifica": "Hu,M,Mur", "Metres": 926.0, "Feet": 3038, "Grid Ref": "NN561987", "Xcoord": 256143, "Ycoord": 798769, "Latitude": 57.057427, "Longitude": -4.373589, "Viewable": 744.72 }, "geometry": { "type": "Point", "coordinates": [ -4.373592477792414, 57.057445526872527 ] } }
]
}
