{
"type": "FeatureCollection",
"crs": { "type": "name", "properties": { "name": "urn:ogc:def:crs:OGC:1.3:CRS84" } },
                                                                                
"features": [
{ "type": "Feature", "properties": { "Number": 518, "Name": "Ben Macdui [Beinn Macduibh]", "Classifica": "Ma,M,Mur,CoH,CoU,CoA", "Metres": 1309.0, "Feet": 4295, "Grid Ref": "NN988989", "Xcoord": 298899, "Ycoord": 798943, "Latitude": 57.070368, "Longitude": -3.669099, "Viewable": 4570.33 }, "geometry": { "type": "Point", "coordinates": [ -3.669099512465734, 57.070379220462421 ] } },
{ "type": "Feature", "properties": { "Number": 519, "Name": "Braeriach", "Classifica": "Ma,M,Mur", "Metres": 1296.0, "Feet": 4252, "Grid Ref": "NN953999", "Xcoord": 295315, "Ycoord": 799901, "Latitude": 57.078169, "Longitude": -3.728581, "Viewable": 3686.65 }, "geometry": { "type": "Point", "coordinates": [ -3.728580783883529, 57.078179977584583 ] } },
{ "type": "Feature", "properties": { "Number": 521, "Name": "Cairn Toul", "Classifica": "Ma,M,Mur", "Metres": 1291.0, "Feet": 4236, "Grid Ref": "NN963972", "Xcoord": 296329, "Ycoord": 797228, "Latitude": 57.054397, "Longitude": -3.710757, "Viewable": 2574.53 }, "geometry": { "type": "Point", "coordinates": [ -3.710756759669017, 57.054408366486456 ] } },
{ "type": "Feature", "properties": { "Number": 525, "Name": "Cairn Gorm", "Classifica": "Hu,M,Mur,sMa", "Metres": 1244.0, "Feet": 4081, "Grid Ref": "NJ005040", "Xcoord": 300519, "Ycoord": 804067, "Latitude": 57.116732, "Longitude": -3.644428, "Viewable": 4038.33 }, "geometry": { "type": "Point", "coordinates": [ -3.644429601408166, 57.116742590420714 ] } },
{ "type": "Feature", "properties": { "Number": 536, "Name": "Ben Avon - Leabaidh an Daimh Bhuidhe", "Classifica": "Ma,M,Mur", "Metres": 1171.0, "Feet": 3842, "Grid Ref": "NJ131018", "Xcoord": 313193, "Ycoord": 801848, "Latitude": 57.099374, "Longitude": -3.434439, "Viewable": 3365.96 }, "geometry": { "type": "Point", "coordinates": [ -3.434445164748285, 57.099385106798351 ] } },
{ "type": "Feature", "properties": { "Number": 557, "Name": "Bynack More", "Classifica": "Ma,M,Mur", "Metres": 1090.0, "Feet": 3576, "Grid Ref": "NJ041063", "Xcoord": 304189, "Ycoord": 806330, "Latitude": 57.137833, "Longitude": -3.584716, "Viewable": 1506.4 }, "geometry": { "type": "Point", "coordinates": [ -3.584719420558073, 57.137843413846134 ] } },
{ "type": "Feature", "properties": { "Number": 571, "Name": "Mullach Clach a'Bhlair", "Classifica": "Hu,M,Mur", "Metres": 1019.0, "Feet": 3343, "Grid Ref": "NN882927", "Xcoord": 288285, "Ycoord": 792701, "Latitude": 57.01187, "Longitude": -3.841287, "Viewable": 678.2 }, "geometry": { "type": "Point", "coordinates": [ -3.841283450325847, 57.011881869137305 ] } },
{ "type": "Feature", "properties": { "Number": 626, "Name": "Carn Sgulain", "Classifica": "M,Mur", "Metres": 920.0, "Feet": 3018, "Grid Ref": "NH682058", "Xcoord": 268299, "Ycoord": 805814, "Latitude": 57.124304, "Longitude": -4.177029, "Viewable": 751.7 }, "geometry": { "type": "Point", "coordinates": [ -4.177036814437611, 57.124321566980129 ] } },
{ "type": "Feature", "properties": { "Number": 810, "Name": "Tom a'Choinich", "Classifica": "Hu,M,Mur,sMa", "Metres": 1112.0, "Feet": 3648, "Grid Ref": "NH164273", "Xcoord": 216403, "Ycoord": 827335, "Latitude": 57.299554, "Longitude": -5.048945, "Viewable": 1682.74 }, "geometry": { "type": "Point", "coordinates": [ -5.048953904304225, 57.299575067005392 ] } },
{ "type": "Feature", "properties": { "Number": 884, "Name": "Sgurr a'Choire Ghlais", "Classifica": "Ma,M,Mur", "Metres": 1083.0, "Feet": 3553, "Grid Ref": "NH258430", "Xcoord": 225882, "Ycoord": 843016, "Latitude": 57.443947, "Longitude": -4.902963, "Viewable": 2122.31 }, "geometry": { "type": "Point", "coordinates": [ -4.902958898057218, 57.443965771145983 ] } },
{ "type": "Feature", "properties": { "Number": 886, "Name": "Sgurr Fhuar-thuill", "Classifica": "Hu,M,Mur,sMa", "Metres": 1049.0, "Feet": 3442, "Grid Ref": "NH235437", "Xcoord": 223580, "Ycoord": 843754, "Latitude": 57.44968, "Longitude": -4.94178, "Viewable": 1640.2 }, "geometry": { "type": "Point", "coordinates": [ -4.941791476472146, 57.449697611129437 ] } },
{ "type": "Feature", "properties": { "Number": 892, "Name": "Sgurr Choinnich", "Classifica": "Hu,M,Mur", "Metres": 999.0, "Feet": 3278, "Grid Ref": "NH076446", "Xcoord": 207626, "Ycoord": 844627, "Latitude": 57.451031, "Longitude": -5.207898, "Viewable": 504.92 }, "geometry": { "type": "Point", "coordinates": [ -5.20790459844681, 57.451047872865452 ] } },
{ "type": "Feature", "properties": { "Number": 894, "Name": "Sgurr na Ruaidhe", "Classifica": "Ma,M,Mur", "Metres": 993.0, "Feet": 3258, "Grid Ref": "NH289426", "Xcoord": 228900, "Ycoord": 842614, "Latitude": 57.441488, "Longitude": -4.852464, "Viewable": 1705.41 }, "geometry": { "type": "Point", "coordinates": [ -4.852461095128953, 57.441506570677539 ] } },
{ "type": "Feature", "properties": { "Number": 895, "Name": "Carn nan Gobhar", "Classifica": "Hu,M,Mur", "Metres": 992.0, "Feet": 3255, "Grid Ref": "NH273438", "Xcoord": 227303, "Ycoord": 843890, "Latitude": 57.452331, "Longitude": -4.879935, "Viewable": 2461.46 }, "geometry": { "type": "Point", "coordinates": [ -4.879931902065454, 57.452349317361076 ] } },
{ "type": "Feature", "properties": { "Number": 926, "Name": "Sgurr na Lapaich", "Classifica": "Ma,M,Mur", "Metres": 1150.0, "Feet": 3773, "Grid Ref": "NH160351", "Xcoord": 216102, "Ycoord": 835126, "Latitude": 57.369319, "Longitude": -5.059743, "Viewable": 2551.19 }, "geometry": { "type": "Point", "coordinates": [ -5.05975181485052, 57.369338804802695 ] } },
{ "type": "Feature", "properties": { "Number": 936, "Name": "Carn nan Gobhar", "Classifica": "Ma,M,Mur", "Metres": 993.0, "Feet": 3258, "Grid Ref": "NH181343", "Xcoord": 218188, "Ycoord": 834362, "Latitude": 57.363304, "Longitude": -5.024544, "Viewable": 1464.98 }, "geometry": { "type": "Point", "coordinates": [ -5.024553927647769, 57.363323225569012 ] } },
{ "type": "Feature", "properties": { "Number": 981, "Name": "Sgorr Ruadh", "Classifica": "Ma,M,Mur", "Metres": 962.0, "Feet": 3156, "Grid Ref": "NG959505", "Xcoord": 195906, "Ycoord": 850509, "Latitude": 57.498648, "Longitude": -5.407766, "Viewable": 786.81 }, "geometry": { "type": "Point", "coordinates": [ -5.407769274708741, 57.498672977691953 ] } },
{ "type": "Feature", "properties": { "Number": 982, "Name": "Maol Chean-dearg", "Classifica": "Ma,M,Mur", "Metres": 933.0, "Feet": 3061, "Grid Ref": "NG924499", "Xcoord": 192406, "Ycoord": 849911, "Latitude": 57.491697, "Longitude": -5.465549, "Viewable": 613.72 }, "geometry": { "type": "Point", "coordinates": [ -5.465551027918687, 57.491721609267501 ] } },
{ "type": "Feature", "properties": { "Number": 1047, "Name": "Meall Gorm", "Classifica": "Hu,M,Mur", "Metres": 949.0, "Feet": 3114, "Grid Ref": "NH221695", "Xcoord": 222191, "Ycoord": 869584, "Latitude": 57.680836, "Longitude": -4.983818, "Viewable": 777.17 }, "geometry": { "type": "Point", "coordinates": [ -4.983814758405065, 57.680858529696913 ] } },
{ "type": "Feature", "properties": { "Number": 1050, "Name": "Fionn Bheinn", "Classifica": "Ma,M,Mur", "Metres": 933.0, "Feet": 3061, "Grid Ref": "NH147621", "Xcoord": 214749, "Ycoord": 862149, "Latitude": 57.611148, "Longitude": -5.102713, "Viewable": 1003.33 }, "geometry": { "type": "Point", "coordinates": [ -5.102723237832324, 57.611171219653755 ] } },
{ "type": "Feature", "properties": { "Number": 1051, "Name": "Sgurr nan Each", "Classifica": "Hu,M,Mur", "Metres": 923.0, "Feet": 3028, "Grid Ref": "NH184697", "Xcoord": 218400, "Ycoord": 869700, "Latitude": 57.680366, "Longitude": -5.047378, "Viewable": 411.52 }, "geometry": { "type": "Point", "coordinates": [ -5.047381773937665, 57.680385026502641 ] } },
{ "type": "Feature", "properties": { "Number": 1052, "Name": "An Coileachan", "Classifica": "Hu,M,Mur,sMa", "Metres": 923.0, "Feet": 3028, "Grid Ref": "NH241680", "Xcoord": 224177, "Ycoord": 868018, "Latitude": 57.667569, "Longitude": -4.949418, "Viewable": 1178.45 }, "geometry": { "type": "Point", "coordinates": [ -4.949415134171296, 57.66759140432049 ] } },
{ "type": "Feature", "properties": { "Number": 1255, "Name": "Bla Bheinn [Blaven] [Blabheinn]", "Classifica": "Ma,M,Mur", "Metres": 928.0, "Feet": 3045, "Grid Ref": "NG529217", "Xcoord": 152989, "Ycoord": 821747, "Latitude": 57.2196, "Longitude": -6.093231, "Viewable": 1598.89 }, "geometry": { "type": "Point", "coordinates": [ -6.093251473052459, 57.219628129565656 ] } }
]
}
