{
"type": "FeatureCollection",
"crs": { "type": "name", "properties": { "name": "urn:ogc:def:crs:OGC:1.3:CRS84" } },
                                                                                
"features": [
{ "type": "Feature", "properties": { "Number": 953, "Name": "Liathach - Spidean a'Choire Leith", "Classifica": "Ma,M,Mur", "Metres": 1055.0, "Feet": 3461, "Grid Ref": "NG929579", "Xcoord": 192936, "Ycoord": 857969, "Latitude": 57.564189, "Longitude": -5.463575, "Viewable": 699.32 }, "geometry": { "type": "Point", "coordinates": [ -5.463577674939199, 57.564212637401894 ] } },
{ "type": "Feature", "properties": { "Number": 954, "Name": "Liathach - Mullach an Rathain", "Classifica": "Ma,M,Mur", "Metres": 1023.0, "Feet": 3356, "Grid Ref": "NG911576", "Xcoord": 191184, "Ycoord": 857691, "Latitude": 57.560891, "Longitude": -5.492566, "Viewable": 885.96 }, "geometry": { "type": "Point", "coordinates": [ -5.492568707951095, 57.560914304330034 ] } },
{ "type": "Feature", "properties": { "Number": 955, "Name": "Beinn Eighe - Ruadh-stac Mor", "Classifica": "Ma,M,Mur", "Metres": 1010.0, "Feet": 3314, "Grid Ref": "NG951611", "Xcoord": 195142, "Ycoord": 861151, "Latitude": 57.593726, "Longitude": -5.429453, "Viewable": 1029.43 }, "geometry": { "type": "Point", "coordinates": [ -5.4294570723097, 57.593748493508556 ] } },
{ "type": "Feature", "properties": { "Number": 956, "Name": "Beinn Eighe - Spidean Coire nan Clach", "Classifica": "Ma,M,Mur", "Metres": 993.0, "Feet": 3258, "Grid Ref": "NG966597", "Xcoord": 196615, "Ycoord": 859780, "Latitude": 57.582098, "Longitude": -5.403706, "Viewable": 625.99 }, "geometry": { "type": "Point", "coordinates": [ -5.403710261342403, 57.582121282610728 ] } },
{ "type": "Feature", "properties": { "Number": 957, "Name": "Beinn Alligin - Sgurr Mhor", "Classifica": "Ma,M,Mur", "Metres": 986.0, "Feet": 3235, "Grid Ref": "NG865612", "Xcoord": 186564, "Ycoord": 861270, "Latitude": 57.59082, "Longitude": -5.572781, "Viewable": 1225.83 }, "geometry": { "type": "Point", "coordinates": [ -5.572781393536327, 57.590842581938659 ] } },
{ "type": "Feature", "properties": { "Number": 981, "Name": "Sgorr Ruadh", "Classifica": "Ma,M,Mur", "Metres": 962.0, "Feet": 3156, "Grid Ref": "NG959505", "Xcoord": 195906, "Ycoord": 850509, "Latitude": 57.498648, "Longitude": -5.407766, "Viewable": 786.81 }, "geometry": { "type": "Point", "coordinates": [ -5.407769274708741, 57.498672977691953 ] } },
{ "type": "Feature", "properties": { "Number": 1003, "Name": "An Teallach - Bidein a'Ghlas Thuill", "Classifica": "Ma,M,Mur", "Metres": 1062.0, "Feet": 3484, "Grid Ref": "NH069843", "Xcoord": 206899, "Ycoord": 884372, "Latitude": 57.807153, "Longitude": -5.251721, "Viewable": 1629.76 }, "geometry": { "type": "Point", "coordinates": [ -5.251730197609828, 57.807171838301372 ] } },
{ "type": "Feature", "properties": { "Number": 1004, "Name": "An Teallach - Sgurr Fiona", "Classifica": "Hu,M,Mur,sMa", "Metres": 1060.0, "Feet": 3478, "Grid Ref": "NH064836", "Xcoord": 206407, "Ycoord": 883678, "Latitude": 57.800717, "Longitude": -5.259425, "Viewable": 399.64 }, "geometry": { "type": "Point", "coordinates": [ -5.259433755465578, 57.80073595909947 ] } },
{ "type": "Feature", "properties": { "Number": 1007, "Name": "Mullach Coire Mhic Fhearchair", "Classifica": "Ma,M,Mur", "Metres": 1018.0, "Feet": 3340, "Grid Ref": "NH052735", "Xcoord": 205202, "Ycoord": 873506, "Latitude": 57.708976, "Longitude": -5.271405, "Viewable": 1072.93 }, "geometry": { "type": "Point", "coordinates": [ -5.271413220520044, 57.708996630453591 ] } },
{ "type": "Feature", "properties": { "Number": 1009, "Name": "Sgurr Ban", "Classifica": "Ma,M,Mur", "Metres": 989.0, "Feet": 3245, "Grid Ref": "NH055745", "Xcoord": 205579, "Ycoord": 874553, "Latitude": 57.718528, "Longitude": -5.265935, "Viewable": 1161.73 }, "geometry": { "type": "Point", "coordinates": [ -5.265943204964962, 57.718548920403421 ] } },
{ "type": "Feature", "properties": { "Number": 1014, "Name": "A'Mhaighdean", "Classifica": "Ma,M,Mur", "Metres": 967.0, "Feet": 3173, "Grid Ref": "NH007749", "Xcoord": 200773, "Ycoord": 874917, "Latitude": 57.719688, "Longitude": -5.346774, "Viewable": 1137.96 }, "geometry": { "type": "Point", "coordinates": [ -5.346780781494364, 57.719707900285158 ] } },
{ "type": "Feature", "properties": { "Number": 1023, "Name": "Ruadh Stac Mor", "Classifica": "Ma,M,Mur", "Metres": 918.7, "Feet": 3014, "Grid Ref": "NH018756", "Xcoord": 201853, "Ycoord": 875655, "Latitude": 57.726783, "Longitude": -5.329288, "Viewable": 797.71 }, "geometry": { "type": "Point", "coordinates": [ -5.329290492984533, 57.726803097811434 ] } },
{ "type": "Feature", "properties": { "Number": 1040, "Name": "Sgurr Mor", "Classifica": "Ma,M,Mur", "Metres": 1108.0, "Feet": 3635, "Grid Ref": "NH203718", "Xcoord": 220323, "Ycoord": 871817, "Latitude": 57.700124, "Longitude": -5.016764, "Viewable": 1047.37 }, "geometry": { "type": "Point", "coordinates": [ -5.016760485603925, 57.700146021255712 ] } },
{ "type": "Feature", "properties": { "Number": 1041, "Name": "Sgurr nan Clach Geala", "Classifica": "Ma,M,Mur", "Metres": 1093.0, "Feet": 3586, "Grid Ref": "NH184714", "Xcoord": 218428, "Ycoord": 871474, "Latitude": 57.696287, "Longitude": -5.048238, "Viewable": 1006.71 }, "geometry": { "type": "Point", "coordinates": [ -5.04824994433955, 57.696308253293921 ] } },
{ "type": "Feature", "properties": { "Number": 1042, "Name": "Sgurr Breac", "Classifica": "Ma,M,Mur", "Metres": 999.0, "Feet": 3278, "Grid Ref": "NH158711", "Xcoord": 215816, "Ycoord": 871121, "Latitude": 57.692058, "Longitude": -5.091723, "Viewable": 1036.59 }, "geometry": { "type": "Point", "coordinates": [ -5.091734129120164, 57.692079982793778 ] } },
{ "type": "Feature", "properties": { "Number": 1043, "Name": "A'Chailleach", "Classifica": "Ma,M,Mur", "Metres": 997.0, "Feet": 3271, "Grid Ref": "NH136714", "Xcoord": 213620, "Ycoord": 871414, "Latitude": 57.693782, "Longitude": -5.12873, "Viewable": 1097.64 }, "geometry": { "type": "Point", "coordinates": [ -5.128740912993928, 57.693803270317147 ] } },
{ "type": "Feature", "properties": { "Number": 1046, "Name": "Beinn Liath Mhor Fannaich", "Classifica": "Hu,M,Mur", "Metres": 954.0, "Feet": 3130, "Grid Ref": "NH219724", "Xcoord": 221959, "Ycoord": 872411, "Latitude": 57.706103, "Longitude": -4.989793, "Viewable": 972.72 }, "geometry": { "type": "Point", "coordinates": [ -4.989789690019872, 57.706124977458728 ] } },
{ "type": "Feature", "properties": { "Number": 1049, "Name": "Meall a'Chrasgaidh", "Classifica": "Hu,M,Mur", "Metres": 934.0, "Feet": 3064, "Grid Ref": "NH184733", "Xcoord": 218475, "Ycoord": 873323, "Latitude": 57.712891, "Longitude": -5.048845, "Viewable": 634.95 }, "geometry": { "type": "Point", "coordinates": [ -5.048857289976441, 57.712911817197543 ] } },
{ "type": "Feature", "properties": { "Number": 1050, "Name": "Fionn Bheinn", "Classifica": "Ma,M,Mur", "Metres": 933.0, "Feet": 3061, "Grid Ref": "NH147621", "Xcoord": 214749, "Ycoord": 862149, "Latitude": 57.611148, "Longitude": -5.102713, "Viewable": 1003.33 }, "geometry": { "type": "Point", "coordinates": [ -5.102723237832324, 57.611171219653755 ] } },
{ "type": "Feature", "properties": { "Number": 1051, "Name": "Sgurr nan Each", "Classifica": "Hu,M,Mur", "Metres": 923.0, "Feet": 3028, "Grid Ref": "NH184697", "Xcoord": 218400, "Ycoord": 869700, "Latitude": 57.680366, "Longitude": -5.047378, "Viewable": 411.52 }, "geometry": { "type": "Point", "coordinates": [ -5.047381773937665, 57.680385026502641 ] } },
{ "type": "Feature", "properties": { "Number": 1064, "Name": "Meall nan Ceapraichean", "Classifica": "Hu,M,Mur", "Metres": 977.0, "Feet": 3205, "Grid Ref": "NH257825", "Xcoord": 225725, "Ycoord": 882547, "Latitude": 57.798505, "Longitude": -4.934044, "Viewable": 1174.02 }, "geometry": { "type": "Point", "coordinates": [ -4.934042937050728, 57.798524666790982 ] } },
{ "type": "Feature", "properties": { "Number": 1068, "Name": "Eididh nan Clach Geala", "Classifica": "Ma,M,Mur", "Metres": 927.0, "Feet": 3041, "Grid Ref": "NH257842", "Xcoord": 225789, "Ycoord": 884214, "Latitude": 57.813483, "Longitude": -4.934184, "Viewable": 881.41 }, "geometry": { "type": "Point", "coordinates": [ -4.934182607558127, 57.813503028049553 ] } },
{ "type": "Feature", "properties": { "Number": 1069, "Name": "Seana Bhraigh", "Classifica": "Ma,M,Mur", "Metres": 926.0, "Feet": 3038, "Grid Ref": "NH281878", "Xcoord": 228180, "Ycoord": 887883, "Latitude": 57.847321, "Longitude": -4.896636, "Viewable": 1392.35 }, "geometry": { "type": "Point", "coordinates": [ -4.896635523571217, 57.847340104020759 ] } },
{ "type": "Feature", "properties": { "Number": 1088, "Name": "Ben Wyvis - Glas Leathad Mor", "Classifica": "Ma,M,Mur", "Metres": 1046.0, "Feet": 3432, "Grid Ref": "NH462683", "Xcoord": 246295, "Ycoord": 868377, "Latitude": 57.678895, "Longitude": -4.579282, "Viewable": 3059.04 }, "geometry": { "type": "Point", "coordinates": [ -4.579285998528604, 57.678909576503514 ] } },
{ "type": "Feature", "properties": { "Number": 1123, "Name": "Ben Hope", "Classifica": "Ma,M,Mur", "Metres": 927.0, "Feet": 3041, "Grid Ref": "NC477501", "Xcoord": 247750, "Ycoord": 950151, "Latitude": 58.413113, "Longitude": -4.60786, "Viewable": 1503.84 }, "geometry": { "type": "Point", "coordinates": [ -4.607853262796916, 58.413129957255826 ] } },
{ "type": "Feature", "properties": { "Number": 1165, "Name": "Ben Klibreck - Meall nan Con", "Classifica": "Ma,M,Mur", "Metres": 962.0, "Feet": 3156, "Grid Ref": "NC585299", "Xcoord": 258526, "Ycoord": 929917, "Latitude": 58.235162, "Longitude": -4.411194, "Viewable": 3244.3 }, "geometry": { "type": "Point", "coordinates": [ -4.411189690343812, 58.235182813215133 ] } },
{ "type": "Feature", "properties": { "Number": 1184, "Name": "Conival", "Classifica": "Hu,M,Mur", "Metres": 987.0, "Feet": 3238, "Grid Ref": "NC303199", "Xcoord": 230330, "Ycoord": 919939, "Latitude": 58.135698, "Longitude": -4.883498, "Viewable": 2103.19 }, "geometry": { "type": "Point", "coordinates": [ -4.883500568285841, 58.135719925791129 ] } }
]
}
