{
"type": "FeatureCollection",
"crs": { "type": "name", "properties": { "name": "urn:ogc:def:crs:OGC:1.3:CRS84" } },
                                                                                
"features": [
{ "type": "Feature", "properties": { "Number": 17, "Name": "Ben Vorlich", "Classifica": "Ma,M,Mur", "Metres": 985.0, "Feet": 3232, "Grid Ref": "NN629189", "Xcoord": 262910, "Ycoord": 718915, "Latitude": 56.342671, "Longitude": -4.21948, "Viewable": 2666.0 }, "geometry": { "type": "Point", "coordinates": [ -4.219495635291023, 56.342677209723341 ] } },
{ "type": "Feature", "properties": { "Number": 18, "Name": "Stuc a'Chroin", "Classifica": "Ma,M,Mur", "Metres": 975.0, "Feet": 3199, "Grid Ref": "NN617174", "Xcoord": 261746, "Ycoord": 717466, "Latitude": 56.329324, "Longitude": -4.237534, "Viewable": 2772.99 }, "geometry": { "type": "Point", "coordinates": [ -4.237549383185885, 56.329330486973426 ] } },
{ "type": "Feature", "properties": { "Number": 103, "Name": "Schiehallion", "Classifica": "Ma,M,Mur", "Metres": 1083.0, "Feet": 3553, "Grid Ref": "NN713547", "Xcoord": 271393, "Ycoord": 754756, "Latitude": 56.666828, "Longitude": -4.100076, "Viewable": 1237.27 }, "geometry": { "type": "Point", "coordinates": [ -4.100081581565044, 56.666837133441902 ] } },
{ "type": "Feature", "properties": { "Number": 107, "Name": "Carn Mairg", "Classifica": "Ma,M,Mur", "Metres": 1041.0, "Feet": 3415, "Grid Ref": "NN684512", "Xcoord": 268400, "Ycoord": 751200, "Latitude": 56.634069, "Longitude": -4.147057, "Viewable": 512.17 }, "geometry": { "type": "Point", "coordinates": [ -4.147063802322598, 56.634080576322447 ] } },
{ "type": "Feature", "properties": { "Number": 120, "Name": "Stuchd an Lochain [Stuc an Lochain]", "Classifica": "Ma,M,Mur", "Metres": 960.0, "Feet": 3150, "Grid Ref": "NN483448", "Xcoord": 248303, "Ycoord": 744841, "Latitude": 56.570915, "Longitude": -4.470636, "Viewable": 193.83 }, "geometry": { "type": "Point", "coordinates": [ -4.470648660417904, 56.570925727534409 ] } },
{ "type": "Feature", "properties": { "Number": 123, "Name": "Meall Buidhe", "Classifica": "Ma,M,Mur", "Metres": 932.0, "Feet": 3058, "Grid Ref": "NN498499", "Xcoord": 249839, "Ycoord": 749949, "Latitude": 56.617258, "Longitude": -4.448626, "Viewable": 531.78 }, "geometry": { "type": "Point", "coordinates": [ -4.448639586008599, 56.617267129037465 ] } },
{ "type": "Feature", "properties": { "Number": 141, "Name": "Ben Lawers", "Classifica": "Ma,M,Mur,CoH,CoU,CoA", "Metres": 1214.0, "Feet": 3983, "Grid Ref": "NN635414", "Xcoord": 263551, "Ycoord": 741423, "Latitude": 56.544912, "Longitude": -4.220892, "Viewable": 5284.86 }, "geometry": { "type": "Point", "coordinates": [ -4.220893941012826, 56.544923728277958 ] } },
{ "type": "Feature", "properties": { "Number": 142, "Name": "An Stuc", "Classifica": "Ma=,Hu,M,Mur", "Metres": 1118.0, "Feet": 3668, "Grid Ref": "NN638430", "Xcoord": 263875, "Ycoord": 743089, "Latitude": 56.559962, "Longitude": -4.216501, "Viewable": 3238.06 }, "geometry": { "type": "Point", "coordinates": [ -4.216503123509484, 56.55997366235917 ] } },
{ "type": "Feature", "properties": { "Number": 144, "Name": "Beinn Ghlas", "Classifica": "Hu,M,Mur", "Metres": 1103.0, "Feet": 3619, "Grid Ref": "NN625404", "Xcoord": 262529, "Ycoord": 740466, "Latitude": 56.536023, "Longitude": -4.236994, "Viewable": 3245.89 }, "geometry": { "type": "Point", "coordinates": [ -4.236995202318425, 56.536034708837889 ] } },
{ "type": "Feature", "properties": { "Number": 150, "Name": "Meall Ghaordaidh", "Classifica": "Ma,M,Mur", "Metres": 1039.0, "Feet": 3409, "Grid Ref": "NN514397", "Xcoord": 251443, "Ycoord": 739704, "Latitude": 56.52581, "Longitude": -4.416638, "Viewable": 961.75 }, "geometry": { "type": "Point", "coordinates": [ -4.416652099640396, 56.525821187234897 ] } },
{ "type": "Feature", "properties": { "Number": 345, "Name": "Ben Alder", "Classifica": "Ma,M,Mur", "Metres": 1148.0, "Feet": 3766, "Grid Ref": "NN496718", "Xcoord": 249614, "Ycoord": 771854, "Latitude": 56.813786, "Longitude": -4.465122, "Viewable": 2082.27 }, "geometry": { "type": "Point", "coordinates": [ -4.465137117274049, 56.813800128859604 ] } },
{ "type": "Feature", "properties": { "Number": 346, "Name": "Geal-charn", "Classifica": "Ma,M,Mur", "Metres": 1132.0, "Feet": 3714, "Grid Ref": "NN469746", "Xcoord": 246992, "Ycoord": 774631, "Latitude": 56.837854, "Longitude": -4.509695, "Viewable": 1903.89 }, "geometry": { "type": "Point", "coordinates": [ -4.509709856998947, 56.837867963742397 ] } },
{ "type": "Feature", "properties": { "Number": 347, "Name": "Aonach Beag", "Classifica": "M,Mur,sHu", "Metres": 1115.7, "Feet": 3660, "Grid Ref": "NN457741", "Xcoord": 245787, "Ycoord": 774189, "Latitude": 56.833489, "Longitude": -4.529158, "Viewable": 1466.08 }, "geometry": { "type": "Point", "coordinates": [ -4.529172705545435, 56.833502736108279 ] } },
{ "type": "Feature", "properties": { "Number": 348, "Name": "Beinn Eibhinn", "Classifica": "Hu,M,Mur", "Metres": 1103.2, "Feet": 3619, "Grid Ref": "NN449733", "Xcoord": 244965, "Ycoord": 773302, "Latitude": 56.825255, "Longitude": -4.542077, "Viewable": 608.6 }, "geometry": { "type": "Point", "coordinates": [ -4.542090575895859, 56.825268724361742 ] } },
{ "type": "Feature", "properties": { "Number": 351, "Name": "Chno Dearg", "Classifica": "Ma,M,Mur", "Metres": 1046.0, "Feet": 3432, "Grid Ref": "NN377741", "Xcoord": 237741, "Ycoord": 774115, "Latitude": 56.830086, "Longitude": -4.660831, "Viewable": 881.44 }, "geometry": { "type": "Point", "coordinates": [ -4.660842305740955, 56.830098983145518 ] } },
{ "type": "Feature", "properties": { "Number": 356, "Name": "Stob Coire Sgriodain", "Classifica": "M,Mur,sHu", "Metres": 979.0, "Feet": 3212, "Grid Ref": "NN356743", "Xcoord": 235669, "Ycoord": 774380, "Latitude": 56.831736, "Longitude": -4.694917, "Viewable": 653.38 }, "geometry": { "type": "Point", "coordinates": [ -4.694928388028243, 56.831748978559368 ] } },
{ "type": "Feature", "properties": { "Number": 361, "Name": "Sgor Gaibhre", "Classifica": "Ma,M,Mur", "Metres": 955.0, "Feet": 3133, "Grid Ref": "NN444674", "Xcoord": 244477, "Ycoord": 767447, "Latitude": 56.772544, "Longitude": -4.546498, "Viewable": 600.31 }, "geometry": { "type": "Point", "coordinates": [ -4.546511422189329, 56.772559295617498 ] } },
{ "type": "Feature", "properties": { "Number": 363, "Name": "Carn Dearg", "Classifica": "Ma,M,Mur", "Metres": 941.0, "Feet": 3087, "Grid Ref": "NN417661", "Xcoord": 241773, "Ycoord": 766142, "Latitude": 56.759922, "Longitude": -4.589888, "Viewable": 640.53 }, "geometry": { "type": "Point", "coordinates": [ -4.589900321158842, 56.759936999163656 ] } },
{ "type": "Feature", "properties": { "Number": 383, "Name": "Beinn Udlamain", "Classifica": "Ma,M,Mur", "Metres": 1011.0, "Feet": 3317, "Grid Ref": "NN579739", "Xcoord": 257949, "Ycoord": 773977, "Latitude": 56.835463, "Longitude": -4.329912, "Viewable": 595.24 }, "geometry": { "type": "Point", "coordinates": [ -4.329914080025146, 56.835477368553079 ] } },
{ "type": "Feature", "properties": { "Number": 384, "Name": "Sgairneach Mhor", "Classifica": "Ma,M,Mur", "Metres": 991.0, "Feet": 3251, "Grid Ref": "NN598731", "Xcoord": 259882, "Ycoord": 773128, "Latitude": 56.828429, "Longitude": -4.297791, "Viewable": 777.91 }, "geometry": { "type": "Point", "coordinates": [ -4.297793226574294, 56.828443554831217 ] } },
{ "type": "Feature", "properties": { "Number": 388, "Name": "Meall Chuaich", "Classifica": "Ma,M,Mur", "Metres": 951.0, "Feet": 3120, "Grid Ref": "NN716878", "Xcoord": 271646, "Ycoord": 787832, "Latitude": 56.963832, "Longitude": -4.1126, "Viewable": 672.97 }, "geometry": { "type": "Point", "coordinates": [ -4.112607676588073, 56.963843983786262 ] } },
{ "type": "Feature", "properties": { "Number": 390, "Name": "A'Bhuidheanach Bheag", "Classifica": "Hu,M,Mur", "Metres": 936.0, "Feet": 3071, "Grid Ref": "NN660776", "Xcoord": 266069, "Ycoord": 777601, "Latitude": 56.870407, "Longitude": -4.19884, "Viewable": 427.06 }, "geometry": { "type": "Point", "coordinates": [ -4.198845463349222, 56.870421291907455 ] } },
{ "type": "Feature", "properties": { "Number": 392, "Name": "Geal-charn", "Classifica": "Ma,M,Mur", "Metres": 917.1, "Feet": 3009, "Grid Ref": "NN596782", "Xcoord": 259644, "Ycoord": 778261, "Latitude": 56.874434, "Longitude": -4.304511, "Viewable": 262.07 }, "geometry": { "type": "Point", "coordinates": [ -4.30452180119771, 56.8744464316784 ] } },
{ "type": "Feature", "properties": { "Number": 406, "Name": "Beinn Dearg", "Classifica": "Ma,M,Mur", "Metres": 1008.0, "Feet": 3307, "Grid Ref": "NN852777", "Xcoord": 285290, "Ycoord": 777785, "Latitude": 56.87721, "Longitude": -3.88381, "Viewable": 737.51 }, "geometry": { "type": "Point", "coordinates": [ -3.88380534041963, 56.877224771395241 ] } },
{ "type": "Feature", "properties": { "Number": 407, "Name": "An Sgarsoch", "Classifica": "Ma,M,Mur", "Metres": 1006.0, "Feet": 3301, "Grid Ref": "NN933836", "Xcoord": 293333, "Ycoord": 783666, "Latitude": 56.931937, "Longitude": -3.754384, "Viewable": 557.75 }, "geometry": { "type": "Point", "coordinates": [ -3.75438221530339, 56.931951034660415 ] } },
{ "type": "Feature", "properties": { "Number": 408, "Name": "Carn an Fhidhleir [Carn Ealar]", "Classifica": "Ma,M,Mur", "Metres": 994.0, "Feet": 3261, "Grid Ref": "NN904841", "Xcoord": 290470, "Ycoord": 784186, "Latitude": 56.935938, "Longitude": -3.801629, "Viewable": 549.26 }, "geometry": { "type": "Point", "coordinates": [ -3.801626261865756, 56.93595125911412 ] } },
{ "type": "Feature", "properties": { "Number": 409, "Name": "Carn a'Chlamain", "Classifica": "Ma,M,Mur", "Metres": 963.0, "Feet": 3159, "Grid Ref": "NN915758", "Xcoord": 291590, "Ycoord": 775807, "Latitude": 56.860965, "Longitude": -3.779651, "Viewable": 736.46 }, "geometry": { "type": "Point", "coordinates": [ -3.779647869429781, 56.860979812633659 ] } },
{ "type": "Feature", "properties": { "Number": 421, "Name": "Beinn a'Ghlo - Carn nan Gabhar", "Classifica": "Ma,M,Mur", "Metres": 1121.0, "Feet": 3678, "Grid Ref": "NN971733", "Xcoord": 297118, "Ycoord": 773314, "Latitude": 56.839837, "Longitude": -3.688022, "Viewable": 3436.57 }, "geometry": { "type": "Point", "coordinates": [ -3.688020790055512, 56.839852557144795 ] } },
{ "type": "Feature", "properties": { "Number": 422, "Name": "Beinn a'Ghlo - Braigh Coire Chruinn-bhalgain", "Classifica": "Ma,M,Mur", "Metres": 1070.0, "Feet": 3510, "Grid Ref": "NN945724", "Xcoord": 294565, "Ycoord": 772411, "Latitude": 56.831156, "Longitude": -3.729475, "Viewable": 1692.16 }, "geometry": { "type": "Point", "coordinates": [ -3.729473194694906, 56.831171530904811 ] } },
{ "type": "Feature", "properties": { "Number": 425, "Name": "Beinn Iutharn Mhor", "Classifica": "Ma,M,Mur", "Metres": 1045.0, "Feet": 3428, "Grid Ref": "NO045792", "Xcoord": 304566, "Ycoord": 779280, "Latitude": 56.895003, "Longitude": -3.56823, "Viewable": 999.33 }, "geometry": { "type": "Point", "coordinates": [ -3.568231422071947, 56.89501814414416 ] } },
{ "type": "Feature", "properties": { "Number": 426, "Name": "Carn an Righ", "Classifica": "Ma,M,Mur", "Metres": 1029.0, "Feet": 3376, "Grid Ref": "NO028772", "Xcoord": 302871, "Ycoord": 777266, "Latitude": 56.876565, "Longitude": -3.595272, "Viewable": 1126.49 }, "geometry": { "type": "Point", "coordinates": [ -3.595272772876817, 56.876580400801124 ] } },
{ "type": "Feature", "properties": { "Number": 432, "Name": "Carn Bhac", "Classifica": "Ma,M,Mur", "Metres": 946.0, "Feet": 3104, "Grid Ref": "NO051832", "Xcoord": 305098, "Ycoord": 783255, "Latitude": 56.930809, "Longitude": -3.560989, "Viewable": 361.91 }, "geometry": { "type": "Point", "coordinates": [ -3.560991467184193, 56.930822972302352 ] } },
{ "type": "Feature", "properties": { "Number": 433, "Name": "An Socach", "Classifica": "Ma,M,Mur", "Metres": 944.0, "Feet": 3097, "Grid Ref": "NO079799", "Xcoord": 307900, "Ycoord": 779900, "Latitude": 56.901249, "Longitude": -3.513748, "Viewable": 241.22 }, "geometry": { "type": "Point", "coordinates": [ -3.513749058662352, 56.901260643588287 ] } },
{ "type": "Feature", "properties": { "Number": 435, "Name": "The Cairnwell", "Classifica": "Hu,M,Mur", "Metres": 933.0, "Feet": 3061, "Grid Ref": "NO134773", "Xcoord": 313485, "Ycoord": 777375, "Latitude": 56.879646, "Longitude": -3.42122, "Viewable": 712.83 }, "geometry": { "type": "Point", "coordinates": [ -3.421224505647298, 56.879661507579669 ] } },
{ "type": "Feature", "properties": { "Number": 459, "Name": "Carn a'Choire Bhoidheach", "Classifica": "M,Mur", "Metres": 1110.0, "Feet": 3642, "Grid Ref": "NO226845", "Xcoord": 322671, "Ycoord": 784557, "Latitude": 56.945773, "Longitude": -3.272724, "Viewable": 3021.53 }, "geometry": { "type": "Point", "coordinates": [ -3.272731923768839, 56.945787663282445 ] } },
{ "type": "Feature", "properties": { "Number": 461, "Name": "Glas Maol", "Classifica": "Ma,M,Mur,CoH,CoU", "Metres": 1068.0, "Feet": 3504, "Grid Ref": "NO166765", "Xcoord": 316699, "Ycoord": 776577, "Latitude": 56.873068, "Longitude": -3.368237, "Viewable": 1654.25 }, "geometry": { "type": "Point", "coordinates": [ -3.368242306779357, 56.873083554161347 ] } },
{ "type": "Feature", "properties": { "Number": 467, "Name": "Carn an Tuirc", "Classifica": "M,Mur", "Metres": 1019.0, "Feet": 3343, "Grid Ref": "NO174804", "Xcoord": 317400, "Ycoord": 780400, "Latitude": 56.907531, "Longitude": -3.357991, "Viewable": 165.14 }, "geometry": { "type": "Point", "coordinates": [ -3.35799075083474, 56.907542792050556 ] } },
{ "type": "Feature", "properties": { "Number": 518, "Name": "Ben Macdui [Beinn Macduibh]", "Classifica": "Ma,M,Mur,CoH,CoU,CoA", "Metres": 1309.0, "Feet": 4295, "Grid Ref": "NN988989", "Xcoord": 298899, "Ycoord": 798943, "Latitude": 57.070368, "Longitude": -3.669099, "Viewable": 4570.33 }, "geometry": { "type": "Point", "coordinates": [ -3.669099512465734, 57.070379220462421 ] } },
{ "type": "Feature", "properties": { "Number": 521, "Name": "Cairn Toul", "Classifica": "Ma,M,Mur", "Metres": 1291.0, "Feet": 4236, "Grid Ref": "NN963972", "Xcoord": 296329, "Ycoord": 797228, "Latitude": 57.054397, "Longitude": -3.710757, "Viewable": 2574.53 }, "geometry": { "type": "Point", "coordinates": [ -3.710756759669017, 57.054408366486456 ] } },
{ "type": "Feature", "properties": { "Number": 525, "Name": "Cairn Gorm", "Classifica": "Hu,M,Mur,sMa", "Metres": 1244.0, "Feet": 4081, "Grid Ref": "NJ005040", "Xcoord": 300519, "Ycoord": 804067, "Latitude": 57.116732, "Longitude": -3.644428, "Viewable": 4038.33 }, "geometry": { "type": "Point", "coordinates": [ -3.644429601408166, 57.116742590420714 ] } },
{ "type": "Feature", "properties": { "Number": 529, "Name": "Beinn a'Bhuird North Top", "Classifica": "Ma,M,Mur", "Metres": 1197.0, "Feet": 3927, "Grid Ref": "NJ092006", "Xcoord": 309231, "Ycoord": 800622, "Latitude": 57.087599, "Longitude": -3.499367, "Viewable": 3264.15 }, "geometry": { "type": "Point", "coordinates": [ -3.499371312370937, 57.087610385062767 ] } },
{ "type": "Feature", "properties": { "Number": 549, "Name": "Monadh Mor", "Classifica": "Hu,M,Mur", "Metres": 1113.0, "Feet": 3652, "Grid Ref": "NN938942", "Xcoord": 293864, "Ycoord": 794216, "Latitude": 57.02679, "Longitude": -3.750102, "Viewable": 1710.43 }, "geometry": { "type": "Point", "coordinates": [ -3.750101030355451, 57.026802294245719 ] } },
{ "type": "Feature", "properties": { "Number": 557, "Name": "Bynack More", "Classifica": "Ma,M,Mur", "Metres": 1090.0, "Feet": 3576, "Grid Ref": "NJ041063", "Xcoord": 304189, "Ycoord": 806330, "Latitude": 57.137833, "Longitude": -3.584716, "Viewable": 1506.4 }, "geometry": { "type": "Point", "coordinates": [ -3.584719420558073, 57.137843413846134 ] } },
{ "type": "Feature", "properties": { "Number": 571, "Name": "Mullach Clach a'Bhlair", "Classifica": "Hu,M,Mur", "Metres": 1019.0, "Feet": 3343, "Grid Ref": "NN882927", "Xcoord": 288285, "Ycoord": 792701, "Latitude": 57.01187, "Longitude": -3.841287, "Viewable": 678.2 }, "geometry": { "type": "Point", "coordinates": [ -3.841283450325847, 57.011881869137305 ] } },
{ "type": "Feature", "properties": { "Number": 621, "Name": "Carn Dearg", "Classifica": "Ma,M,Mur", "Metres": 945.0, "Feet": 3100, "Grid Ref": "NH635024", "Xcoord": 263569, "Ycoord": 802399, "Latitude": 57.09227, "Longitude": -4.25323, "Viewable": 408.7 }, "geometry": { "type": "Point", "coordinates": [ -4.253235872154809, 57.092288130695664 ] } },
{ "type": "Feature", "properties": { "Number": 624, "Name": "Geal Charn", "Classifica": "Hu,M,Mur", "Metres": 926.0, "Feet": 3038, "Grid Ref": "NN561987", "Xcoord": 256143, "Ycoord": 798769, "Latitude": 57.057427, "Longitude": -4.373589, "Viewable": 744.72 }, "geometry": { "type": "Point", "coordinates": [ -4.373592477792414, 57.057445526872527 ] } },
{ "type": "Feature", "properties": { "Number": 626, "Name": "Carn Sgulain", "Classifica": "M,Mur", "Metres": 920.0, "Feet": 3018, "Grid Ref": "NH682058", "Xcoord": 268299, "Ycoord": 805814, "Latitude": 57.124304, "Longitude": -4.177029, "Viewable": 751.7 }, "geometry": { "type": "Point", "coordinates": [ -4.177036814437611, 57.124321566980129 ] } },
{ "type": "Feature", "properties": { "Number": 658, "Name": "Creag Meagaidh", "Classifica": "Ma,M,Mur", "Metres": 1128.0, "Feet": 3701, "Grid Ref": "NN418875", "Xcoord": 241840, "Ycoord": 787549, "Latitude": 56.952051, "Longitude": -4.602102, "Viewable": 1986.23 }, "geometry": { "type": "Point", "coordinates": [ -4.602116508723091, 56.952070584197493 ] } },
{ "type": "Feature", "properties": { "Number": 662, "Name": "Stob Poite Coire Ardair", "Classifica": "Hu,M,Mur", "Metres": 1054.0, "Feet": 3458, "Grid Ref": "NN428888", "Xcoord": 242800, "Ycoord": 788800, "Latitude": 56.963609, "Longitude": -4.58712, "Viewable": 136.16 }, "geometry": { "type": "Point", "coordinates": [ -4.587128639432613, 56.963624433276401 ] } },
{ "type": "Feature", "properties": { "Number": 668, "Name": "Carn Liath", "Classifica": "M,Mur", "Metres": 1006.0, "Feet": 3301, "Grid Ref": "NN472903", "Xcoord": 247200, "Ycoord": 790300, "Latitude": 56.978546, "Longitude": -4.515741, "Viewable": 389.74 }, "geometry": { "type": "Point", "coordinates": [ -4.515749107151332, 56.978561325611771 ] } },
{ "type": "Feature", "properties": { "Number": 810, "Name": "Tom a'Choinich", "Classifica": "Hu,M,Mur,sMa", "Metres": 1112.0, "Feet": 3648, "Grid Ref": "NH164273", "Xcoord": 216403, "Ycoord": 827335, "Latitude": 57.299554, "Longitude": -5.048945, "Viewable": 1682.74 }, "geometry": { "type": "Point", "coordinates": [ -5.048953904304225, 57.299575067005392 ] } },
{ "type": "Feature", "properties": { "Number": 818, "Name": "Toll Creagach", "Classifica": "Ma,M,Mur", "Metres": 1054.0, "Feet": 3458, "Grid Ref": "NH194282", "Xcoord": 219401, "Ycoord": 828280, "Latitude": 57.309227, "Longitude": -4.999953, "Viewable": 1278.57 }, "geometry": { "type": "Point", "coordinates": [ -4.99996269918986, 57.309247837009487 ] } },
{ "type": "Feature", "properties": { "Number": 884, "Name": "Sgurr a'Choire Ghlais", "Classifica": "Ma,M,Mur", "Metres": 1083.0, "Feet": 3553, "Grid Ref": "NH258430", "Xcoord": 225882, "Ycoord": 843016, "Latitude": 57.443947, "Longitude": -4.902963, "Viewable": 2122.31 }, "geometry": { "type": "Point", "coordinates": [ -4.902958898057218, 57.443965771145983 ] } },
{ "type": "Feature", "properties": { "Number": 886, "Name": "Sgurr Fhuar-thuill", "Classifica": "Hu,M,Mur,sMa", "Metres": 1049.0, "Feet": 3442, "Grid Ref": "NH235437", "Xcoord": 223580, "Ycoord": 843754, "Latitude": 57.44968, "Longitude": -4.94178, "Viewable": 1640.2 }, "geometry": { "type": "Point", "coordinates": [ -4.941791476472146, 57.449697611129437 ] } },
{ "type": "Feature", "properties": { "Number": 890, "Name": "Maoile Lunndaidh", "Classifica": "Ma,M,Mur", "Metres": 1005.0, "Feet": 3297, "Grid Ref": "NH135458", "Xcoord": 213518, "Ycoord": 845867, "Latitude": 57.464611, "Longitude": -5.110808, "Viewable": 794.99 }, "geometry": { "type": "Point", "coordinates": [ -5.110816984798627, 57.464628440928188 ] } },
{ "type": "Feature", "properties": { "Number": 894, "Name": "Sgurr na Ruaidhe", "Classifica": "Ma,M,Mur", "Metres": 993.0, "Feet": 3258, "Grid Ref": "NH289426", "Xcoord": 228900, "Ycoord": 842614, "Latitude": 57.441488, "Longitude": -4.852464, "Viewable": 1705.41 }, "geometry": { "type": "Point", "coordinates": [ -4.852461095128953, 57.441506570677539 ] } },
{ "type": "Feature", "properties": { "Number": 895, "Name": "Carn nan Gobhar", "Classifica": "Hu,M,Mur", "Metres": 992.0, "Feet": 3255, "Grid Ref": "NH273438", "Xcoord": 227303, "Ycoord": 843890, "Latitude": 57.452331, "Longitude": -4.879935, "Viewable": 2461.46 }, "geometry": { "type": "Point", "coordinates": [ -4.879931902065454, 57.452349317361076 ] } },
{ "type": "Feature", "properties": { "Number": 899, "Name": "Moruisg", "Classifica": "Ma,M,Mur", "Metres": 928.0, "Feet": 3045, "Grid Ref": "NH101499", "Xcoord": 210113, "Ycoord": 849938, "Latitude": 57.499703, "Longitude": -5.170646, "Viewable": 504.86 }, "geometry": { "type": "Point", "coordinates": [ -5.170654627569195, 57.499728199126288 ] } },
{ "type": "Feature", "properties": { "Number": 926, "Name": "Sgurr na Lapaich", "Classifica": "Ma,M,Mur", "Metres": 1150.0, "Feet": 3773, "Grid Ref": "NH160351", "Xcoord": 216102, "Ycoord": 835126, "Latitude": 57.369319, "Longitude": -5.059743, "Viewable": 2551.19 }, "geometry": { "type": "Point", "coordinates": [ -5.05975181485052, 57.369338804802695 ] } },
{ "type": "Feature", "properties": { "Number": 927, "Name": "An Riabhachan", "Classifica": "Ma,M,Mur", "Metres": 1129.0, "Feet": 3704, "Grid Ref": "NH133344", "Xcoord": 213363, "Ycoord": 834483, "Latitude": 57.362438, "Longitude": -5.104728, "Viewable": 1005.62 }, "geometry": { "type": "Point", "coordinates": [ -5.104736295532149, 57.362457125191391 ] } },
{ "type": "Feature", "properties": { "Number": 936, "Name": "Carn nan Gobhar", "Classifica": "Ma,M,Mur", "Metres": 993.0, "Feet": 3258, "Grid Ref": "NH181343", "Xcoord": 218188, "Ycoord": 834362, "Latitude": 57.363304, "Longitude": -5.024544, "Viewable": 1464.98 }, "geometry": { "type": "Point", "coordinates": [ -5.024553927647769, 57.363323225569012 ] } },
{ "type": "Feature", "properties": { "Number": 1003, "Name": "An Teallach - Bidein a'Ghlas Thuill", "Classifica": "Ma,M,Mur", "Metres": 1062.0, "Feet": 3484, "Grid Ref": "NH069843", "Xcoord": 206899, "Ycoord": 884372, "Latitude": 57.807153, "Longitude": -5.251721, "Viewable": 1629.76 }, "geometry": { "type": "Point", "coordinates": [ -5.251730197609828, 57.807171838301372 ] } },
{ "type": "Feature", "properties": { "Number": 1007, "Name": "Mullach Coire Mhic Fhearchair", "Classifica": "Ma,M,Mur", "Metres": 1018.0, "Feet": 3340, "Grid Ref": "NH052735", "Xcoord": 205202, "Ycoord": 873506, "Latitude": 57.708976, "Longitude": -5.271405, "Viewable": 1072.93 }, "geometry": { "type": "Point", "coordinates": [ -5.271413220520044, 57.708996630453591 ] } },
{ "type": "Feature", "properties": { "Number": 1009, "Name": "Sgurr Ban", "Classifica": "Ma,M,Mur", "Metres": 989.0, "Feet": 3245, "Grid Ref": "NH055745", "Xcoord": 205579, "Ycoord": 874553, "Latitude": 57.718528, "Longitude": -5.265935, "Viewable": 1161.73 }, "geometry": { "type": "Point", "coordinates": [ -5.265943204964962, 57.718548920403421 ] } },
{ "type": "Feature", "properties": { "Number": 1023, "Name": "Ruadh Stac Mor", "Classifica": "Ma,M,Mur", "Metres": 918.7, "Feet": 3014, "Grid Ref": "NH018756", "Xcoord": 201853, "Ycoord": 875655, "Latitude": 57.726783, "Longitude": -5.329288, "Viewable": 797.71 }, "geometry": { "type": "Point", "coordinates": [ -5.329290492984533, 57.726803097811434 ] } },
{ "type": "Feature", "properties": { "Number": 1041, "Name": "Sgurr nan Clach Geala", "Classifica": "Ma,M,Mur", "Metres": 1093.0, "Feet": 3586, "Grid Ref": "NH184714", "Xcoord": 218428, "Ycoord": 871474, "Latitude": 57.696287, "Longitude": -5.048238, "Viewable": 1006.71 }, "geometry": { "type": "Point", "coordinates": [ -5.04824994433955, 57.696308253293921 ] } },
{ "type": "Feature", "properties": { "Number": 1042, "Name": "Sgurr Breac", "Classifica": "Ma,M,Mur", "Metres": 999.0, "Feet": 3278, "Grid Ref": "NH158711", "Xcoord": 215816, "Ycoord": 871121, "Latitude": 57.692058, "Longitude": -5.091723, "Viewable": 1036.59 }, "geometry": { "type": "Point", "coordinates": [ -5.091734129120164, 57.692079982793778 ] } },
{ "type": "Feature", "properties": { "Number": 1046, "Name": "Beinn Liath Mhor Fannaich", "Classifica": "Hu,M,Mur", "Metres": 954.0, "Feet": 3130, "Grid Ref": "NH219724", "Xcoord": 221959, "Ycoord": 872411, "Latitude": 57.706103, "Longitude": -4.989793, "Viewable": 972.72 }, "geometry": { "type": "Point", "coordinates": [ -4.989789690019872, 57.706124977458728 ] } },
{ "type": "Feature", "properties": { "Number": 1047, "Name": "Meall Gorm", "Classifica": "Hu,M,Mur", "Metres": 949.0, "Feet": 3114, "Grid Ref": "NH221695", "Xcoord": 222191, "Ycoord": 869584, "Latitude": 57.680836, "Longitude": -4.983818, "Viewable": 777.17 }, "geometry": { "type": "Point", "coordinates": [ -4.983814758405065, 57.680858529696913 ] } },
{ "type": "Feature", "properties": { "Number": 1051, "Name": "Sgurr nan Each", "Classifica": "Hu,M,Mur", "Metres": 923.0, "Feet": 3028, "Grid Ref": "NH184697", "Xcoord": 218400, "Ycoord": 869700, "Latitude": 57.680366, "Longitude": -5.047378, "Viewable": 411.52 }, "geometry": { "type": "Point", "coordinates": [ -5.047381773937665, 57.680385026502641 ] } },
{ "type": "Feature", "properties": { "Number": 1052, "Name": "An Coileachan", "Classifica": "Hu,M,Mur,sMa", "Metres": 923.0, "Feet": 3028, "Grid Ref": "NH241680", "Xcoord": 224177, "Ycoord": 868018, "Latitude": 57.667569, "Longitude": -4.949418, "Viewable": 1178.45 }, "geometry": { "type": "Point", "coordinates": [ -4.949415134171296, 57.66759140432049 ] } },
{ "type": "Feature", "properties": { "Number": 1062, "Name": "Beinn Dearg", "Classifica": "Ma,M,Mur", "Metres": 1084.0, "Feet": 3556, "Grid Ref": "NH259811", "Xcoord": 225932, "Ycoord": 881182, "Latitude": 57.78634, "Longitude": -4.929573, "Viewable": 1400.92 }, "geometry": { "type": "Point", "coordinates": [ -4.929572026666585, 57.786360653826499 ] } },
{ "type": "Feature", "properties": { "Number": 1063, "Name": "Cona' Mheall", "Classifica": "Ma,M,Mur", "Metres": 978.0, "Feet": 3209, "Grid Ref": "NH275816", "Xcoord": 227512, "Ycoord": 881640, "Latitude": 57.79106, "Longitude": -4.903366, "Viewable": 645.05 }, "geometry": { "type": "Point", "coordinates": [ -4.903365044592612, 57.79108011233928 ] } },
{ "type": "Feature", "properties": { "Number": 1066, "Name": "Am Faochagach", "Classifica": "Ma,M,Mur", "Metres": 953.0, "Feet": 3127, "Grid Ref": "NH303793", "Xcoord": 230361, "Ycoord": 879372, "Latitude": 57.771801, "Longitude": -4.853899, "Viewable": 1092.05 }, "geometry": { "type": "Point", "coordinates": [ -4.853899102655233, 57.771821792047341 ] } },
{ "type": "Feature", "properties": { "Number": 1069, "Name": "Seana Bhraigh", "Classifica": "Ma,M,Mur", "Metres": 926.0, "Feet": 3038, "Grid Ref": "NH281878", "Xcoord": 228180, "Ycoord": 887883, "Latitude": 57.847321, "Longitude": -4.896636, "Viewable": 1392.35 }, "geometry": { "type": "Point", "coordinates": [ -4.896635523571217, 57.847340104020759 ] } },
{ "type": "Feature", "properties": { "Number": 1088, "Name": "Ben Wyvis - Glas Leathad Mor", "Classifica": "Ma,M,Mur", "Metres": 1046.0, "Feet": 3432, "Grid Ref": "NH462683", "Xcoord": 246295, "Ycoord": 868377, "Latitude": 57.678895, "Longitude": -4.579282, "Viewable": 3059.04 }, "geometry": { "type": "Point", "coordinates": [ -4.579285998528604, 57.678909576503514 ] } },
{ "type": "Feature", "properties": { "Number": 1123, "Name": "Ben Hope", "Classifica": "Ma,M,Mur", "Metres": 927.0, "Feet": 3041, "Grid Ref": "NC477501", "Xcoord": 247750, "Ycoord": 950151, "Latitude": 58.413113, "Longitude": -4.60786, "Viewable": 1503.84 }, "geometry": { "type": "Point", "coordinates": [ -4.607853262796916, 58.413129957255826 ] } },
{ "type": "Feature", "properties": { "Number": 1165, "Name": "Ben Klibreck - Meall nan Con", "Classifica": "Ma,M,Mur", "Metres": 962.0, "Feet": 3156, "Grid Ref": "NC585299", "Xcoord": 258526, "Ycoord": 929917, "Latitude": 58.235162, "Longitude": -4.411194, "Viewable": 3244.3 }, "geometry": { "type": "Point", "coordinates": [ -4.411189690343812, 58.235182813215133 ] } },
{ "type": "Feature", "properties": { "Number": 1184, "Name": "Conival", "Classifica": "Hu,M,Mur", "Metres": 987.0, "Feet": 3238, "Grid Ref": "NC303199", "Xcoord": 230330, "Ycoord": 919939, "Latitude": 58.135698, "Longitude": -4.883498, "Viewable": 2103.19 }, "geometry": { "type": "Point", "coordinates": [ -4.883500568285841, 58.135719925791129 ] } }
]
}
