{
"type": "FeatureCollection",
"crs": { "type": "name", "properties": { "name": "urn:ogc:def:crs:OGC:1.3:CRS84" } },
                                                                                
"features": [
{ "type": "Feature", "properties": { "Number": 1, "Name": "Ben Chonzie", "Classifica": "Ma,M,Mur", "Metres": 931.0, "Feet": 3054, "Grid Ref": "NN773308", "Xcoord": 277324, "Ycoord": 730857, "Latitude": 56.453851, "Longitude": -3.992057, "Viewable": 2111.33 }, "geometry": { "type": "Point", "coordinates": [ -3.99206200693323, 56.453856530406412 ] } },
{ "type": "Feature", "properties": { "Number": 26, "Name": "Ben More", "Classifica": "Ma,M,Mur,CoU,CoA", "Metres": 1174.0, "Feet": 3852, "Grid Ref": "NN432244", "Xcoord": 243275, "Ycoord": 724417, "Latitude": 56.385952, "Longitude": -4.540103, "Viewable": 5395.04 }, "geometry": { "type": "Point", "coordinates": [ -4.540113304326504, 56.385966153011587 ] } },
{ "type": "Feature", "properties": { "Number": 27, "Name": "Stob Binnein", "Classifica": "Ma,M,Mur", "Metres": 1165.0, "Feet": 3822, "Grid Ref": "NN434227", "Xcoord": 243481, "Ycoord": 722714, "Latitude": 56.370735, "Longitude": -4.535754, "Viewable": 5454.05 }, "geometry": { "type": "Point", "coordinates": [ -4.535764148329166, 56.3707494599198 ] } },
{ "type": "Feature", "properties": { "Number": 30, "Name": "Cruach Ardrain", "Classifica": "Ma,M,Mur", "Metres": 1046.0, "Feet": 3432, "Grid Ref": "NN409212", "Xcoord": 240927, "Ycoord": 721215, "Latitude": 56.356429, "Longitude": -4.576151, "Viewable": 1327.33 }, "geometry": { "type": "Point", "coordinates": [ -4.576160402591344, 56.356443613961282 ] } },
{ "type": "Feature", "properties": { "Number": 31, "Name": "An Caisteal", "Classifica": "Ma,M,Mur", "Metres": 995.0, "Feet": 3264, "Grid Ref": "NN378193", "Xcoord": 237873, "Ycoord": 719345, "Latitude": 56.338618, "Longitude": -4.62437, "Viewable": 1717.21 }, "geometry": { "type": "Point", "coordinates": [ -4.624377236134579, 56.338624251970657 ] } },
{ "type": "Feature", "properties": { "Number": 35, "Name": "Beinn Tulaichean", "Classifica": "Hu,M,Mur", "Metres": 946.0, "Feet": 3104, "Grid Ref": "NN416196", "Xcoord": 241661, "Ycoord": 719606, "Latitude": 56.342243, "Longitude": -4.563316, "Viewable": 1241.92 }, "geometry": { "type": "Point", "coordinates": [ -4.563324746616534, 56.342248783089595 ] } },
{ "type": "Feature", "properties": { "Number": 38, "Name": "Beinn Chabhair", "Classifica": "Ma,M,Mur", "Metres": 933.0, "Feet": 3061, "Grid Ref": "NN367179", "Xcoord": 236758, "Ycoord": 717968, "Latitude": 56.325877, "Longitude": -4.641532, "Viewable": 1289.78 }, "geometry": { "type": "Point", "coordinates": [ -4.641538972349795, 56.325883066484238 ] } },
{ "type": "Feature", "properties": { "Number": 65, "Name": "Ben Lui [Beinn Laoigh]", "Classifica": "Ma,M,Mur", "Metres": 1130.0, "Feet": 3707, "Grid Ref": "NN266263", "Xcoord": 226635, "Ycoord": 726297, "Latitude": 56.397013, "Longitude": -4.81051, "Viewable": 3782.59 }, "geometry": { "type": "Point", "coordinates": [ -4.81053058075227, 56.39702582631709 ] } },
{ "type": "Feature", "properties": { "Number": 67, "Name": "Ben Oss", "Classifica": "Ma,M,Mur", "Metres": 1029.0, "Feet": 3376, "Grid Ref": "NN287253", "Xcoord": 228761, "Ycoord": 725347, "Latitude": 56.389263, "Longitude": -4.775488, "Viewable": 1445.66 }, "geometry": { "type": "Point", "coordinates": [ -4.775509457776855, 56.389276301083441 ] } },
{ "type": "Feature", "properties": { "Number": 71, "Name": "Ben Vorlich", "Classifica": "Ma,M,Mur,CoH", "Metres": 943.0, "Feet": 3094, "Grid Ref": "NN295124", "Xcoord": 229509, "Ycoord": 712475, "Latitude": 56.27403, "Longitude": -4.755047, "Viewable": 1094.11 }, "geometry": { "type": "Point", "coordinates": [ -4.755067535252079, 56.274036411876125 ] } },
{ "type": "Feature", "properties": { "Number": 76, "Name": "Ben Vane", "Classifica": "Ma,M,Mur", "Metres": 915.76, "Feet": 3004, "Grid Ref": "NN277098", "Xcoord": 227754, "Ycoord": 709843, "Latitude": 56.249777, "Longitude": -4.781638, "Viewable": 1686.11 }, "geometry": { "type": "Point", "coordinates": [ -4.781658370233979, 56.249784025496517 ] } },
{ "type": "Feature", "properties": { "Number": 103, "Name": "Schiehallion", "Classifica": "Ma,M,Mur", "Metres": 1083.0, "Feet": 3553, "Grid Ref": "NN713547", "Xcoord": 271393, "Ycoord": 754756, "Latitude": 56.666828, "Longitude": -4.100076, "Viewable": 1237.27 }, "geometry": { "type": "Point", "coordinates": [ -4.100081581565044, 56.666837133441902 ] } },
{ "type": "Feature", "properties": { "Number": 104, "Name": "Beinn a'Chreachain", "Classifica": "Ma,M,Mur", "Metres": 1081.0, "Feet": 3547, "Grid Ref": "NN373440", "Xcoord": 237389, "Ycoord": 744075, "Latitude": 56.560387, "Longitude": -4.647589, "Viewable": 1044.86 }, "geometry": { "type": "Point", "coordinates": [ -4.647598463275189, 56.560397108836888 ] } },
{ "type": "Feature", "properties": { "Number": 105, "Name": "Beinn Dorain", "Classifica": "Ma,M,Mur", "Metres": 1076.0, "Feet": 3530, "Grid Ref": "NN325378", "Xcoord": 232563, "Ycoord": 737875, "Latitude": 56.503053, "Longitude": -4.722024, "Viewable": 1045.8 }, "geometry": { "type": "Point", "coordinates": [ -4.722031289863984, 56.50306380306229 ] } },
{ "type": "Feature", "properties": { "Number": 107, "Name": "Carn Mairg", "Classifica": "Ma,M,Mur", "Metres": 1041.0, "Feet": 3415, "Grid Ref": "NN684512", "Xcoord": 268400, "Ycoord": 751200, "Latitude": 56.634069, "Longitude": -4.147057, "Viewable": 512.17 }, "geometry": { "type": "Point", "coordinates": [ -4.147063802322598, 56.634080576322447 ] } },
{ "type": "Feature", "properties": { "Number": 108, "Name": "Beinn Achaladair", "Classifica": "Ma,M,Mur", "Metres": 1038.0, "Feet": 3406, "Grid Ref": "NN346433", "Xcoord": 234600, "Ycoord": 743300, "Latitude": 56.552454, "Longitude": -4.692417, "Viewable": 406.94 }, "geometry": { "type": "Point", "coordinates": [ -4.692430335326931, 56.552468136667706 ] } },
{ "type": "Feature", "properties": { "Number": 118, "Name": "Meall Garbh", "Classifica": "Hu,M,Mur", "Metres": 968.0, "Feet": 3176, "Grid Ref": "NN647517", "Xcoord": 264700, "Ycoord": 751700, "Latitude": 56.637502, "Longitude": -4.207589, "Viewable": 95.88 }, "geometry": { "type": "Point", "coordinates": [ -4.207596570567766, 56.637514345100598 ] } },
{ "type": "Feature", "properties": { "Number": 120, "Name": "Stuchd an Lochain [Stuc an Lochain]", "Classifica": "Ma,M,Mur", "Metres": 960.0, "Feet": 3150, "Grid Ref": "NN483448", "Xcoord": 248303, "Ycoord": 744841, "Latitude": 56.570915, "Longitude": -4.470636, "Viewable": 193.83 }, "geometry": { "type": "Point", "coordinates": [ -4.470648660417904, 56.570925727534409 ] } },
{ "type": "Feature", "properties": { "Number": 122, "Name": "Beinn Mhanach", "Classifica": "Ma,M,Mur", "Metres": 953.0, "Feet": 3127, "Grid Ref": "NN373411", "Xcoord": 237369, "Ycoord": 741138, "Latitude": 56.534022, "Longitude": -4.646074, "Viewable": 462.03 }, "geometry": { "type": "Point", "coordinates": [ -4.646082759318204, 56.534032709240158 ] } },
{ "type": "Feature", "properties": { "Number": 123, "Name": "Meall Buidhe", "Classifica": "Ma,M,Mur", "Metres": 932.0, "Feet": 3058, "Grid Ref": "NN498499", "Xcoord": 249839, "Ycoord": 749949, "Latitude": 56.617258, "Longitude": -4.448626, "Viewable": 531.78 }, "geometry": { "type": "Point", "coordinates": [ -4.448639586008599, 56.617267129037465 ] } },
{ "type": "Feature", "properties": { "Number": 141, "Name": "Ben Lawers", "Classifica": "Ma,M,Mur,CoH,CoU,CoA", "Metres": 1214.0, "Feet": 3983, "Grid Ref": "NN635414", "Xcoord": 263551, "Ycoord": 741423, "Latitude": 56.544912, "Longitude": -4.220892, "Viewable": 5284.86 }, "geometry": { "type": "Point", "coordinates": [ -4.220893941012826, 56.544923728277958 ] } },
{ "type": "Feature", "properties": { "Number": 142, "Name": "An Stuc", "Classifica": "Ma=,Hu,M,Mur", "Metres": 1118.0, "Feet": 3668, "Grid Ref": "NN638430", "Xcoord": 263875, "Ycoord": 743089, "Latitude": 56.559962, "Longitude": -4.216501, "Viewable": 3238.06 }, "geometry": { "type": "Point", "coordinates": [ -4.216503123509484, 56.55997366235917 ] } },
{ "type": "Feature", "properties": { "Number": 143, "Name": "Meall Garbh", "Classifica": "Ma,M,Mur", "Metres": 1118.0, "Feet": 3668, "Grid Ref": "NN644437", "Xcoord": 264437, "Ycoord": 743759, "Latitude": 56.56614, "Longitude": -4.207715, "Viewable": 3439.07 }, "geometry": { "type": "Point", "coordinates": [ -4.20771694560595, 56.566151003705386 ] } },
{ "type": "Feature", "properties": { "Number": 144, "Name": "Beinn Ghlas", "Classifica": "Hu,M,Mur", "Metres": 1103.0, "Feet": 3619, "Grid Ref": "NN625404", "Xcoord": 262529, "Ycoord": 740466, "Latitude": 56.536023, "Longitude": -4.236994, "Viewable": 3245.89 }, "geometry": { "type": "Point", "coordinates": [ -4.236995202318425, 56.536034708837889 ] } },
{ "type": "Feature", "properties": { "Number": 145, "Name": "Beinn Heasgarnich [Beinn Sheasgarnaich]", "Classifica": "Ma,M,Mur", "Metres": 1078.0, "Feet": 3537, "Grid Ref": "NN413383", "Xcoord": 241381, "Ycoord": 738338, "Latitude": 56.510263, "Longitude": -4.579202, "Viewable": 1004.4 }, "geometry": { "type": "Point", "coordinates": [ -4.579212071225244, 56.51027446945659 ] } },
{ "type": "Feature", "properties": { "Number": 146, "Name": "Meall Corranaich", "Classifica": "Ma,M,Mur", "Metres": 1069.0, "Feet": 3507, "Grid Ref": "NN615410", "Xcoord": 261543, "Ycoord": 741036, "Latitude": 56.54085, "Longitude": -4.253317, "Viewable": 1037.77 }, "geometry": { "type": "Point", "coordinates": [ -4.253318415840341, 56.540862054936831 ] } },
{ "type": "Feature", "properties": { "Number": 148, "Name": "Creag Mhor", "Classifica": "Ma,M,Mur", "Metres": 1047.0, "Feet": 3435, "Grid Ref": "NN391361", "Xcoord": 239149, "Ycoord": 736111, "Latitude": 56.489518, "Longitude": -4.614054, "Viewable": 747.97 }, "geometry": { "type": "Point", "coordinates": [ -4.614064052174806, 56.489530160021879 ] } },
{ "type": "Feature", "properties": { "Number": 150, "Name": "Meall Ghaordaidh", "Classifica": "Ma,M,Mur", "Metres": 1039.0, "Feet": 3409, "Grid Ref": "NN514397", "Xcoord": 251443, "Ycoord": 739704, "Latitude": 56.52581, "Longitude": -4.416638, "Viewable": 961.75 }, "geometry": { "type": "Point", "coordinates": [ -4.416652099640396, 56.525821187234897 ] } },
{ "type": "Feature", "properties": { "Number": 152, "Name": "Ben Challum [Beinn Challuim]", "Classifica": "Ma,M,Mur", "Metres": 1025.0, "Feet": 3363, "Grid Ref": "NN386322", "Xcoord": 238684, "Ycoord": 732233, "Latitude": 56.454555, "Longitude": -4.619199, "Viewable": 830.36 }, "geometry": { "type": "Point", "coordinates": [ -4.619208155609058, 56.454567612188477 ] } },
{ "type": "Feature", "properties": { "Number": 154, "Name": "Meall Greigh", "Classifica": "Ma,M,Mur", "Metres": 1001.0, "Feet": 3284, "Grid Ref": "NN674438", "Xcoord": 267401, "Ycoord": 743808, "Latitude": 56.567426, "Longitude": -4.159543, "Viewable": 702.0 }, "geometry": { "type": "Point", "coordinates": [ -4.159546000467555, 56.567437701653247 ] } },
{ "type": "Feature", "properties": { "Number": 163, "Name": "Meall a'Choire Leith", "Classifica": "Ma,M,Mur", "Metres": 926.0, "Feet": 3038, "Grid Ref": "NN612439", "Xcoord": 261200, "Ycoord": 743900, "Latitude": 56.566459, "Longitude": -4.260415, "Viewable": 235.4 }, "geometry": { "type": "Point", "coordinates": [ -4.260424568714782, 56.56647061462904 ] } },
{ "type": "Feature", "properties": { "Number": 233, "Name": "Meall a'Bhuiridh", "Classifica": "Ma,M,Mur", "Metres": 1108.0, "Feet": 3635, "Grid Ref": "NN250503", "Xcoord": 225064, "Ycoord": 750351, "Latitude": 56.612262, "Longitude": -4.852114, "Viewable": 2067.61 }, "geometry": { "type": "Point", "coordinates": [ -4.85212015905547, 56.612280070453025 ] } },
{ "type": "Feature", "properties": { "Number": 237, "Name": "Stob Ghabhar", "Classifica": "Ma,M,Mur", "Metres": 1090.0, "Feet": 3576, "Grid Ref": "NN230455", "Xcoord": 223016, "Ycoord": 745514, "Latitude": 56.568093, "Longitude": -4.882114, "Viewable": 554.06 }, "geometry": { "type": "Point", "coordinates": [ -4.882136027082328, 56.568111493494541 ] } },
{ "type": "Feature", "properties": { "Number": 244, "Name": "Stob Diamh", "Classifica": "Hu,M,Mur", "Metres": 998.0, "Feet": 3274, "Grid Ref": "NN094308", "Xcoord": 209478, "Ycoord": 730852, "Latitude": 56.431271, "Longitude": -5.091379, "Viewable": 1354.9 }, "geometry": { "type": "Point", "coordinates": [ -5.091394615857054, 56.431282837656511 ] } },
{ "type": "Feature", "properties": { "Number": 249, "Name": "Beinn Eunaich", "Classifica": "Ma,M,Mur", "Metres": 989.0, "Feet": 3245, "Grid Ref": "NN135328", "Xcoord": 213561, "Ycoord": 732799, "Latitude": 56.45037, "Longitude": -5.026656, "Viewable": 1141.35 }, "geometry": { "type": "Point", "coordinates": [ -5.026673153660358, 56.450381176917283 ] } },
{ "type": "Feature", "properties": { "Number": 251, "Name": "Beinn a'Chochuill", "Classifica": "Ma,M,Mur", "Metres": 980.0, "Feet": 3215, "Grid Ref": "NN109328", "Xcoord": 210978, "Ycoord": 732847, "Latitude": 56.449772, "Longitude": -5.068535, "Viewable": 1021.65 }, "geometry": { "type": "Point", "coordinates": [ -5.068550989443159, 56.449783497157711 ] } },
{ "type": "Feature", "properties": { "Number": 254, "Name": "Beinn nan Aighenan", "Classifica": "Ma,M,Mur", "Metres": 960.0, "Feet": 3150, "Grid Ref": "NN148405", "Xcoord": 214852, "Ycoord": 740528, "Latitude": 56.520221, "Longitude": -5.011233, "Viewable": 595.73 }, "geometry": { "type": "Point", "coordinates": [ -5.011250872178819, 56.52023114844954 ] } },
{ "type": "Feature", "properties": { "Number": 255, "Name": "Stob a'Choire Odhair", "Classifica": "Ma,M,Mur", "Metres": 945.0, "Feet": 3100, "Grid Ref": "NN257459", "Xcoord": 225732, "Ycoord": 745982, "Latitude": 56.573309, "Longitude": -4.838285, "Viewable": 1287.03 }, "geometry": { "type": "Point", "coordinates": [ -4.838307959394458, 56.573326914702086 ] } },
{ "type": "Feature", "properties": { "Number": 345, "Name": "Ben Alder", "Classifica": "Ma,M,Mur", "Metres": 1148.0, "Feet": 3766, "Grid Ref": "NN496718", "Xcoord": 249614, "Ycoord": 771854, "Latitude": 56.813786, "Longitude": -4.465122, "Viewable": 2082.27 }, "geometry": { "type": "Point", "coordinates": [ -4.465137117274049, 56.813800128859604 ] } },
{ "type": "Feature", "properties": { "Number": 349, "Name": "Beinn a'Chlachair", "Classifica": "Ma,M,Mur", "Metres": 1087.0, "Feet": 3566, "Grid Ref": "NN471781", "Xcoord": 247122, "Ycoord": 778154, "Latitude": 56.869516, "Longitude": -4.509683, "Viewable": 405.57 }, "geometry": { "type": "Point", "coordinates": [ -4.509698424369988, 56.869529037504861 ] } },
{ "type": "Feature", "properties": { "Number": 350, "Name": "Geal Charn", "Classifica": "Ma,M,Mur", "Metres": 1049.0, "Feet": 3442, "Grid Ref": "NN504811", "Xcoord": 250432, "Ycoord": 781181, "Latitude": 56.897763, "Longitude": -4.457236, "Viewable": 318.32 }, "geometry": { "type": "Point", "coordinates": [ -4.457235922272134, 56.897775470682362 ] } },
{ "type": "Feature", "properties": { "Number": 352, "Name": "Carn Dearg", "Classifica": "Ma,M,Mur", "Metres": 1034.0, "Feet": 3392, "Grid Ref": "NN504764", "Xcoord": 250417, "Ycoord": 776445, "Latitude": 56.855251, "Longitude": -4.454693, "Viewable": 294.08 }, "geometry": { "type": "Point", "coordinates": [ -4.454692929441177, 56.855264364855863 ] } },
{ "type": "Feature", "properties": { "Number": 354, "Name": "Beinn Bheoil", "Classifica": "Ma,M,Mur", "Metres": 1019.0, "Feet": 3343, "Grid Ref": "NN517717", "Xcoord": 251716, "Ycoord": 771723, "Latitude": 56.813285, "Longitude": -4.430663, "Viewable": 596.92 }, "geometry": { "type": "Point", "coordinates": [ -4.430662846884802, 56.81329941288255 ] } },
{ "type": "Feature", "properties": { "Number": 383, "Name": "Beinn Udlamain", "Classifica": "Ma,M,Mur", "Metres": 1011.0, "Feet": 3317, "Grid Ref": "NN579739", "Xcoord": 257949, "Ycoord": 773977, "Latitude": 56.835463, "Longitude": -4.329912, "Viewable": 595.24 }, "geometry": { "type": "Point", "coordinates": [ -4.329914080025146, 56.835477368553079 ] } },
{ "type": "Feature", "properties": { "Number": 384, "Name": "Sgairneach Mhor", "Classifica": "Ma,M,Mur", "Metres": 991.0, "Feet": 3251, "Grid Ref": "NN598731", "Xcoord": 259882, "Ycoord": 773128, "Latitude": 56.828429, "Longitude": -4.297791, "Viewable": 777.91 }, "geometry": { "type": "Point", "coordinates": [ -4.297793226574294, 56.828443554831217 ] } },
{ "type": "Feature", "properties": { "Number": 388, "Name": "Meall Chuaich", "Classifica": "Ma,M,Mur", "Metres": 951.0, "Feet": 3120, "Grid Ref": "NN716878", "Xcoord": 271646, "Ycoord": 787832, "Latitude": 56.963832, "Longitude": -4.1126, "Viewable": 672.97 }, "geometry": { "type": "Point", "coordinates": [ -4.112607676588073, 56.963843983786262 ] } },
{ "type": "Feature", "properties": { "Number": 392, "Name": "Geal-charn", "Classifica": "Ma,M,Mur", "Metres": 917.1, "Feet": 3009, "Grid Ref": "NN596782", "Xcoord": 259644, "Ycoord": 778261, "Latitude": 56.874434, "Longitude": -4.304511, "Viewable": 262.07 }, "geometry": { "type": "Point", "coordinates": [ -4.30452180119771, 56.8744464316784 ] } },
{ "type": "Feature", "properties": { "Number": 406, "Name": "Beinn Dearg", "Classifica": "Ma,M,Mur", "Metres": 1008.0, "Feet": 3307, "Grid Ref": "NN852777", "Xcoord": 285290, "Ycoord": 777785, "Latitude": 56.87721, "Longitude": -3.88381, "Viewable": 737.51 }, "geometry": { "type": "Point", "coordinates": [ -3.88380534041963, 56.877224771395241 ] } },
{ "type": "Feature", "properties": { "Number": 407, "Name": "An Sgarsoch", "Classifica": "Ma,M,Mur", "Metres": 1006.0, "Feet": 3301, "Grid Ref": "NN933836", "Xcoord": 293333, "Ycoord": 783666, "Latitude": 56.931937, "Longitude": -3.754384, "Viewable": 557.75 }, "geometry": { "type": "Point", "coordinates": [ -3.75438221530339, 56.931951034660415 ] } },
{ "type": "Feature", "properties": { "Number": 409, "Name": "Carn a'Chlamain", "Classifica": "Ma,M,Mur", "Metres": 963.0, "Feet": 3159, "Grid Ref": "NN915758", "Xcoord": 291590, "Ycoord": 775807, "Latitude": 56.860965, "Longitude": -3.779651, "Viewable": 736.46 }, "geometry": { "type": "Point", "coordinates": [ -3.779647869429781, 56.860979812633659 ] } },
{ "type": "Feature", "properties": { "Number": 422, "Name": "Beinn a'Ghlo - Braigh Coire Chruinn-bhalgain", "Classifica": "Ma,M,Mur", "Metres": 1070.0, "Feet": 3510, "Grid Ref": "NN945724", "Xcoord": 294565, "Ycoord": 772411, "Latitude": 56.831156, "Longitude": -3.729475, "Viewable": 1692.16 }, "geometry": { "type": "Point", "coordinates": [ -3.729473194694906, 56.831171530904811 ] } },
{ "type": "Feature", "properties": { "Number": 425, "Name": "Beinn Iutharn Mhor", "Classifica": "Ma,M,Mur", "Metres": 1045.0, "Feet": 3428, "Grid Ref": "NO045792", "Xcoord": 304566, "Ycoord": 779280, "Latitude": 56.895003, "Longitude": -3.56823, "Viewable": 999.33 }, "geometry": { "type": "Point", "coordinates": [ -3.568231422071947, 56.89501814414416 ] } },
{ "type": "Feature", "properties": { "Number": 426, "Name": "Carn an Righ", "Classifica": "Ma,M,Mur", "Metres": 1029.0, "Feet": 3376, "Grid Ref": "NO028772", "Xcoord": 302871, "Ycoord": 777266, "Latitude": 56.876565, "Longitude": -3.595272, "Viewable": 1126.49 }, "geometry": { "type": "Point", "coordinates": [ -3.595272772876817, 56.876580400801124 ] } },
{ "type": "Feature", "properties": { "Number": 457, "Name": "Lochnagar - Cac Carn Beag", "Classifica": "Ma,M,Mur", "Metres": 1155.0, "Feet": 3789, "Grid Ref": "NO243861", "Xcoord": 324373, "Ycoord": 786139, "Latitude": 56.960263, "Longitude": -3.245244, "Viewable": 4178.17 }, "geometry": { "type": "Point", "coordinates": [ -3.245236420830211, 56.960277441300491 ] } },
{ "type": "Feature", "properties": { "Number": 461, "Name": "Glas Maol", "Classifica": "Ma,M,Mur,CoH,CoU", "Metres": 1068.0, "Feet": 3504, "Grid Ref": "NO166765", "Xcoord": 316699, "Ycoord": 776577, "Latitude": 56.873068, "Longitude": -3.368237, "Viewable": 1654.25 }, "geometry": { "type": "Point", "coordinates": [ -3.368242306779357, 56.873083554161347 ] } },
{ "type": "Feature", "properties": { "Number": 518, "Name": "Ben Macdui [Beinn Macduibh]", "Classifica": "Ma,M,Mur,CoH,CoU,CoA", "Metres": 1309.0, "Feet": 4295, "Grid Ref": "NN988989", "Xcoord": 298899, "Ycoord": 798943, "Latitude": 57.070368, "Longitude": -3.669099, "Viewable": 4570.33 }, "geometry": { "type": "Point", "coordinates": [ -3.669099512465734, 57.070379220462421 ] } },
{ "type": "Feature", "properties": { "Number": 523, "Name": "Sgor an Lochain Uaine", "Classifica": "Hu,M,Mur", "Metres": 1258.0, "Feet": 4127, "Grid Ref": "NN954976", "Xcoord": 295429, "Ycoord": 797694, "Latitude": 57.058378, "Longitude": -3.725781, "Viewable": 1793.45 }, "geometry": { "type": "Point", "coordinates": [ -3.725780773743956, 57.058389151684217 ] } },
{ "type": "Feature", "properties": { "Number": 538, "Name": "Beinn Bhrotain", "Classifica": "Ma,M,Mur", "Metres": 1157.0, "Feet": 3796, "Grid Ref": "NN954922", "Xcoord": 295412, "Ycoord": 792292, "Latitude": 57.009868, "Longitude": -3.723813, "Viewable": 1633.68 }, "geometry": { "type": "Point", "coordinates": [ -3.723812806956967, 57.00988020568748 ] } },
{ "type": "Feature", "properties": { "Number": 549, "Name": "Monadh Mor", "Classifica": "Hu,M,Mur", "Metres": 1113.0, "Feet": 3652, "Grid Ref": "NN938942", "Xcoord": 293864, "Ycoord": 794216, "Latitude": 57.02679, "Longitude": -3.750102, "Viewable": 1710.43 }, "geometry": { "type": "Point", "coordinates": [ -3.750101030355451, 57.026802294245719 ] } },
{ "type": "Feature", "properties": { "Number": 567, "Name": "Carn a'Mhaim", "Classifica": "Ma,M,Mur", "Metres": 1037.0, "Feet": 3402, "Grid Ref": "NN994951", "Xcoord": 299458, "Ycoord": 795147, "Latitude": 57.036404, "Longitude": -3.658363, "Viewable": 282.34 }, "geometry": { "type": "Point", "coordinates": [ -3.658363655517496, 57.036415959793985 ] } },
{ "type": "Feature", "properties": { "Number": 571, "Name": "Mullach Clach a'Bhlair", "Classifica": "Hu,M,Mur", "Metres": 1019.0, "Feet": 3343, "Grid Ref": "NN882927", "Xcoord": 288285, "Ycoord": 792701, "Latitude": 57.01187, "Longitude": -3.841287, "Viewable": 678.2 }, "geometry": { "type": "Point", "coordinates": [ -3.841283450325847, 57.011881869137305 ] } },
{ "type": "Feature", "properties": { "Number": 621, "Name": "Carn Dearg", "Classifica": "Ma,M,Mur", "Metres": 945.0, "Feet": 3100, "Grid Ref": "NH635024", "Xcoord": 263569, "Ycoord": 802399, "Latitude": 57.09227, "Longitude": -4.25323, "Viewable": 408.7 }, "geometry": { "type": "Point", "coordinates": [ -4.253235872154809, 57.092288130695664 ] } },
{ "type": "Feature", "properties": { "Number": 623, "Name": "A'Chailleach", "Classifica": "Hu,M,Mur", "Metres": 930.0, "Feet": 3051, "Grid Ref": "NH681041", "Xcoord": 268109, "Ycoord": 804177, "Latitude": 57.109554, "Longitude": -4.179301, "Viewable": 511.57 }, "geometry": { "type": "Point", "coordinates": [ -4.179309096305816, 57.109572461021109 ] } },
{ "type": "Feature", "properties": { "Number": 626, "Name": "Carn Sgulain", "Classifica": "M,Mur", "Metres": 920.0, "Feet": 3018, "Grid Ref": "NH682058", "Xcoord": 268299, "Ycoord": 805814, "Latitude": 57.124304, "Longitude": -4.177029, "Viewable": 751.7 }, "geometry": { "type": "Point", "coordinates": [ -4.177036814437611, 57.124321566980129 ] } },
{ "type": "Feature", "properties": { "Number": 658, "Name": "Creag Meagaidh", "Classifica": "Ma,M,Mur", "Metres": 1128.0, "Feet": 3701, "Grid Ref": "NN418875", "Xcoord": 241840, "Ycoord": 787549, "Latitude": 56.952051, "Longitude": -4.602102, "Viewable": 1986.23 }, "geometry": { "type": "Point", "coordinates": [ -4.602116508723091, 56.952070584197493 ] } },
{ "type": "Feature", "properties": { "Number": 663, "Name": "Beinn a'Chaorainn", "Classifica": "Ma,M,Mur", "Metres": 1052.0, "Feet": 3451, "Grid Ref": "NN386850", "Xcoord": 238606, "Ycoord": 785062, "Latitude": 56.928625, "Longitude": -4.653627, "Viewable": 154.92 }, "geometry": { "type": "Point", "coordinates": [ -4.65363965782816, 56.928636139923711 ] } },
{ "type": "Feature", "properties": { "Number": 668, "Name": "Carn Liath", "Classifica": "M,Mur", "Metres": 1006.0, "Feet": 3301, "Grid Ref": "NN472903", "Xcoord": 247200, "Ycoord": 790300, "Latitude": 56.978546, "Longitude": -4.515741, "Viewable": 389.74 }, "geometry": { "type": "Point", "coordinates": [ -4.515749107151332, 56.978561325611771 ] } }
]
}
