{
"type": "FeatureCollection",
"crs": { "type": "name", "properties": { "name": "urn:ogc:def:crs:OGC:1.3:CRS84" } },
                                                                                
"features": [
{ "type": "Feature", "properties": { "Number": 26, "Name": "Ben More", "Classifica": "Ma,M,Mur,CoU,CoA", "Metres": 1174.0, "Feet": 3852, "Grid Ref": "NN432244", "Xcoord": 243275, "Ycoord": 724417, "Latitude": 56.385952, "Longitude": -4.540103, "Viewable": 5395.04 }, "geometry": { "type": "Point", "coordinates": [ -4.540113304326504, 56.385966153011587 ] } },
{ "type": "Feature", "properties": { "Number": 27, "Name": "Stob Binnein", "Classifica": "Ma,M,Mur", "Metres": 1165.0, "Feet": 3822, "Grid Ref": "NN434227", "Xcoord": 243481, "Ycoord": 722714, "Latitude": 56.370735, "Longitude": -4.535754, "Viewable": 5454.05 }, "geometry": { "type": "Point", "coordinates": [ -4.535764148329166, 56.3707494599198 ] } },
{ "type": "Feature", "properties": { "Number": 30, "Name": "Cruach Ardrain", "Classifica": "Ma,M,Mur", "Metres": 1046.0, "Feet": 3432, "Grid Ref": "NN409212", "Xcoord": 240927, "Ycoord": 721215, "Latitude": 56.356429, "Longitude": -4.576151, "Viewable": 1327.33 }, "geometry": { "type": "Point", "coordinates": [ -4.576160402591344, 56.356443613961282 ] } },
{ "type": "Feature", "properties": { "Number": 31, "Name": "An Caisteal", "Classifica": "Ma,M,Mur", "Metres": 995.0, "Feet": 3264, "Grid Ref": "NN378193", "Xcoord": 237873, "Ycoord": 719345, "Latitude": 56.338618, "Longitude": -4.62437, "Viewable": 1717.21 }, "geometry": { "type": "Point", "coordinates": [ -4.624377236134579, 56.338624251970657 ] } },
{ "type": "Feature", "properties": { "Number": 32, "Name": "Ben Lomond", "Classifica": "Ma,M,Mur,CoH", "Metres": 974.0, "Feet": 3196, "Grid Ref": "NN367028", "Xcoord": 236703, "Ycoord": 702866, "Latitude": 56.190319, "Longitude": -4.633075, "Viewable": 2750.61 }, "geometry": { "type": "Point", "coordinates": [ -4.63309783142891, 56.190327102826281 ] } },
{ "type": "Feature", "properties": { "Number": 38, "Name": "Beinn Chabhair", "Classifica": "Ma,M,Mur", "Metres": 933.0, "Feet": 3061, "Grid Ref": "NN367179", "Xcoord": 236758, "Ycoord": 717968, "Latitude": 56.325877, "Longitude": -4.641532, "Viewable": 1289.78 }, "geometry": { "type": "Point", "coordinates": [ -4.641538972349795, 56.325883066484238 ] } },
{ "type": "Feature", "properties": { "Number": 65, "Name": "Ben Lui [Beinn Laoigh]", "Classifica": "Ma,M,Mur", "Metres": 1130.0, "Feet": 3707, "Grid Ref": "NN266263", "Xcoord": 226635, "Ycoord": 726297, "Latitude": 56.397013, "Longitude": -4.81051, "Viewable": 3782.59 }, "geometry": { "type": "Point", "coordinates": [ -4.81053058075227, 56.39702582631709 ] } },
{ "type": "Feature", "properties": { "Number": 68, "Name": "Beinn Ime", "Classifica": "Ma,M,Mur", "Metres": 1011.0, "Feet": 3317, "Grid Ref": "NN254084", "Xcoord": 225494, "Ycoord": 708491, "Latitude": 56.23682, "Longitude": -4.817175, "Viewable": 1774.61 }, "geometry": { "type": "Point", "coordinates": [ -4.817193927797842, 56.236827174716026 ] } },
{ "type": "Feature", "properties": { "Number": 69, "Name": "Beinn Dubhchraig", "Classifica": "Ma,M,Mur", "Metres": 978.0, "Feet": 3209, "Grid Ref": "NN307254", "Xcoord": 230762, "Ycoord": 725494, "Latitude": 56.391303, "Longitude": -4.74321, "Viewable": 588.08 }, "geometry": { "type": "Point", "coordinates": [ -4.743232250358528, 56.391316270580418 ] } },
{ "type": "Feature", "properties": { "Number": 70, "Name": "Beinn Bhuidhe", "Classifica": "Ma,M,Mur", "Metres": 948.0, "Feet": 3110, "Grid Ref": "NN203187", "Xcoord": 220369, "Ycoord": 718722, "Latitude": 56.326704, "Longitude": -4.90671, "Viewable": 1380.77 }, "geometry": { "type": "Point", "coordinates": [ -4.906728470563254, 56.326718033585649 ] } },
{ "type": "Feature", "properties": { "Number": 71, "Name": "Ben Vorlich", "Classifica": "Ma,M,Mur,CoH", "Metres": 943.0, "Feet": 3094, "Grid Ref": "NN295124", "Xcoord": 229509, "Ycoord": 712475, "Latitude": 56.27403, "Longitude": -4.755047, "Viewable": 1094.11 }, "geometry": { "type": "Point", "coordinates": [ -4.755067535252079, 56.274036411876125 ] } },
{ "type": "Feature", "properties": { "Number": 75, "Name": "Beinn a'Chleibh", "Classifica": "Hu,M,Mur,sMa", "Metres": 916.3, "Feet": 3006, "Grid Ref": "NN250256", "Xcoord": 225054, "Ycoord": 725606, "Latitude": 56.390231, "Longitude": -4.835634, "Viewable": 674.28 }, "geometry": { "type": "Point", "coordinates": [ -4.835650055329889, 56.390242652383144 ] } },
{ "type": "Feature", "properties": { "Number": 76, "Name": "Ben Vane", "Classifica": "Ma,M,Mur", "Metres": 915.76, "Feet": 3004, "Grid Ref": "NN277098", "Xcoord": 227754, "Ycoord": 709843, "Latitude": 56.249777, "Longitude": -4.781638, "Viewable": 1686.11 }, "geometry": { "type": "Point", "coordinates": [ -4.781658370233979, 56.249784025496517 ] } },
{ "type": "Feature", "properties": { "Number": 104, "Name": "Beinn a'Chreachain", "Classifica": "Ma,M,Mur", "Metres": 1081.0, "Feet": 3547, "Grid Ref": "NN373440", "Xcoord": 237389, "Ycoord": 744075, "Latitude": 56.560387, "Longitude": -4.647589, "Viewable": 1044.86 }, "geometry": { "type": "Point", "coordinates": [ -4.647598463275189, 56.560397108836888 ] } },
{ "type": "Feature", "properties": { "Number": 105, "Name": "Beinn Dorain", "Classifica": "Ma,M,Mur", "Metres": 1076.0, "Feet": 3530, "Grid Ref": "NN325378", "Xcoord": 232563, "Ycoord": 737875, "Latitude": 56.503053, "Longitude": -4.722024, "Viewable": 1045.8 }, "geometry": { "type": "Point", "coordinates": [ -4.722031289863984, 56.50306380306229 ] } },
{ "type": "Feature", "properties": { "Number": 109, "Name": "Carn Gorm", "Classifica": "Ma,M,Mur", "Metres": 1029.0, "Feet": 3376, "Grid Ref": "NN635500", "Xcoord": 263500, "Ycoord": 750000, "Latitude": 56.621893, "Longitude": -4.226238, "Viewable": 619.48 }, "geometry": { "type": "Point", "coordinates": [ -4.226246002261775, 56.621905087704469 ] } },
{ "type": "Feature", "properties": { "Number": 112, "Name": "Beinn an Dothaidh", "Classifica": "Ma,M,Mur", "Metres": 1004.0, "Feet": 3294, "Grid Ref": "NN331408", "Xcoord": 233100, "Ycoord": 740800, "Latitude": 56.529489, "Longitude": -4.715181, "Viewable": 377.06 }, "geometry": { "type": "Point", "coordinates": [ -4.715195049676126, 56.529503044917327 ] } },
{ "type": "Feature", "properties": { "Number": 122, "Name": "Beinn Mhanach", "Classifica": "Ma,M,Mur", "Metres": 953.0, "Feet": 3127, "Grid Ref": "NN373411", "Xcoord": 237369, "Ycoord": 741138, "Latitude": 56.534022, "Longitude": -4.646074, "Viewable": 462.03 }, "geometry": { "type": "Point", "coordinates": [ -4.646082759318204, 56.534032709240158 ] } },
{ "type": "Feature", "properties": { "Number": 141, "Name": "Ben Lawers", "Classifica": "Ma,M,Mur,CoH,CoU,CoA", "Metres": 1214.0, "Feet": 3983, "Grid Ref": "NN635414", "Xcoord": 263551, "Ycoord": 741423, "Latitude": 56.544912, "Longitude": -4.220892, "Viewable": 5284.86 }, "geometry": { "type": "Point", "coordinates": [ -4.220893941012826, 56.544923728277958 ] } },
{ "type": "Feature", "properties": { "Number": 142, "Name": "An Stuc", "Classifica": "Ma=,Hu,M,Mur", "Metres": 1118.0, "Feet": 3668, "Grid Ref": "NN638430", "Xcoord": 263875, "Ycoord": 743089, "Latitude": 56.559962, "Longitude": -4.216501, "Viewable": 3238.06 }, "geometry": { "type": "Point", "coordinates": [ -4.216503123509484, 56.55997366235917 ] } },
{ "type": "Feature", "properties": { "Number": 143, "Name": "Meall Garbh", "Classifica": "Ma,M,Mur", "Metres": 1118.0, "Feet": 3668, "Grid Ref": "NN644437", "Xcoord": 264437, "Ycoord": 743759, "Latitude": 56.56614, "Longitude": -4.207715, "Viewable": 3439.07 }, "geometry": { "type": "Point", "coordinates": [ -4.20771694560595, 56.566151003705386 ] } },
{ "type": "Feature", "properties": { "Number": 145, "Name": "Beinn Heasgarnich [Beinn Sheasgarnaich]", "Classifica": "Ma,M,Mur", "Metres": 1078.0, "Feet": 3537, "Grid Ref": "NN413383", "Xcoord": 241381, "Ycoord": 738338, "Latitude": 56.510263, "Longitude": -4.579202, "Viewable": 1004.4 }, "geometry": { "type": "Point", "coordinates": [ -4.579212071225244, 56.51027446945659 ] } },
{ "type": "Feature", "properties": { "Number": 148, "Name": "Creag Mhor", "Classifica": "Ma,M,Mur", "Metres": 1047.0, "Feet": 3435, "Grid Ref": "NN391361", "Xcoord": 239149, "Ycoord": 736111, "Latitude": 56.489518, "Longitude": -4.614054, "Viewable": 747.97 }, "geometry": { "type": "Point", "coordinates": [ -4.614064052174806, 56.489530160021879 ] } },
{ "type": "Feature", "properties": { "Number": 194, "Name": "Stob Coire Sgreamhach", "Classifica": "Hu,M,Mur", "Metres": 1072.0, "Feet": 3517, "Grid Ref": "NN154536", "Xcoord": 215487, "Ycoord": 753664, "Latitude": 56.638314, "Longitude": -5.010284, "Viewable": 845.48 }, "geometry": { "type": "Point", "coordinates": [ -5.010303435041324, 56.638329838759503 ] } },
{ "type": "Feature", "properties": { "Number": 195, "Name": "Beinn a'Bheithir - Sgorr Dhearg", "Classifica": "Ma,M,Mur", "Metres": 1024.0, "Feet": 3360, "Grid Ref": "NN056558", "Xcoord": 205682, "Ycoord": 755846, "Latitude": 56.65392, "Longitude": -5.171543, "Viewable": 1009.01 }, "geometry": { "type": "Point", "coordinates": [ -5.171558924244988, 56.653936142474116 ] } },
{ "type": "Feature", "properties": { "Number": 196, "Name": "Buachaille Etive Mor - Stob Dearg", "Classifica": "Ma,M,Mur", "Metres": 1022.0, "Feet": 3353, "Grid Ref": "NN223543", "Xcoord": 222362, "Ycoord": 754320, "Latitude": 56.646858, "Longitude": -4.898794, "Viewable": 777.53 }, "geometry": { "type": "Point", "coordinates": [ -4.898816139709804, 56.646874627501717 ] } },
{ "type": "Feature", "properties": { "Number": 198, "Name": "Beinn a'Bheithir - Sgorr Dhonuill", "Classifica": "Ma,M,Mur", "Metres": 1001.0, "Feet": 3284, "Grid Ref": "NN040555", "Xcoord": 204057, "Ycoord": 755539, "Latitude": 56.650489, "Longitude": -5.197772, "Viewable": 862.62 }, "geometry": { "type": "Point", "coordinates": [ -5.197787973770389, 56.650504865166425 ] } },
{ "type": "Feature", "properties": { "Number": 199, "Name": "Sgor na h-Ulaidh", "Classifica": "Ma,M,Mur", "Metres": 994.0, "Feet": 3261, "Grid Ref": "NN111518", "Xcoord": 211116, "Ycoord": 751797, "Latitude": 56.619822, "Longitude": -5.080078, "Viewable": 575.79 }, "geometry": { "type": "Point", "coordinates": [ -5.080096307242775, 56.619838583393971 ] } },
{ "type": "Feature", "properties": { "Number": 201, "Name": "Beinn Fhionnlaidh", "Classifica": "Ma,M,Mur", "Metres": 959.0, "Feet": 3146, "Grid Ref": "NN095497", "Xcoord": 209498, "Ycoord": 749773, "Latitude": 56.60101, "Longitude": -5.104914, "Viewable": 735.31 }, "geometry": { "type": "Point", "coordinates": [ -5.104931589549937, 56.601027095744641 ] } },
{ "type": "Feature", "properties": { "Number": 202, "Name": "Buachaille Etive Beag - Stob Dubh", "Classifica": "Ma,M,Mur", "Metres": 958.0, "Feet": 3143, "Grid Ref": "NN179535", "Xcoord": 217906, "Ycoord": 753552, "Latitude": 56.638256, "Longitude": -4.97082, "Viewable": 264.64 }, "geometry": { "type": "Point", "coordinates": [ -4.9708402809518, 56.638272062668577 ] } },
{ "type": "Feature", "properties": { "Number": 203, "Name": "Buachaille Etive Mor - Stob na Broige", "Classifica": "Hu,M,Mur", "Metres": 956.0, "Feet": 3136, "Grid Ref": "NN190525", "Xcoord": 219070, "Ycoord": 752564, "Latitude": 56.629843, "Longitude": -4.951175, "Viewable": 569.02 }, "geometry": { "type": "Point", "coordinates": [ -4.951195988833401, 56.629859158153067 ] } },
{ "type": "Feature", "properties": { "Number": 207, "Name": "Beinn Sgulaird", "Classifica": "Ma,M,Mur", "Metres": 937.0, "Feet": 3074, "Grid Ref": "NN053460", "Xcoord": 205304, "Ycoord": 746089, "Latitude": 56.566241, "Longitude": -5.17035, "Viewable": 340.75 }, "geometry": { "type": "Point", "coordinates": [ -5.170365649008637, 56.566258800016826 ] } },
{ "type": "Feature", "properties": { "Number": 209, "Name": "Buachaille Etive Beag - Stob Coire Raineach", "Classifica": "Ma,M,Mur", "Metres": 925.0, "Feet": 3035, "Grid Ref": "NN191548", "Xcoord": 219132, "Ycoord": 754807, "Latitude": 56.649991, "Longitude": -4.951739, "Viewable": 459.04 }, "geometry": { "type": "Point", "coordinates": [ -4.951759351470444, 56.650006898533121 ] } },
{ "type": "Feature", "properties": { "Number": 232, "Name": "Ben Cruachan", "Classifica": "Ma,M,Mur,CoU,CoA", "Metres": 1126.0, "Feet": 3694, "Grid Ref": "NN069304", "Xcoord": 206965, "Ycoord": 730473, "Latitude": 56.42685, "Longitude": -5.131786, "Viewable": 3851.54 }, "geometry": { "type": "Point", "coordinates": [ -5.131801144890179, 56.426861734335596 ] } },
{ "type": "Feature", "properties": { "Number": 233, "Name": "Meall a'Bhuiridh", "Classifica": "Ma,M,Mur", "Metres": 1108.0, "Feet": 3635, "Grid Ref": "NN250503", "Xcoord": 225064, "Ycoord": 750351, "Latitude": 56.612262, "Longitude": -4.852114, "Viewable": 2067.61 }, "geometry": { "type": "Point", "coordinates": [ -4.85212015905547, 56.612280070453025 ] } },
{ "type": "Feature", "properties": { "Number": 235, "Name": "Creise", "Classifica": "Ma,M,Mur", "Metres": 1100.0, "Feet": 3609, "Grid Ref": "NN238506", "Xcoord": 223857, "Ycoord": 750650, "Latitude": 56.614494, "Longitude": -4.871942, "Viewable": 808.6 }, "geometry": { "type": "Point", "coordinates": [ -4.87196368041109, 56.61451074814989 ] } },
{ "type": "Feature", "properties": { "Number": 238, "Name": "Ben Starav", "Classifica": "Ma,M,Mur", "Metres": 1078.0, "Feet": 3537, "Grid Ref": "NN125427", "Xcoord": 212573, "Ycoord": 742717, "Latitude": 56.538948, "Longitude": -5.049799, "Viewable": 1028.5 }, "geometry": { "type": "Point", "coordinates": [ -5.049816929267415, 56.538966371010453 ] } },
{ "type": "Feature", "properties": { "Number": 244, "Name": "Stob Diamh", "Classifica": "Hu,M,Mur", "Metres": 998.0, "Feet": 3274, "Grid Ref": "NN094308", "Xcoord": 209478, "Ycoord": 730852, "Latitude": 56.431271, "Longitude": -5.091379, "Viewable": 1354.9 }, "geometry": { "type": "Point", "coordinates": [ -5.091394615857054, 56.431282837656511 ] } },
{ "type": "Feature", "properties": { "Number": 245, "Name": "Glas Bheinn Mhor", "Classifica": "Ma,M,Mur", "Metres": 997.0, "Feet": 3271, "Grid Ref": "NN153429", "Xcoord": 215328, "Ycoord": 742982, "Latitude": 56.542416, "Longitude": -5.005251, "Viewable": 515.43 }, "geometry": { "type": "Point", "coordinates": [ -5.005269812082387, 56.5424344622635 ] } },
{ "type": "Feature", "properties": { "Number": 249, "Name": "Beinn Eunaich", "Classifica": "Ma,M,Mur", "Metres": 989.0, "Feet": 3245, "Grid Ref": "NN135328", "Xcoord": 213561, "Ycoord": 732799, "Latitude": 56.45037, "Longitude": -5.026656, "Viewable": 1141.35 }, "geometry": { "type": "Point", "coordinates": [ -5.026673153660358, 56.450381176917283 ] } },
{ "type": "Feature", "properties": { "Number": 251, "Name": "Beinn a'Chochuill", "Classifica": "Ma,M,Mur", "Metres": 980.0, "Feet": 3215, "Grid Ref": "NN109328", "Xcoord": 210978, "Ycoord": 732847, "Latitude": 56.449772, "Longitude": -5.068535, "Viewable": 1021.65 }, "geometry": { "type": "Point", "coordinates": [ -5.068550989443159, 56.449783497157711 ] } },
{ "type": "Feature", "properties": { "Number": 254, "Name": "Beinn nan Aighenan", "Classifica": "Ma,M,Mur", "Metres": 960.0, "Feet": 3150, "Grid Ref": "NN148405", "Xcoord": 214852, "Ycoord": 740528, "Latitude": 56.520221, "Longitude": -5.011233, "Viewable": 595.73 }, "geometry": { "type": "Point", "coordinates": [ -5.011250872178819, 56.52023114844954 ] } },
{ "type": "Feature", "properties": { "Number": 255, "Name": "Stob a'Choire Odhair", "Classifica": "Ma,M,Mur", "Metres": 945.0, "Feet": 3100, "Grid Ref": "NN257459", "Xcoord": 225732, "Ycoord": 745982, "Latitude": 56.573309, "Longitude": -4.838285, "Viewable": 1287.03 }, "geometry": { "type": "Point", "coordinates": [ -4.838307959394458, 56.573326914702086 ] } },
{ "type": "Feature", "properties": { "Number": 258, "Name": "Meall nan Eun", "Classifica": "Ma,M,Mur", "Metres": 928.0, "Feet": 3045, "Grid Ref": "NN192449", "Xcoord": 219246, "Ycoord": 744904, "Latitude": 56.561184, "Longitude": -4.942959, "Viewable": 312.68 }, "geometry": { "type": "Point", "coordinates": [ -4.942979250813648, 56.561202149398611 ] } },
{ "type": "Feature", "properties": { "Number": 278, "Name": "Ben Nevis", "Classifica": "Ma,M,Mur,CoH,CoU,CoA", "Metres": 1344.0, "Feet": 4409, "Grid Ref": "NN166712", "Xcoord": 216676, "Ycoord": 771283, "Latitude": 56.79685, "Longitude": -5.003508, "Viewable": 3454.84 }, "geometry": { "type": "Point", "coordinates": [ -5.003528959242606, 56.796862774329121 ] } },
{ "type": "Feature", "properties": { "Number": 281, "Name": "Aonach Mor", "Classifica": "Hu,M,Mur", "Metres": 1221.0, "Feet": 4006, "Grid Ref": "NN193729", "Xcoord": 219304, "Ycoord": 772961, "Latitude": 56.812932, "Longitude": -4.961744, "Viewable": 2128.06 }, "geometry": { "type": "Point", "coordinates": [ -4.961749311088616, 56.812944718201692 ] } },
{ "type": "Feature", "properties": { "Number": 285, "Name": "Stob Choire Claurigh", "Classifica": "Ma,M,Mur", "Metres": 1177.0, "Feet": 3862, "Grid Ref": "NN262738", "Xcoord": 226196, "Ycoord": 773878, "Latitude": 56.823786, "Longitude": -4.849624, "Viewable": 2114.97 }, "geometry": { "type": "Point", "coordinates": [ -4.84963222209415, 56.823799001967252 ] } },
{ "type": "Feature", "properties": { "Number": 287, "Name": "Binnein Mor", "Classifica": "Ma,M,Mur", "Metres": 1130.0, "Feet": 3707, "Grid Ref": "NN212663", "Xcoord": 221200, "Ycoord": 766300, "Latitude": 56.7539, "Longitude": -4.926063, "Viewable": 606.93 }, "geometry": { "type": "Point", "coordinates": [ -4.926075871750523, 56.753916334241787 ] } },
{ "type": "Feature", "properties": { "Number": 289, "Name": "Stob Coire an Laoigh", "Classifica": "M,Mur", "Metres": 1116.0, "Feet": 3661, "Grid Ref": "NN239725", "Xcoord": 223983, "Ycoord": 772532, "Latitude": 56.810877, "Longitude": -4.884907, "Viewable": 1572.66 }, "geometry": { "type": "Point", "coordinates": [ -4.88491440814614, 56.810890002103996 ] } },
{ "type": "Feature", "properties": { "Number": 301, "Name": "Na Gruagaichean", "Classifica": "M,Mur,sHu", "Metres": 1056.0, "Feet": 3465, "Grid Ref": "NN203652", "Xcoord": 220309, "Ycoord": 765202, "Latitude": 56.743708, "Longitude": -4.939852, "Viewable": 402.14 }, "geometry": { "type": "Point", "coordinates": [ -4.939857208257561, 56.743722750177909 ] } },
{ "type": "Feature", "properties": { "Number": 305, "Name": "Sgurr Eilde Mor", "Classifica": "Ma,M,Mur", "Metres": 1010.0, "Feet": 3314, "Grid Ref": "NN230657", "Xcoord": 223052, "Ycoord": 765792, "Latitude": 56.750051, "Longitude": -4.895471, "Viewable": 473.18 }, "geometry": { "type": "Point", "coordinates": [ -4.895477572987912, 56.750065201284677 ] } },
{ "type": "Feature", "properties": { "Number": 309, "Name": "Stob Ban", "Classifica": "Ma,M,Mur", "Metres": 999.0, "Feet": 3278, "Grid Ref": "NN147654", "Xcoord": 214775, "Ycoord": 765443, "Latitude": 56.743706, "Longitude": -5.03036, "Viewable": 603.66 }, "geometry": { "type": "Point", "coordinates": [ -5.030380075341562, 56.74371967663371 ] } },
{ "type": "Feature", "properties": { "Number": 314, "Name": "Stob Ban", "Classifica": "Ma,M,Mur", "Metres": 977.0, "Feet": 3205, "Grid Ref": "NN266723", "Xcoord": 226668, "Ycoord": 772394, "Latitude": 56.810647, "Longitude": -4.840892, "Viewable": 407.3 }, "geometry": { "type": "Point", "coordinates": [ -4.840900042240325, 56.810660129246294 ] } },
{ "type": "Feature", "properties": { "Number": 351, "Name": "Chno Dearg", "Classifica": "Ma,M,Mur", "Metres": 1046.0, "Feet": 3432, "Grid Ref": "NN377741", "Xcoord": 237741, "Ycoord": 774115, "Latitude": 56.830086, "Longitude": -4.660831, "Viewable": 881.44 }, "geometry": { "type": "Point", "coordinates": [ -4.660842305740955, 56.830098983145518 ] } },
{ "type": "Feature", "properties": { "Number": 356, "Name": "Stob Coire Sgriodain", "Classifica": "M,Mur,sHu", "Metres": 979.0, "Feet": 3212, "Grid Ref": "NN356743", "Xcoord": 235669, "Ycoord": 774380, "Latitude": 56.831736, "Longitude": -4.694917, "Viewable": 653.38 }, "geometry": { "type": "Point", "coordinates": [ -4.694928388028243, 56.831748978559368 ] } },
{ "type": "Feature", "properties": { "Number": 383, "Name": "Beinn Udlamain", "Classifica": "Ma,M,Mur", "Metres": 1011.0, "Feet": 3317, "Grid Ref": "NN579739", "Xcoord": 257949, "Ycoord": 773977, "Latitude": 56.835463, "Longitude": -4.329912, "Viewable": 595.24 }, "geometry": { "type": "Point", "coordinates": [ -4.329914080025146, 56.835477368553079 ] } },
{ "type": "Feature", "properties": { "Number": 384, "Name": "Sgairneach Mhor", "Classifica": "Ma,M,Mur", "Metres": 991.0, "Feet": 3251, "Grid Ref": "NN598731", "Xcoord": 259882, "Ycoord": 773128, "Latitude": 56.828429, "Longitude": -4.297791, "Viewable": 777.91 }, "geometry": { "type": "Point", "coordinates": [ -4.297793226574294, 56.828443554831217 ] } },
{ "type": "Feature", "properties": { "Number": 406, "Name": "Beinn Dearg", "Classifica": "Ma,M,Mur", "Metres": 1008.0, "Feet": 3307, "Grid Ref": "NN852777", "Xcoord": 285290, "Ycoord": 777785, "Latitude": 56.87721, "Longitude": -3.88381, "Viewable": 737.51 }, "geometry": { "type": "Point", "coordinates": [ -3.88380534041963, 56.877224771395241 ] } },
{ "type": "Feature", "properties": { "Number": 408, "Name": "Carn an Fhidhleir [Carn Ealar]", "Classifica": "Ma,M,Mur", "Metres": 994.0, "Feet": 3261, "Grid Ref": "NN904841", "Xcoord": 290470, "Ycoord": 784186, "Latitude": 56.935938, "Longitude": -3.801629, "Viewable": 549.26 }, "geometry": { "type": "Point", "coordinates": [ -3.801626261865756, 56.93595125911412 ] } },
{ "type": "Feature", "properties": { "Number": 409, "Name": "Carn a'Chlamain", "Classifica": "Ma,M,Mur", "Metres": 963.0, "Feet": 3159, "Grid Ref": "NN915758", "Xcoord": 291590, "Ycoord": 775807, "Latitude": 56.860965, "Longitude": -3.779651, "Viewable": 736.46 }, "geometry": { "type": "Point", "coordinates": [ -3.779647869429781, 56.860979812633659 ] } },
{ "type": "Feature", "properties": { "Number": 426, "Name": "Carn an Righ", "Classifica": "Ma,M,Mur", "Metres": 1029.0, "Feet": 3376, "Grid Ref": "NO028772", "Xcoord": 302871, "Ycoord": 777266, "Latitude": 56.876565, "Longitude": -3.595272, "Viewable": 1126.49 }, "geometry": { "type": "Point", "coordinates": [ -3.595272772876817, 56.876580400801124 ] } },
{ "type": "Feature", "properties": { "Number": 518, "Name": "Ben Macdui [Beinn Macduibh]", "Classifica": "Ma,M,Mur,CoH,CoU,CoA", "Metres": 1309.0, "Feet": 4295, "Grid Ref": "NN988989", "Xcoord": 298899, "Ycoord": 798943, "Latitude": 57.070368, "Longitude": -3.669099, "Viewable": 4570.33 }, "geometry": { "type": "Point", "coordinates": [ -3.669099512465734, 57.070379220462421 ] } },
{ "type": "Feature", "properties": { "Number": 521, "Name": "Cairn Toul", "Classifica": "Ma,M,Mur", "Metres": 1291.0, "Feet": 4236, "Grid Ref": "NN963972", "Xcoord": 296329, "Ycoord": 797228, "Latitude": 57.054397, "Longitude": -3.710757, "Viewable": 2574.53 }, "geometry": { "type": "Point", "coordinates": [ -3.710756759669017, 57.054408366486456 ] } },
{ "type": "Feature", "properties": { "Number": 523, "Name": "Sgor an Lochain Uaine", "Classifica": "Hu,M,Mur", "Metres": 1258.0, "Feet": 4127, "Grid Ref": "NN954976", "Xcoord": 295429, "Ycoord": 797694, "Latitude": 57.058378, "Longitude": -3.725781, "Viewable": 1793.45 }, "geometry": { "type": "Point", "coordinates": [ -3.725780773743956, 57.058389151684217 ] } },
{ "type": "Feature", "properties": { "Number": 538, "Name": "Beinn Bhrotain", "Classifica": "Ma,M,Mur", "Metres": 1157.0, "Feet": 3796, "Grid Ref": "NN954922", "Xcoord": 295412, "Ycoord": 792292, "Latitude": 57.009868, "Longitude": -3.723813, "Viewable": 1633.68 }, "geometry": { "type": "Point", "coordinates": [ -3.723812806956967, 57.00988020568748 ] } },
{ "type": "Feature", "properties": { "Number": 539, "Name": "Derry Cairngorm", "Classifica": "Hu,M,Mur,sMa", "Metres": 1155.0, "Feet": 3789, "Grid Ref": "NO017980", "Xcoord": 301734, "Ycoord": 798032, "Latitude": 57.062801, "Longitude": -3.622004, "Viewable": 1496.44 }, "geometry": { "type": "Point", "coordinates": [ -3.622006225533656, 57.062812871535137 ] } },
{ "type": "Feature", "properties": { "Number": 549, "Name": "Monadh Mor", "Classifica": "Hu,M,Mur", "Metres": 1113.0, "Feet": 3652, "Grid Ref": "NN938942", "Xcoord": 293864, "Ycoord": 794216, "Latitude": 57.02679, "Longitude": -3.750102, "Viewable": 1710.43 }, "geometry": { "type": "Point", "coordinates": [ -3.750101030355451, 57.026802294245719 ] } },
{ "type": "Feature", "properties": { "Number": 658, "Name": "Creag Meagaidh", "Classifica": "Ma,M,Mur", "Metres": 1128.0, "Feet": 3701, "Grid Ref": "NN418875", "Xcoord": 241840, "Ycoord": 787549, "Latitude": 56.952051, "Longitude": -4.602102, "Viewable": 1986.23 }, "geometry": { "type": "Point", "coordinates": [ -4.602116508723091, 56.952070584197493 ] } },
{ "type": "Feature", "properties": { "Number": 668, "Name": "Carn Liath", "Classifica": "M,Mur", "Metres": 1006.0, "Feet": 3301, "Grid Ref": "NN472903", "Xcoord": 247200, "Ycoord": 790300, "Latitude": 56.978546, "Longitude": -4.515741, "Viewable": 389.74 }, "geometry": { "type": "Point", "coordinates": [ -4.515749107151332, 56.978561325611771 ] } },
{ "type": "Feature", "properties": { "Number": 684, "Name": "Sgurr a'Mhaoraich", "Classifica": "Ma,M,Mur", "Metres": 1027.0, "Feet": 3369, "Grid Ref": "NG983065", "Xcoord": 198392, "Ycoord": 806549, "Latitude": 57.105562, "Longitude": -5.330483, "Viewable": 745.69 }, "geometry": { "type": "Point", "coordinates": [ -5.330500235468167, 57.105577138489807 ] } },
{ "type": "Feature", "properties": { "Number": 690, "Name": "Sgurr an Lochain", "Classifica": "Hu,M,Mur", "Metres": 1004.0, "Feet": 3294, "Grid Ref": "NH005104", "Xcoord": 200580, "Ycoord": 810421, "Latitude": 57.141232, "Longitude": -5.297527, "Viewable": 628.6 }, "geometry": { "type": "Point", "coordinates": [ -5.29752930314419, 57.141255588766676 ] } },
{ "type": "Feature", "properties": { "Number": 691, "Name": "Spidean Mialach", "Classifica": "Ma,M,Mur", "Metres": 996.0, "Feet": 3268, "Grid Ref": "NH065043", "Xcoord": 206591, "Ycoord": 804307, "Latitude": 57.088973, "Longitude": -5.193631, "Viewable": 751.29 }, "geometry": { "type": "Point", "coordinates": [ -5.193634747772929, 57.088988785001312 ] } },
{ "type": "Feature", "properties": { "Number": 692, "Name": "Druim Shionnach", "Classifica": "Hu,M,Mur", "Metres": 987.0, "Feet": 3238, "Grid Ref": "NH074084", "Xcoord": 207440, "Ycoord": 808483, "Latitude": 57.126785, "Longitude": -5.182857, "Viewable": 543.56 }, "geometry": { "type": "Point", "coordinates": [ -5.182860362688416, 57.12680015973276 ] } },
{ "type": "Feature", "properties": { "Number": 700, "Name": "Creag a'Mhaim", "Classifica": "M,Mur", "Metres": 947.0, "Feet": 3107, "Grid Ref": "NH087077", "Xcoord": 208790, "Ycoord": 807771, "Latitude": 57.120962, "Longitude": -5.160047, "Viewable": 596.92 }, "geometry": { "type": "Point", "coordinates": [ -5.160051627464256, 57.120977554519065 ] } },
{ "type": "Feature", "properties": { "Number": 731, "Name": "Ladhar Bheinn", "Classifica": "Ma,M,Mur", "Metres": 1020.0, "Feet": 3346, "Grid Ref": "NG824039", "Xcoord": 182397, "Ycoord": 803983, "Latitude": 57.075262, "Longitude": -5.591794, "Viewable": 604.9 }, "geometry": { "type": "Point", "coordinates": [ -5.59180641096839, 57.075285515061069 ] } },
{ "type": "Feature", "properties": { "Number": 736, "Name": "Sgurr nan Coireachan", "Classifica": "Ma,M,Mur", "Metres": 953.0, "Feet": 3127, "Grid Ref": "NM933958", "Xcoord": 193308, "Ycoord": 795827, "Latitude": 57.007158, "Longitude": -5.40544, "Viewable": 486.25 }, "geometry": { "type": "Point", "coordinates": [ -5.405454425030401, 57.007174573810467 ] } },
{ "type": "Feature", "properties": { "Number": 737, "Name": "Meall Buidhe", "Classifica": "Ma,M,Mur", "Metres": 946.0, "Feet": 3104, "Grid Ref": "NM849989", "Xcoord": 184901, "Ycoord": 798977, "Latitude": 57.031553, "Longitude": -5.546285, "Viewable": 1011.9 }, "geometry": { "type": "Point", "coordinates": [ -5.546297750605468, 57.031578343192763 ] } },
{ "type": "Feature", "properties": { "Number": 739, "Name": "Luinne Bheinn", "Classifica": "Ma,M,Mur", "Metres": 939.0, "Feet": 3081, "Grid Ref": "NG869007", "Xcoord": 186984, "Ycoord": 800742, "Latitude": 57.048346, "Longitude": -5.513527, "Viewable": 721.34 }, "geometry": { "type": "Point", "coordinates": [ -5.513540504832743, 57.048370256974245 ] } },
{ "type": "Feature", "properties": { "Number": 741, "Name": "Gairich", "Classifica": "Ma,M,Mur", "Metres": 919.0, "Feet": 3015, "Grid Ref": "NN025995", "Xcoord": 202589, "Ycoord": 799581, "Latitude": 57.044888, "Longitude": -5.255844, "Viewable": 461.5 }, "geometry": { "type": "Point", "coordinates": [ -5.255845764915696, 57.044904334909674 ] } },
{ "type": "Feature", "properties": { "Number": 773, "Name": "Gulvain [Gaor Bheinn]", "Classifica": "Ma,M,Mur", "Metres": 987.0, "Feet": 3238, "Grid Ref": "NN002875", "Xcoord": 200267, "Ycoord": 787572, "Latitude": 56.936184, "Longitude": -5.284525, "Viewable": 866.62 }, "geometry": { "type": "Point", "coordinates": [ -5.284541540899108, 56.93620256284256 ] } },
{ "type": "Feature", "properties": { "Number": 776, "Name": "Sgurr nan Coireachan", "Classifica": "Ma,M,Mur", "Metres": 956.0, "Feet": 3136, "Grid Ref": "NM902880", "Xcoord": 190289, "Ycoord": 788013, "Latitude": 56.935728, "Longitude": -5.448568, "Viewable": 804.3 }, "geometry": { "type": "Point", "coordinates": [ -5.448581354506793, 56.935745677922213 ] } },
{ "type": "Feature", "properties": { "Number": 805, "Name": "Sgurr nan Ceathreamhnan", "Classifica": "Ma,M,Mur", "Metres": 1151.0, "Feet": 3776, "Grid Ref": "NH057228", "Xcoord": 205702, "Ycoord": 822850, "Latitude": 57.254902, "Longitude": -5.222731, "Viewable": 1704.29 }, "geometry": { "type": "Point", "coordinates": [ -5.222735447767367, 57.254923228088394 ] } },
{ "type": "Feature", "properties": { "Number": 815, "Name": "Sgurr Fhuaran", "Classifica": "Ma,M,Mur", "Metres": 1067.0, "Feet": 3501, "Grid Ref": "NG978166", "Xcoord": 197847, "Ycoord": 816679, "Latitude": 57.196158, "Longitude": -5.347684, "Viewable": 578.1 }, "geometry": { "type": "Point", "coordinates": [ -5.347685883393633, 57.1961807850534 ] } },
{ "type": "Feature", "properties": { "Number": 825, "Name": "Sgurr na Ciste Duibhe", "Classifica": "Ma,M,Mur", "Metres": 1027.0, "Feet": 3369, "Grid Ref": "NG984149", "Xcoord": 198398, "Ycoord": 814952, "Latitude": 57.180914, "Longitude": -5.337167, "Viewable": 697.45 }, "geometry": { "type": "Point", "coordinates": [ -5.337185016470358, 57.18093619951275 ] } },
{ "type": "Feature", "properties": { "Number": 862, "Name": "A'Chralaig", "Classifica": "Ma,M,Mur", "Metres": 1120.0, "Feet": 3675, "Grid Ref": "NH094148", "Xcoord": 209428, "Ycoord": 814798, "Latitude": 57.184247, "Longitude": -5.154892, "Viewable": 2466.1 }, "geometry": { "type": "Point", "coordinates": [ -5.154897389436341, 57.184270428988732 ] } },
{ "type": "Feature", "properties": { "Number": 863, "Name": "Sgurr nan Conbhairean", "Classifica": "Ma,M,Mur", "Metres": 1109.0, "Feet": 3638, "Grid Ref": "NH129138", "Xcoord": 212987, "Ycoord": 813895, "Latitude": 57.177613, "Longitude": -5.095423, "Viewable": 2040.27 }, "geometry": { "type": "Point", "coordinates": [ -5.095429910164079, 57.177635755371234 ] } },
{ "type": "Feature", "properties": { "Number": 864, "Name": "Mullach Fraoch-choire", "Classifica": "Ma,M,Mur", "Metres": 1102.0, "Feet": 3615, "Grid Ref": "NH094171", "Xcoord": 209489, "Ycoord": 817160, "Latitude": 57.205459, "Longitude": -5.155692, "Viewable": 912.72 }, "geometry": { "type": "Point", "coordinates": [ -5.155697925863062, 57.20548129632396 ] } },
{ "type": "Feature", "properties": { "Number": 1301, "Name": "Ben More", "Classifica": "Ma,M,Mur", "Metres": 966.0, "Feet": 3169, "Grid Ref": "NM525330", "Xcoord": 152575, "Ycoord": 733078, "Latitude": 56.424828, "Longitude": -6.014032, "Viewable": 1694.32 }, "geometry": { "type": "Point", "coordinates": [ -6.014061352581966, 56.424845962354034 ] } },
{ "type": "Feature", "properties": { "Number": 2925, "Name": "Beinn a'Chroin", "Classifica": "Hu,M,Mur", "Metres": 942.0, "Feet": 3091, "Grid Ref": "NN387185", "Xcoord": 238756, "Ycoord": 718574, "Latitude": 56.332, "Longitude": -4.609629, "Viewable": 1035.09 }, "geometry": { "type": "Point", "coordinates": [ -4.609636788652143, 56.332006177725845 ] } }
]
}
