{
"type": "FeatureCollection",
"crs": { "type": "name", "properties": { "name": "urn:ogc:def:crs:OGC:1.3:CRS84" } },
                                                                                
"features": [
{ "type": "Feature", "properties": { "Number": 1, "Name": "Ben Chonzie", "Classifica": "Ma,M,Mur", "Metres": 931.0, "Feet": 3054, "Grid Ref": "NN773308", "Xcoord": 277324, "Ycoord": 730857, "Latitude": 56.453851, "Longitude": -3.992057, "Viewable": 2111.33 }, "geometry": { "type": "Point", "coordinates": [ -3.99206200693323, 56.453856530406412 ] } },
{ "type": "Feature", "properties": { "Number": 17, "Name": "Ben Vorlich", "Classifica": "Ma,M,Mur", "Metres": 985.0, "Feet": 3232, "Grid Ref": "NN629189", "Xcoord": 262910, "Ycoord": 718915, "Latitude": 56.342671, "Longitude": -4.21948, "Viewable": 2666.0 }, "geometry": { "type": "Point", "coordinates": [ -4.219495635291023, 56.342677209723341 ] } },
{ "type": "Feature", "properties": { "Number": 18, "Name": "Stuc a'Chroin", "Classifica": "Ma,M,Mur", "Metres": 975.0, "Feet": 3199, "Grid Ref": "NN617174", "Xcoord": 261746, "Ycoord": 717466, "Latitude": 56.329324, "Longitude": -4.237534, "Viewable": 2772.99 }, "geometry": { "type": "Point", "coordinates": [ -4.237549383185885, 56.329330486973426 ] } },
{ "type": "Feature", "properties": { "Number": 26, "Name": "Ben More", "Classifica": "Ma,M,Mur,CoU,CoA", "Metres": 1174.0, "Feet": 3852, "Grid Ref": "NN432244", "Xcoord": 243275, "Ycoord": 724417, "Latitude": 56.385952, "Longitude": -4.540103, "Viewable": 5395.04 }, "geometry": { "type": "Point", "coordinates": [ -4.540113304326504, 56.385966153011587 ] } },
{ "type": "Feature", "properties": { "Number": 27, "Name": "Stob Binnein", "Classifica": "Ma,M,Mur", "Metres": 1165.0, "Feet": 3822, "Grid Ref": "NN434227", "Xcoord": 243481, "Ycoord": 722714, "Latitude": 56.370735, "Longitude": -4.535754, "Viewable": 5454.05 }, "geometry": { "type": "Point", "coordinates": [ -4.535764148329166, 56.3707494599198 ] } },
{ "type": "Feature", "properties": { "Number": 30, "Name": "Cruach Ardrain", "Classifica": "Ma,M,Mur", "Metres": 1046.0, "Feet": 3432, "Grid Ref": "NN409212", "Xcoord": 240927, "Ycoord": 721215, "Latitude": 56.356429, "Longitude": -4.576151, "Viewable": 1327.33 }, "geometry": { "type": "Point", "coordinates": [ -4.576160402591344, 56.356443613961282 ] } },
{ "type": "Feature", "properties": { "Number": 31, "Name": "An Caisteal", "Classifica": "Ma,M,Mur", "Metres": 995.0, "Feet": 3264, "Grid Ref": "NN378193", "Xcoord": 237873, "Ycoord": 719345, "Latitude": 56.338618, "Longitude": -4.62437, "Viewable": 1717.21 }, "geometry": { "type": "Point", "coordinates": [ -4.624377236134579, 56.338624251970657 ] } },
{ "type": "Feature", "properties": { "Number": 35, "Name": "Beinn Tulaichean", "Classifica": "Hu,M,Mur", "Metres": 946.0, "Feet": 3104, "Grid Ref": "NN416196", "Xcoord": 241661, "Ycoord": 719606, "Latitude": 56.342243, "Longitude": -4.563316, "Viewable": 1241.92 }, "geometry": { "type": "Point", "coordinates": [ -4.563324746616534, 56.342248783089595 ] } },
{ "type": "Feature", "properties": { "Number": 38, "Name": "Beinn Chabhair", "Classifica": "Ma,M,Mur", "Metres": 933.0, "Feet": 3061, "Grid Ref": "NN367179", "Xcoord": 236758, "Ycoord": 717968, "Latitude": 56.325877, "Longitude": -4.641532, "Viewable": 1289.78 }, "geometry": { "type": "Point", "coordinates": [ -4.641538972349795, 56.325883066484238 ] } },
{ "type": "Feature", "properties": { "Number": 65, "Name": "Ben Lui [Beinn Laoigh]", "Classifica": "Ma,M,Mur", "Metres": 1130.0, "Feet": 3707, "Grid Ref": "NN266263", "Xcoord": 226635, "Ycoord": 726297, "Latitude": 56.397013, "Longitude": -4.81051, "Viewable": 3782.59 }, "geometry": { "type": "Point", "coordinates": [ -4.81053058075227, 56.39702582631709 ] } },
{ "type": "Feature", "properties": { "Number": 67, "Name": "Ben Oss", "Classifica": "Ma,M,Mur", "Metres": 1029.0, "Feet": 3376, "Grid Ref": "NN287253", "Xcoord": 228761, "Ycoord": 725347, "Latitude": 56.389263, "Longitude": -4.775488, "Viewable": 1445.66 }, "geometry": { "type": "Point", "coordinates": [ -4.775509457776855, 56.389276301083441 ] } },
{ "type": "Feature", "properties": { "Number": 70, "Name": "Beinn Bhuidhe", "Classifica": "Ma,M,Mur", "Metres": 948.0, "Feet": 3110, "Grid Ref": "NN203187", "Xcoord": 220369, "Ycoord": 718722, "Latitude": 56.326704, "Longitude": -4.90671, "Viewable": 1380.77 }, "geometry": { "type": "Point", "coordinates": [ -4.906728470563254, 56.326718033585649 ] } },
{ "type": "Feature", "properties": { "Number": 71, "Name": "Ben Vorlich", "Classifica": "Ma,M,Mur,CoH", "Metres": 943.0, "Feet": 3094, "Grid Ref": "NN295124", "Xcoord": 229509, "Ycoord": 712475, "Latitude": 56.27403, "Longitude": -4.755047, "Viewable": 1094.11 }, "geometry": { "type": "Point", "coordinates": [ -4.755067535252079, 56.274036411876125 ] } },
{ "type": "Feature", "properties": { "Number": 75, "Name": "Beinn a'Chleibh", "Classifica": "Hu,M,Mur,sMa", "Metres": 916.3, "Feet": 3006, "Grid Ref": "NN250256", "Xcoord": 225054, "Ycoord": 725606, "Latitude": 56.390231, "Longitude": -4.835634, "Viewable": 674.28 }, "geometry": { "type": "Point", "coordinates": [ -4.835650055329889, 56.390242652383144 ] } },
{ "type": "Feature", "properties": { "Number": 104, "Name": "Beinn a'Chreachain", "Classifica": "Ma,M,Mur", "Metres": 1081.0, "Feet": 3547, "Grid Ref": "NN373440", "Xcoord": 237389, "Ycoord": 744075, "Latitude": 56.560387, "Longitude": -4.647589, "Viewable": 1044.86 }, "geometry": { "type": "Point", "coordinates": [ -4.647598463275189, 56.560397108836888 ] } },
{ "type": "Feature", "properties": { "Number": 105, "Name": "Beinn Dorain", "Classifica": "Ma,M,Mur", "Metres": 1076.0, "Feet": 3530, "Grid Ref": "NN325378", "Xcoord": 232563, "Ycoord": 737875, "Latitude": 56.503053, "Longitude": -4.722024, "Viewable": 1045.8 }, "geometry": { "type": "Point", "coordinates": [ -4.722031289863984, 56.50306380306229 ] } },
{ "type": "Feature", "properties": { "Number": 107, "Name": "Carn Mairg", "Classifica": "Ma,M,Mur", "Metres": 1041.0, "Feet": 3415, "Grid Ref": "NN684512", "Xcoord": 268400, "Ycoord": 751200, "Latitude": 56.634069, "Longitude": -4.147057, "Viewable": 512.17 }, "geometry": { "type": "Point", "coordinates": [ -4.147063802322598, 56.634080576322447 ] } },
{ "type": "Feature", "properties": { "Number": 108, "Name": "Beinn Achaladair", "Classifica": "Ma,M,Mur", "Metres": 1038.0, "Feet": 3406, "Grid Ref": "NN346433", "Xcoord": 234600, "Ycoord": 743300, "Latitude": 56.552454, "Longitude": -4.692417, "Viewable": 406.94 }, "geometry": { "type": "Point", "coordinates": [ -4.692430335326931, 56.552468136667706 ] } },
{ "type": "Feature", "properties": { "Number": 112, "Name": "Beinn an Dothaidh", "Classifica": "Ma,M,Mur", "Metres": 1004.0, "Feet": 3294, "Grid Ref": "NN331408", "Xcoord": 233100, "Ycoord": 740800, "Latitude": 56.529489, "Longitude": -4.715181, "Viewable": 377.06 }, "geometry": { "type": "Point", "coordinates": [ -4.715195049676126, 56.529503044917327 ] } },
{ "type": "Feature", "properties": { "Number": 118, "Name": "Meall Garbh", "Classifica": "Hu,M,Mur", "Metres": 968.0, "Feet": 3176, "Grid Ref": "NN647517", "Xcoord": 264700, "Ycoord": 751700, "Latitude": 56.637502, "Longitude": -4.207589, "Viewable": 95.88 }, "geometry": { "type": "Point", "coordinates": [ -4.207596570567766, 56.637514345100598 ] } },
{ "type": "Feature", "properties": { "Number": 120, "Name": "Stuchd an Lochain [Stuc an Lochain]", "Classifica": "Ma,M,Mur", "Metres": 960.0, "Feet": 3150, "Grid Ref": "NN483448", "Xcoord": 248303, "Ycoord": 744841, "Latitude": 56.570915, "Longitude": -4.470636, "Viewable": 193.83 }, "geometry": { "type": "Point", "coordinates": [ -4.470648660417904, 56.570925727534409 ] } },
{ "type": "Feature", "properties": { "Number": 122, "Name": "Beinn Mhanach", "Classifica": "Ma,M,Mur", "Metres": 953.0, "Feet": 3127, "Grid Ref": "NN373411", "Xcoord": 237369, "Ycoord": 741138, "Latitude": 56.534022, "Longitude": -4.646074, "Viewable": 462.03 }, "geometry": { "type": "Point", "coordinates": [ -4.646082759318204, 56.534032709240158 ] } },
{ "type": "Feature", "properties": { "Number": 123, "Name": "Meall Buidhe", "Classifica": "Ma,M,Mur", "Metres": 932.0, "Feet": 3058, "Grid Ref": "NN498499", "Xcoord": 249839, "Ycoord": 749949, "Latitude": 56.617258, "Longitude": -4.448626, "Viewable": 531.78 }, "geometry": { "type": "Point", "coordinates": [ -4.448639586008599, 56.617267129037465 ] } },
{ "type": "Feature", "properties": { "Number": 141, "Name": "Ben Lawers", "Classifica": "Ma,M,Mur,CoH,CoU,CoA", "Metres": 1214.0, "Feet": 3983, "Grid Ref": "NN635414", "Xcoord": 263551, "Ycoord": 741423, "Latitude": 56.544912, "Longitude": -4.220892, "Viewable": 5284.86 }, "geometry": { "type": "Point", "coordinates": [ -4.220893941012826, 56.544923728277958 ] } },
{ "type": "Feature", "properties": { "Number": 142, "Name": "An Stuc", "Classifica": "Ma=,Hu,M,Mur", "Metres": 1118.0, "Feet": 3668, "Grid Ref": "NN638430", "Xcoord": 263875, "Ycoord": 743089, "Latitude": 56.559962, "Longitude": -4.216501, "Viewable": 3238.06 }, "geometry": { "type": "Point", "coordinates": [ -4.216503123509484, 56.55997366235917 ] } },
{ "type": "Feature", "properties": { "Number": 143, "Name": "Meall Garbh", "Classifica": "Ma,M,Mur", "Metres": 1118.0, "Feet": 3668, "Grid Ref": "NN644437", "Xcoord": 264437, "Ycoord": 743759, "Latitude": 56.56614, "Longitude": -4.207715, "Viewable": 3439.07 }, "geometry": { "type": "Point", "coordinates": [ -4.20771694560595, 56.566151003705386 ] } },
{ "type": "Feature", "properties": { "Number": 144, "Name": "Beinn Ghlas", "Classifica": "Hu,M,Mur", "Metres": 1103.0, "Feet": 3619, "Grid Ref": "NN625404", "Xcoord": 262529, "Ycoord": 740466, "Latitude": 56.536023, "Longitude": -4.236994, "Viewable": 3245.89 }, "geometry": { "type": "Point", "coordinates": [ -4.236995202318425, 56.536034708837889 ] } },
{ "type": "Feature", "properties": { "Number": 145, "Name": "Beinn Heasgarnich [Beinn Sheasgarnaich]", "Classifica": "Ma,M,Mur", "Metres": 1078.0, "Feet": 3537, "Grid Ref": "NN413383", "Xcoord": 241381, "Ycoord": 738338, "Latitude": 56.510263, "Longitude": -4.579202, "Viewable": 1004.4 }, "geometry": { "type": "Point", "coordinates": [ -4.579212071225244, 56.51027446945659 ] } },
{ "type": "Feature", "properties": { "Number": 146, "Name": "Meall Corranaich", "Classifica": "Ma,M,Mur", "Metres": 1069.0, "Feet": 3507, "Grid Ref": "NN615410", "Xcoord": 261543, "Ycoord": 741036, "Latitude": 56.54085, "Longitude": -4.253317, "Viewable": 1037.77 }, "geometry": { "type": "Point", "coordinates": [ -4.253318415840341, 56.540862054936831 ] } },
{ "type": "Feature", "properties": { "Number": 148, "Name": "Creag Mhor", "Classifica": "Ma,M,Mur", "Metres": 1047.0, "Feet": 3435, "Grid Ref": "NN391361", "Xcoord": 239149, "Ycoord": 736111, "Latitude": 56.489518, "Longitude": -4.614054, "Viewable": 747.97 }, "geometry": { "type": "Point", "coordinates": [ -4.614064052174806, 56.489530160021879 ] } },
{ "type": "Feature", "properties": { "Number": 150, "Name": "Meall Ghaordaidh", "Classifica": "Ma,M,Mur", "Metres": 1039.0, "Feet": 3409, "Grid Ref": "NN514397", "Xcoord": 251443, "Ycoord": 739704, "Latitude": 56.52581, "Longitude": -4.416638, "Viewable": 961.75 }, "geometry": { "type": "Point", "coordinates": [ -4.416652099640396, 56.525821187234897 ] } },
{ "type": "Feature", "properties": { "Number": 152, "Name": "Ben Challum [Beinn Challuim]", "Classifica": "Ma,M,Mur", "Metres": 1025.0, "Feet": 3363, "Grid Ref": "NN386322", "Xcoord": 238684, "Ycoord": 732233, "Latitude": 56.454555, "Longitude": -4.619199, "Viewable": 830.36 }, "geometry": { "type": "Point", "coordinates": [ -4.619208155609058, 56.454567612188477 ] } },
{ "type": "Feature", "properties": { "Number": 154, "Name": "Meall Greigh", "Classifica": "Ma,M,Mur", "Metres": 1001.0, "Feet": 3284, "Grid Ref": "NN674438", "Xcoord": 267401, "Ycoord": 743808, "Latitude": 56.567426, "Longitude": -4.159543, "Viewable": 702.0 }, "geometry": { "type": "Point", "coordinates": [ -4.159546000467555, 56.567437701653247 ] } },
{ "type": "Feature", "properties": { "Number": 163, "Name": "Meall a'Choire Leith", "Classifica": "Ma,M,Mur", "Metres": 926.0, "Feet": 3038, "Grid Ref": "NN612439", "Xcoord": 261200, "Ycoord": 743900, "Latitude": 56.566459, "Longitude": -4.260415, "Viewable": 235.4 }, "geometry": { "type": "Point", "coordinates": [ -4.260424568714782, 56.56647061462904 ] } },
{ "type": "Feature", "properties": { "Number": 178, "Name": "Aonach Eagach - Sgorr nam Fiannaidh", "Classifica": "Ma,M,Mur", "Metres": 967.0, "Feet": 3173, "Grid Ref": "NN140583", "Xcoord": 214043, "Ycoord": 758307, "Latitude": 56.679396, "Longitude": -5.037144, "Viewable": 631.37 }, "geometry": { "type": "Point", "coordinates": [ -5.037163029883993, 56.679411393971861 ] } },
{ "type": "Feature", "properties": { "Number": 179, "Name": "Aonach Eagach - Meall Dearg", "Classifica": "Hu,M,Mur", "Metres": 953.0, "Feet": 3127, "Grid Ref": "NN161583", "Xcoord": 216128, "Ycoord": 758364, "Latitude": 56.680732, "Longitude": -5.003202, "Viewable": 551.01 }, "geometry": { "type": "Point", "coordinates": [ -5.003221597667999, 56.680747490816657 ] } },
{ "type": "Feature", "properties": { "Number": 191, "Name": "Bidean nam Bian", "Classifica": "Ma,M,Mur,CoH", "Metres": 1150.0, "Feet": 3773, "Grid Ref": "NN143542", "Xcoord": 214341, "Ycoord": 754208, "Latitude": 56.642741, "Longitude": -5.029333, "Viewable": 2093.69 }, "geometry": { "type": "Point", "coordinates": [ -5.029352296575269, 56.642757150427322 ] } },
{ "type": "Feature", "properties": { "Number": 194, "Name": "Stob Coire Sgreamhach", "Classifica": "Hu,M,Mur", "Metres": 1072.0, "Feet": 3517, "Grid Ref": "NN154536", "Xcoord": 215487, "Ycoord": 753664, "Latitude": 56.638314, "Longitude": -5.010284, "Viewable": 845.48 }, "geometry": { "type": "Point", "coordinates": [ -5.010303435041324, 56.638329838759503 ] } },
{ "type": "Feature", "properties": { "Number": 195, "Name": "Beinn a'Bheithir - Sgorr Dhearg", "Classifica": "Ma,M,Mur", "Metres": 1024.0, "Feet": 3360, "Grid Ref": "NN056558", "Xcoord": 205682, "Ycoord": 755846, "Latitude": 56.65392, "Longitude": -5.171543, "Viewable": 1009.01 }, "geometry": { "type": "Point", "coordinates": [ -5.171558924244988, 56.653936142474116 ] } },
{ "type": "Feature", "properties": { "Number": 196, "Name": "Buachaille Etive Mor - Stob Dearg", "Classifica": "Ma,M,Mur", "Metres": 1022.0, "Feet": 3353, "Grid Ref": "NN223543", "Xcoord": 222362, "Ycoord": 754320, "Latitude": 56.646858, "Longitude": -4.898794, "Viewable": 777.53 }, "geometry": { "type": "Point", "coordinates": [ -4.898816139709804, 56.646874627501717 ] } },
{ "type": "Feature", "properties": { "Number": 198, "Name": "Beinn a'Bheithir - Sgorr Dhonuill", "Classifica": "Ma,M,Mur", "Metres": 1001.0, "Feet": 3284, "Grid Ref": "NN040555", "Xcoord": 204057, "Ycoord": 755539, "Latitude": 56.650489, "Longitude": -5.197772, "Viewable": 862.62 }, "geometry": { "type": "Point", "coordinates": [ -5.197787973770389, 56.650504865166425 ] } },
{ "type": "Feature", "properties": { "Number": 202, "Name": "Buachaille Etive Beag - Stob Dubh", "Classifica": "Ma,M,Mur", "Metres": 958.0, "Feet": 3143, "Grid Ref": "NN179535", "Xcoord": 217906, "Ycoord": 753552, "Latitude": 56.638256, "Longitude": -4.97082, "Viewable": 264.64 }, "geometry": { "type": "Point", "coordinates": [ -4.9708402809518, 56.638272062668577 ] } },
{ "type": "Feature", "properties": { "Number": 203, "Name": "Buachaille Etive Mor - Stob na Broige", "Classifica": "Hu,M,Mur", "Metres": 956.0, "Feet": 3136, "Grid Ref": "NN190525", "Xcoord": 219070, "Ycoord": 752564, "Latitude": 56.629843, "Longitude": -4.951175, "Viewable": 569.02 }, "geometry": { "type": "Point", "coordinates": [ -4.951195988833401, 56.629859158153067 ] } },
{ "type": "Feature", "properties": { "Number": 207, "Name": "Beinn Sgulaird", "Classifica": "Ma,M,Mur", "Metres": 937.0, "Feet": 3074, "Grid Ref": "NN053460", "Xcoord": 205304, "Ycoord": 746089, "Latitude": 56.566241, "Longitude": -5.17035, "Viewable": 340.75 }, "geometry": { "type": "Point", "coordinates": [ -5.170365649008637, 56.566258800016826 ] } },
{ "type": "Feature", "properties": { "Number": 209, "Name": "Buachaille Etive Beag - Stob Coire Raineach", "Classifica": "Ma,M,Mur", "Metres": 925.0, "Feet": 3035, "Grid Ref": "NN191548", "Xcoord": 219132, "Ycoord": 754807, "Latitude": 56.649991, "Longitude": -4.951739, "Viewable": 459.04 }, "geometry": { "type": "Point", "coordinates": [ -4.951759351470444, 56.650006898533121 ] } },
{ "type": "Feature", "properties": { "Number": 232, "Name": "Ben Cruachan", "Classifica": "Ma,M,Mur,CoU,CoA", "Metres": 1126.0, "Feet": 3694, "Grid Ref": "NN069304", "Xcoord": 206965, "Ycoord": 730473, "Latitude": 56.42685, "Longitude": -5.131786, "Viewable": 3851.54 }, "geometry": { "type": "Point", "coordinates": [ -5.131801144890179, 56.426861734335596 ] } },
{ "type": "Feature", "properties": { "Number": 233, "Name": "Meall a'Bhuiridh", "Classifica": "Ma,M,Mur", "Metres": 1108.0, "Feet": 3635, "Grid Ref": "NN250503", "Xcoord": 225064, "Ycoord": 750351, "Latitude": 56.612262, "Longitude": -4.852114, "Viewable": 2067.61 }, "geometry": { "type": "Point", "coordinates": [ -4.85212015905547, 56.612280070453025 ] } },
{ "type": "Feature", "properties": { "Number": 235, "Name": "Creise", "Classifica": "Ma,M,Mur", "Metres": 1100.0, "Feet": 3609, "Grid Ref": "NN238506", "Xcoord": 223857, "Ycoord": 750650, "Latitude": 56.614494, "Longitude": -4.871942, "Viewable": 808.6 }, "geometry": { "type": "Point", "coordinates": [ -4.87196368041109, 56.61451074814989 ] } },
{ "type": "Feature", "properties": { "Number": 237, "Name": "Stob Ghabhar", "Classifica": "Ma,M,Mur", "Metres": 1090.0, "Feet": 3576, "Grid Ref": "NN230455", "Xcoord": 223016, "Ycoord": 745514, "Latitude": 56.568093, "Longitude": -4.882114, "Viewable": 554.06 }, "geometry": { "type": "Point", "coordinates": [ -4.882136027082328, 56.568111493494541 ] } },
{ "type": "Feature", "properties": { "Number": 238, "Name": "Ben Starav", "Classifica": "Ma,M,Mur", "Metres": 1078.0, "Feet": 3537, "Grid Ref": "NN125427", "Xcoord": 212573, "Ycoord": 742717, "Latitude": 56.538948, "Longitude": -5.049799, "Viewable": 1028.5 }, "geometry": { "type": "Point", "coordinates": [ -5.049816929267415, 56.538966371010453 ] } },
{ "type": "Feature", "properties": { "Number": 241, "Name": "Stob Coir'an Albannaich", "Classifica": "Ma,M,Mur", "Metres": 1044.0, "Feet": 3425, "Grid Ref": "NN169443", "Xcoord": 216952, "Ycoord": 744307, "Latitude": 56.554939, "Longitude": -4.979811, "Viewable": 233.89 }, "geometry": { "type": "Point", "coordinates": [ -4.979830908310125, 56.554957416844658 ] } },
{ "type": "Feature", "properties": { "Number": 244, "Name": "Stob Diamh", "Classifica": "Hu,M,Mur", "Metres": 998.0, "Feet": 3274, "Grid Ref": "NN094308", "Xcoord": 209478, "Ycoord": 730852, "Latitude": 56.431271, "Longitude": -5.091379, "Viewable": 1354.9 }, "geometry": { "type": "Point", "coordinates": [ -5.091394615857054, 56.431282837656511 ] } },
{ "type": "Feature", "properties": { "Number": 249, "Name": "Beinn Eunaich", "Classifica": "Ma,M,Mur", "Metres": 989.0, "Feet": 3245, "Grid Ref": "NN135328", "Xcoord": 213561, "Ycoord": 732799, "Latitude": 56.45037, "Longitude": -5.026656, "Viewable": 1141.35 }, "geometry": { "type": "Point", "coordinates": [ -5.026673153660358, 56.450381176917283 ] } },
{ "type": "Feature", "properties": { "Number": 251, "Name": "Beinn a'Chochuill", "Classifica": "Ma,M,Mur", "Metres": 980.0, "Feet": 3215, "Grid Ref": "NN109328", "Xcoord": 210978, "Ycoord": 732847, "Latitude": 56.449772, "Longitude": -5.068535, "Viewable": 1021.65 }, "geometry": { "type": "Point", "coordinates": [ -5.068550989443159, 56.449783497157711 ] } },
{ "type": "Feature", "properties": { "Number": 255, "Name": "Stob a'Choire Odhair", "Classifica": "Ma,M,Mur", "Metres": 945.0, "Feet": 3100, "Grid Ref": "NN257459", "Xcoord": 225732, "Ycoord": 745982, "Latitude": 56.573309, "Longitude": -4.838285, "Viewable": 1287.03 }, "geometry": { "type": "Point", "coordinates": [ -4.838307959394458, 56.573326914702086 ] } },
{ "type": "Feature", "properties": { "Number": 278, "Name": "Ben Nevis", "Classifica": "Ma,M,Mur,CoH,CoU,CoA", "Metres": 1344.0, "Feet": 4409, "Grid Ref": "NN166712", "Xcoord": 216676, "Ycoord": 771283, "Latitude": 56.79685, "Longitude": -5.003508, "Viewable": 3454.84 }, "geometry": { "type": "Point", "coordinates": [ -5.003528959242606, 56.796862774329121 ] } },
{ "type": "Feature", "properties": { "Number": 279, "Name": "Aonach Beag", "Classifica": "Ma,M,Mur", "Metres": 1234.0, "Feet": 4049, "Grid Ref": "NN197715", "Xcoord": 219707, "Ycoord": 771503, "Latitude": 56.800007, "Longitude": -4.954122, "Viewable": 966.99 }, "geometry": { "type": "Point", "coordinates": [ -4.954127414019727, 56.800020587978764 ] } },
{ "type": "Feature", "properties": { "Number": 281, "Name": "Aonach Mor", "Classifica": "Hu,M,Mur", "Metres": 1221.0, "Feet": 4006, "Grid Ref": "NN193729", "Xcoord": 219304, "Ycoord": 772961, "Latitude": 56.812932, "Longitude": -4.961744, "Viewable": 2128.06 }, "geometry": { "type": "Point", "coordinates": [ -4.961749311088616, 56.812944718201692 ] } },
{ "type": "Feature", "properties": { "Number": 282, "Name": "Carn Mor Dearg", "Classifica": "Ma,M,Mur", "Metres": 1220.0, "Feet": 4003, "Grid Ref": "NN177721", "Xcoord": 217749, "Ycoord": 772171, "Latitude": 56.805237, "Longitude": -4.986615, "Viewable": 1247.66 }, "geometry": { "type": "Point", "coordinates": [ -4.986619736971463, 56.80525070755079 ] } },
{ "type": "Feature", "properties": { "Number": 285, "Name": "Stob Choire Claurigh", "Classifica": "Ma,M,Mur", "Metres": 1177.0, "Feet": 3862, "Grid Ref": "NN262738", "Xcoord": 226196, "Ycoord": 773878, "Latitude": 56.823786, "Longitude": -4.849624, "Viewable": 2114.97 }, "geometry": { "type": "Point", "coordinates": [ -4.84963222209415, 56.823799001967252 ] } },
{ "type": "Feature", "properties": { "Number": 287, "Name": "Binnein Mor", "Classifica": "Ma,M,Mur", "Metres": 1130.0, "Feet": 3707, "Grid Ref": "NN212663", "Xcoord": 221200, "Ycoord": 766300, "Latitude": 56.7539, "Longitude": -4.926063, "Viewable": 606.93 }, "geometry": { "type": "Point", "coordinates": [ -4.926075871750523, 56.753916334241787 ] } },
{ "type": "Feature", "properties": { "Number": 289, "Name": "Stob Coire an Laoigh", "Classifica": "M,Mur", "Metres": 1116.0, "Feet": 3661, "Grid Ref": "NN239725", "Xcoord": 223983, "Ycoord": 772532, "Latitude": 56.810877, "Longitude": -4.884907, "Viewable": 1572.66 }, "geometry": { "type": "Point", "coordinates": [ -4.88491440814614, 56.810890002103996 ] } },
{ "type": "Feature", "properties": { "Number": 290, "Name": "Stob Coire Easain", "Classifica": "Ma,M,Mur", "Metres": 1115.0, "Feet": 3658, "Grid Ref": "NN308730", "Xcoord": 230800, "Ycoord": 773000, "Latitude": 56.817603, "Longitude": -4.773698, "Viewable": 467.85 }, "geometry": { "type": "Point", "coordinates": [ -4.773708437582187, 56.817619228504668 ] } },
{ "type": "Feature", "properties": { "Number": 292, "Name": "Stob a'Choire Mheadhoin", "Classifica": "Hu,M,Mur,sMa", "Metres": 1105.0, "Feet": 3625, "Grid Ref": "NN316736", "Xcoord": 231600, "Ycoord": 773600, "Latitude": 56.823277, "Longitude": -4.761005, "Viewable": 844.84 }, "geometry": { "type": "Point", "coordinates": [ -4.761015220555818, 56.823293465222648 ] } },
{ "type": "Feature", "properties": { "Number": 295, "Name": "Sgurr a'Mhaim", "Classifica": "Ma,M,Mur", "Metres": 1099.0, "Feet": 3606, "Grid Ref": "NN164667", "Xcoord": 216466, "Ycoord": 766730, "Latitude": 56.75592, "Longitude": -5.003674, "Viewable": 775.08 }, "geometry": { "type": "Point", "coordinates": [ -5.003694533482893, 56.755934227643827 ] } },
{ "type": "Feature", "properties": { "Number": 296, "Name": "Sgurr Choinnich Mor", "Classifica": "Ma,M,Mur", "Metres": 1094.0, "Feet": 3589, "Grid Ref": "NN227714", "Xcoord": 222772, "Ycoord": 771419, "Latitude": 56.800431, "Longitude": -4.903943, "Viewable": 786.54 }, "geometry": { "type": "Point", "coordinates": [ -4.903949863605304, 56.800444384930834 ] } },
{ "type": "Feature", "properties": { "Number": 301, "Name": "Na Gruagaichean", "Classifica": "M,Mur,sHu", "Metres": 1056.0, "Feet": 3465, "Grid Ref": "NN203652", "Xcoord": 220309, "Ycoord": 765202, "Latitude": 56.743708, "Longitude": -4.939852, "Viewable": 402.14 }, "geometry": { "type": "Point", "coordinates": [ -4.939857208257561, 56.743722750177909 ] } },
{ "type": "Feature", "properties": { "Number": 305, "Name": "Sgurr Eilde Mor", "Classifica": "Ma,M,Mur", "Metres": 1010.0, "Feet": 3314, "Grid Ref": "NN230657", "Xcoord": 223052, "Ycoord": 765792, "Latitude": 56.750051, "Longitude": -4.895471, "Viewable": 473.18 }, "geometry": { "type": "Point", "coordinates": [ -4.895477572987912, 56.750065201284677 ] } },
{ "type": "Feature", "properties": { "Number": 309, "Name": "Stob Ban", "Classifica": "Ma,M,Mur", "Metres": 999.0, "Feet": 3278, "Grid Ref": "NN147654", "Xcoord": 214775, "Ycoord": 765443, "Latitude": 56.743706, "Longitude": -5.03036, "Viewable": 603.66 }, "geometry": { "type": "Point", "coordinates": [ -5.030380075341562, 56.74371967663371 ] } },
{ "type": "Feature", "properties": { "Number": 312, "Name": "An Gearanach", "Classifica": "Ma,M,Mur", "Metres": 982.0, "Feet": 3222, "Grid Ref": "NN187669", "Xcoord": 218771, "Ycoord": 766994, "Latitude": 56.759191, "Longitude": -4.966215, "Viewable": 273.1 }, "geometry": { "type": "Point", "coordinates": [ -4.966235985438726, 56.759204596865587 ] } },
{ "type": "Feature", "properties": { "Number": 320, "Name": "Binnein Beag", "Classifica": "Ma,M,Mur", "Metres": 943.0, "Feet": 3094, "Grid Ref": "NN221677", "Xcoord": 222100, "Ycoord": 767700, "Latitude": 56.766805, "Longitude": -4.912337, "Viewable": 203.51 }, "geometry": { "type": "Point", "coordinates": [ -4.912350033435073, 56.766821418959147 ] } },
{ "type": "Feature", "properties": { "Number": 345, "Name": "Ben Alder", "Classifica": "Ma,M,Mur", "Metres": 1148.0, "Feet": 3766, "Grid Ref": "NN496718", "Xcoord": 249614, "Ycoord": 771854, "Latitude": 56.813786, "Longitude": -4.465122, "Viewable": 2082.27 }, "geometry": { "type": "Point", "coordinates": [ -4.465137117274049, 56.813800128859604 ] } },
{ "type": "Feature", "properties": { "Number": 346, "Name": "Geal-charn", "Classifica": "Ma,M,Mur", "Metres": 1132.0, "Feet": 3714, "Grid Ref": "NN469746", "Xcoord": 246992, "Ycoord": 774631, "Latitude": 56.837854, "Longitude": -4.509695, "Viewable": 1903.89 }, "geometry": { "type": "Point", "coordinates": [ -4.509709856998947, 56.837867963742397 ] } },
{ "type": "Feature", "properties": { "Number": 347, "Name": "Aonach Beag", "Classifica": "M,Mur,sHu", "Metres": 1115.7, "Feet": 3660, "Grid Ref": "NN457741", "Xcoord": 245787, "Ycoord": 774189, "Latitude": 56.833489, "Longitude": -4.529158, "Viewable": 1466.08 }, "geometry": { "type": "Point", "coordinates": [ -4.529172705545435, 56.833502736108279 ] } },
{ "type": "Feature", "properties": { "Number": 348, "Name": "Beinn Eibhinn", "Classifica": "Hu,M,Mur", "Metres": 1103.2, "Feet": 3619, "Grid Ref": "NN449733", "Xcoord": 244965, "Ycoord": 773302, "Latitude": 56.825255, "Longitude": -4.542077, "Viewable": 608.6 }, "geometry": { "type": "Point", "coordinates": [ -4.542090575895859, 56.825268724361742 ] } },
{ "type": "Feature", "properties": { "Number": 349, "Name": "Beinn a'Chlachair", "Classifica": "Ma,M,Mur", "Metres": 1087.0, "Feet": 3566, "Grid Ref": "NN471781", "Xcoord": 247122, "Ycoord": 778154, "Latitude": 56.869516, "Longitude": -4.509683, "Viewable": 405.57 }, "geometry": { "type": "Point", "coordinates": [ -4.509698424369988, 56.869529037504861 ] } },
{ "type": "Feature", "properties": { "Number": 350, "Name": "Geal Charn", "Classifica": "Ma,M,Mur", "Metres": 1049.0, "Feet": 3442, "Grid Ref": "NN504811", "Xcoord": 250432, "Ycoord": 781181, "Latitude": 56.897763, "Longitude": -4.457236, "Viewable": 318.32 }, "geometry": { "type": "Point", "coordinates": [ -4.457235922272134, 56.897775470682362 ] } },
{ "type": "Feature", "properties": { "Number": 351, "Name": "Chno Dearg", "Classifica": "Ma,M,Mur", "Metres": 1046.0, "Feet": 3432, "Grid Ref": "NN377741", "Xcoord": 237741, "Ycoord": 774115, "Latitude": 56.830086, "Longitude": -4.660831, "Viewable": 881.44 }, "geometry": { "type": "Point", "coordinates": [ -4.660842305740955, 56.830098983145518 ] } },
{ "type": "Feature", "properties": { "Number": 356, "Name": "Stob Coire Sgriodain", "Classifica": "M,Mur,sHu", "Metres": 979.0, "Feet": 3212, "Grid Ref": "NN356743", "Xcoord": 235669, "Ycoord": 774380, "Latitude": 56.831736, "Longitude": -4.694917, "Viewable": 653.38 }, "geometry": { "type": "Point", "coordinates": [ -4.694928388028243, 56.831748978559368 ] } },
{ "type": "Feature", "properties": { "Number": 361, "Name": "Sgor Gaibhre", "Classifica": "Ma,M,Mur", "Metres": 955.0, "Feet": 3133, "Grid Ref": "NN444674", "Xcoord": 244477, "Ycoord": 767447, "Latitude": 56.772544, "Longitude": -4.546498, "Viewable": 600.31 }, "geometry": { "type": "Point", "coordinates": [ -4.546511422189329, 56.772559295617498 ] } },
{ "type": "Feature", "properties": { "Number": 363, "Name": "Carn Dearg", "Classifica": "Ma,M,Mur", "Metres": 941.0, "Feet": 3087, "Grid Ref": "NN417661", "Xcoord": 241773, "Ycoord": 766142, "Latitude": 56.759922, "Longitude": -4.589888, "Viewable": 640.53 }, "geometry": { "type": "Point", "coordinates": [ -4.589900321158842, 56.759936999163656 ] } },
{ "type": "Feature", "properties": { "Number": 364, "Name": "Beinn na Lap", "Classifica": "Ma,M,Mur", "Metres": 935.0, "Feet": 3068, "Grid Ref": "NN376695", "Xcoord": 237616, "Ycoord": 769585, "Latitude": 56.78939, "Longitude": -4.659994, "Viewable": 432.6 }, "geometry": { "type": "Point", "coordinates": [ -4.660005162001085, 56.789404018260548 ] } },
{ "type": "Feature", "properties": { "Number": 383, "Name": "Beinn Udlamain", "Classifica": "Ma,M,Mur", "Metres": 1011.0, "Feet": 3317, "Grid Ref": "NN579739", "Xcoord": 257949, "Ycoord": 773977, "Latitude": 56.835463, "Longitude": -4.329912, "Viewable": 595.24 }, "geometry": { "type": "Point", "coordinates": [ -4.329914080025146, 56.835477368553079 ] } },
{ "type": "Feature", "properties": { "Number": 384, "Name": "Sgairneach Mhor", "Classifica": "Ma,M,Mur", "Metres": 991.0, "Feet": 3251, "Grid Ref": "NN598731", "Xcoord": 259882, "Ycoord": 773128, "Latitude": 56.828429, "Longitude": -4.297791, "Viewable": 777.91 }, "geometry": { "type": "Point", "coordinates": [ -4.297793226574294, 56.828443554831217 ] } },
{ "type": "Feature", "properties": { "Number": 406, "Name": "Beinn Dearg", "Classifica": "Ma,M,Mur", "Metres": 1008.0, "Feet": 3307, "Grid Ref": "NN852777", "Xcoord": 285290, "Ycoord": 777785, "Latitude": 56.87721, "Longitude": -3.88381, "Viewable": 737.51 }, "geometry": { "type": "Point", "coordinates": [ -3.88380534041963, 56.877224771395241 ] } },
{ "type": "Feature", "properties": { "Number": 407, "Name": "An Sgarsoch", "Classifica": "Ma,M,Mur", "Metres": 1006.0, "Feet": 3301, "Grid Ref": "NN933836", "Xcoord": 293333, "Ycoord": 783666, "Latitude": 56.931937, "Longitude": -3.754384, "Viewable": 557.75 }, "geometry": { "type": "Point", "coordinates": [ -3.75438221530339, 56.931951034660415 ] } },
{ "type": "Feature", "properties": { "Number": 408, "Name": "Carn an Fhidhleir [Carn Ealar]", "Classifica": "Ma,M,Mur", "Metres": 994.0, "Feet": 3261, "Grid Ref": "NN904841", "Xcoord": 290470, "Ycoord": 784186, "Latitude": 56.935938, "Longitude": -3.801629, "Viewable": 549.26 }, "geometry": { "type": "Point", "coordinates": [ -3.801626261865756, 56.93595125911412 ] } },
{ "type": "Feature", "properties": { "Number": 409, "Name": "Carn a'Chlamain", "Classifica": "Ma,M,Mur", "Metres": 963.0, "Feet": 3159, "Grid Ref": "NN915758", "Xcoord": 291590, "Ycoord": 775807, "Latitude": 56.860965, "Longitude": -3.779651, "Viewable": 736.46 }, "geometry": { "type": "Point", "coordinates": [ -3.779647869429781, 56.860979812633659 ] } },
{ "type": "Feature", "properties": { "Number": 421, "Name": "Beinn a'Ghlo - Carn nan Gabhar", "Classifica": "Ma,M,Mur", "Metres": 1121.0, "Feet": 3678, "Grid Ref": "NN971733", "Xcoord": 297118, "Ycoord": 773314, "Latitude": 56.839837, "Longitude": -3.688022, "Viewable": 3436.57 }, "geometry": { "type": "Point", "coordinates": [ -3.688020790055512, 56.839852557144795 ] } },
{ "type": "Feature", "properties": { "Number": 422, "Name": "Beinn a'Ghlo - Braigh Coire Chruinn-bhalgain", "Classifica": "Ma,M,Mur", "Metres": 1070.0, "Feet": 3510, "Grid Ref": "NN945724", "Xcoord": 294565, "Ycoord": 772411, "Latitude": 56.831156, "Longitude": -3.729475, "Viewable": 1692.16 }, "geometry": { "type": "Point", "coordinates": [ -3.729473194694906, 56.831171530904811 ] } },
{ "type": "Feature", "properties": { "Number": 425, "Name": "Beinn Iutharn Mhor", "Classifica": "Ma,M,Mur", "Metres": 1045.0, "Feet": 3428, "Grid Ref": "NO045792", "Xcoord": 304566, "Ycoord": 779280, "Latitude": 56.895003, "Longitude": -3.56823, "Viewable": 999.33 }, "geometry": { "type": "Point", "coordinates": [ -3.568231422071947, 56.89501814414416 ] } },
{ "type": "Feature", "properties": { "Number": 426, "Name": "Carn an Righ", "Classifica": "Ma,M,Mur", "Metres": 1029.0, "Feet": 3376, "Grid Ref": "NO028772", "Xcoord": 302871, "Ycoord": 777266, "Latitude": 56.876565, "Longitude": -3.595272, "Viewable": 1126.49 }, "geometry": { "type": "Point", "coordinates": [ -3.595272772876817, 56.876580400801124 ] } },
{ "type": "Feature", "properties": { "Number": 432, "Name": "Carn Bhac", "Classifica": "Ma,M,Mur", "Metres": 946.0, "Feet": 3104, "Grid Ref": "NO051832", "Xcoord": 305098, "Ycoord": 783255, "Latitude": 56.930809, "Longitude": -3.560989, "Viewable": 361.91 }, "geometry": { "type": "Point", "coordinates": [ -3.560991467184193, 56.930822972302352 ] } },
{ "type": "Feature", "properties": { "Number": 435, "Name": "The Cairnwell", "Classifica": "Hu,M,Mur", "Metres": 933.0, "Feet": 3061, "Grid Ref": "NO134773", "Xcoord": 313485, "Ycoord": 777375, "Latitude": 56.879646, "Longitude": -3.42122, "Viewable": 712.83 }, "geometry": { "type": "Point", "coordinates": [ -3.421224505647298, 56.879661507579669 ] } },
{ "type": "Feature", "properties": { "Number": 438, "Name": "Carn Aosda", "Classifica": "Hu,M,Mur", "Metres": 917.0, "Feet": 3009, "Grid Ref": "NO134791", "Xcoord": 313400, "Ycoord": 779100, "Latitude": 56.895126, "Longitude": -3.423207, "Viewable": 30.21 }, "geometry": { "type": "Point", "coordinates": [ -3.423207690095367, 56.89513718960864 ] } },
{ "type": "Feature", "properties": { "Number": 457, "Name": "Lochnagar - Cac Carn Beag", "Classifica": "Ma,M,Mur", "Metres": 1155.0, "Feet": 3789, "Grid Ref": "NO243861", "Xcoord": 324373, "Ycoord": 786139, "Latitude": 56.960263, "Longitude": -3.245244, "Viewable": 4178.17 }, "geometry": { "type": "Point", "coordinates": [ -3.245236420830211, 56.960277441300491 ] } },
{ "type": "Feature", "properties": { "Number": 459, "Name": "Carn a'Choire Bhoidheach", "Classifica": "M,Mur", "Metres": 1110.0, "Feet": 3642, "Grid Ref": "NO226845", "Xcoord": 322671, "Ycoord": 784557, "Latitude": 56.945773, "Longitude": -3.272724, "Viewable": 3021.53 }, "geometry": { "type": "Point", "coordinates": [ -3.272731923768839, 56.945787663282445 ] } },
{ "type": "Feature", "properties": { "Number": 461, "Name": "Glas Maol", "Classifica": "Ma,M,Mur,CoH,CoU", "Metres": 1068.0, "Feet": 3504, "Grid Ref": "NO166765", "Xcoord": 316699, "Ycoord": 776577, "Latitude": 56.873068, "Longitude": -3.368237, "Viewable": 1654.25 }, "geometry": { "type": "Point", "coordinates": [ -3.368242306779357, 56.873083554161347 ] } },
{ "type": "Feature", "properties": { "Number": 467, "Name": "Carn an Tuirc", "Classifica": "M,Mur", "Metres": 1019.0, "Feet": 3343, "Grid Ref": "NO174804", "Xcoord": 317400, "Ycoord": 780400, "Latitude": 56.907531, "Longitude": -3.357991, "Viewable": 165.14 }, "geometry": { "type": "Point", "coordinates": [ -3.35799075083474, 56.907542792050556 ] } },
{ "type": "Feature", "properties": { "Number": 468, "Name": "Cairn Bannoch", "Classifica": "M,Mur", "Metres": 1012.0, "Feet": 3320, "Grid Ref": "NO222825", "Xcoord": 322286, "Ycoord": 782554, "Latitude": 56.927719, "Longitude": -3.278435, "Viewable": 556.54 }, "geometry": { "type": "Point", "coordinates": [ -3.278442892067615, 56.927734013195526 ] } },
{ "type": "Feature", "properties": { "Number": 470, "Name": "Broad Cairn", "Classifica": "M,Mur", "Metres": 998.0, "Feet": 3274, "Grid Ref": "NO240815", "Xcoord": 324055, "Ycoord": 781569, "Latitude": 56.919166, "Longitude": -3.249083, "Viewable": 597.62 }, "geometry": { "type": "Point", "coordinates": [ -3.249091009378762, 56.919181335827261 ] } },
{ "type": "Feature", "properties": { "Number": 472, "Name": "Creag Leacach", "Classifica": "M,Mur", "Metres": 987.0, "Feet": 3238, "Grid Ref": "NO154745", "Xcoord": 315467, "Ycoord": 774549, "Latitude": 56.85464, "Longitude": -3.387768, "Viewable": 1466.22 }, "geometry": { "type": "Point", "coordinates": [ -3.387772742848489, 56.854647540038549 ] } },
{ "type": "Feature", "properties": { "Number": 525, "Name": "Cairn Gorm", "Classifica": "Hu,M,Mur,sMa", "Metres": 1244.0, "Feet": 4081, "Grid Ref": "NJ005040", "Xcoord": 300519, "Ycoord": 804067, "Latitude": 57.116732, "Longitude": -3.644428, "Viewable": 4038.33 }, "geometry": { "type": "Point", "coordinates": [ -3.644429601408166, 57.116742590420714 ] } },
{ "type": "Feature", "properties": { "Number": 621, "Name": "Carn Dearg", "Classifica": "Ma,M,Mur", "Metres": 945.0, "Feet": 3100, "Grid Ref": "NH635024", "Xcoord": 263569, "Ycoord": 802399, "Latitude": 57.09227, "Longitude": -4.25323, "Viewable": 408.7 }, "geometry": { "type": "Point", "coordinates": [ -4.253235872154809, 57.092288130695664 ] } },
{ "type": "Feature", "properties": { "Number": 623, "Name": "A'Chailleach", "Classifica": "Hu,M,Mur", "Metres": 930.0, "Feet": 3051, "Grid Ref": "NH681041", "Xcoord": 268109, "Ycoord": 804177, "Latitude": 57.109554, "Longitude": -4.179301, "Viewable": 511.57 }, "geometry": { "type": "Point", "coordinates": [ -4.179309096305816, 57.109572461021109 ] } },
{ "type": "Feature", "properties": { "Number": 624, "Name": "Geal Charn", "Classifica": "Hu,M,Mur", "Metres": 926.0, "Feet": 3038, "Grid Ref": "NN561987", "Xcoord": 256143, "Ycoord": 798769, "Latitude": 57.057427, "Longitude": -4.373589, "Viewable": 744.72 }, "geometry": { "type": "Point", "coordinates": [ -4.373592477792414, 57.057445526872527 ] } },
{ "type": "Feature", "properties": { "Number": 626, "Name": "Carn Sgulain", "Classifica": "M,Mur", "Metres": 920.0, "Feet": 3018, "Grid Ref": "NH682058", "Xcoord": 268299, "Ycoord": 805814, "Latitude": 57.124304, "Longitude": -4.177029, "Viewable": 751.7 }, "geometry": { "type": "Point", "coordinates": [ -4.177036814437611, 57.124321566980129 ] } },
{ "type": "Feature", "properties": { "Number": 658, "Name": "Creag Meagaidh", "Classifica": "Ma,M,Mur", "Metres": 1128.0, "Feet": 3701, "Grid Ref": "NN418875", "Xcoord": 241840, "Ycoord": 787549, "Latitude": 56.952051, "Longitude": -4.602102, "Viewable": 1986.23 }, "geometry": { "type": "Point", "coordinates": [ -4.602116508723091, 56.952070584197493 ] } },
{ "type": "Feature", "properties": { "Number": 663, "Name": "Beinn a'Chaorainn", "Classifica": "Ma,M,Mur", "Metres": 1052.0, "Feet": 3451, "Grid Ref": "NN386850", "Xcoord": 238606, "Ycoord": 785062, "Latitude": 56.928625, "Longitude": -4.653627, "Viewable": 154.92 }, "geometry": { "type": "Point", "coordinates": [ -4.65363965782816, 56.928636139923711 ] } },
{ "type": "Feature", "properties": { "Number": 668, "Name": "Carn Liath", "Classifica": "M,Mur", "Metres": 1006.0, "Feet": 3301, "Grid Ref": "NN472903", "Xcoord": 247200, "Ycoord": 790300, "Latitude": 56.978546, "Longitude": -4.515741, "Viewable": 389.74 }, "geometry": { "type": "Point", "coordinates": [ -4.515749107151332, 56.978561325611771 ] } },
{ "type": "Feature", "properties": { "Number": 675, "Name": "Beinn Teallach", "Classifica": "Ma,M,Mur,xC", "Metres": 914.6, "Feet": 3001, "Grid Ref": "NN361859", "Xcoord": 236136, "Ycoord": 785973, "Latitude": 56.935928, "Longitude": -4.69476, "Viewable": 217.8 }, "geometry": { "type": "Point", "coordinates": [ -4.694765725113984, 56.935943366948379 ] } },
{ "type": "Feature", "properties": { "Number": 683, "Name": "Gleouraich", "Classifica": "Ma,M,Mur", "Metres": 1035.0, "Feet": 3396, "Grid Ref": "NH039053", "Xcoord": 203944, "Ycoord": 805344, "Latitude": 57.097154, "Longitude": -5.238051, "Viewable": 782.44 }, "geometry": { "type": "Point", "coordinates": [ -5.23805329423944, 57.097169590440942 ] } },
{ "type": "Feature", "properties": { "Number": 684, "Name": "Sgurr a'Mhaoraich", "Classifica": "Ma,M,Mur", "Metres": 1027.0, "Feet": 3369, "Grid Ref": "NG983065", "Xcoord": 198392, "Ycoord": 806549, "Latitude": 57.105562, "Longitude": -5.330483, "Viewable": 745.69 }, "geometry": { "type": "Point", "coordinates": [ -5.330500235468167, 57.105577138489807 ] } },
{ "type": "Feature", "properties": { "Number": 685, "Name": "Aonach air Chrith", "Classifica": "Ma,M,Mur", "Metres": 1021.0, "Feet": 3350, "Grid Ref": "NH051083", "Xcoord": 205107, "Ycoord": 808345, "Latitude": 57.124564, "Longitude": -5.221224, "Viewable": 445.47 }, "geometry": { "type": "Point", "coordinates": [ -5.221226714062365, 57.124579193134139 ] } },
{ "type": "Feature", "properties": { "Number": 687, "Name": "Sgurr an Doire Leathain", "Classifica": "Ma,M,Mur", "Metres": 1010.0, "Feet": 3314, "Grid Ref": "NH015098", "Xcoord": 201524, "Ycoord": 809888, "Latitude": 57.136861, "Longitude": -5.28153, "Viewable": 193.85 }, "geometry": { "type": "Point", "coordinates": [ -5.281533107642182, 57.136884301410014 ] } },
{ "type": "Feature", "properties": { "Number": 688, "Name": "The Saddle", "Classifica": "Ma,M,Mur", "Metres": 1010.0, "Feet": 3314, "Grid Ref": "NG936131", "Xcoord": 193611, "Ycoord": 813122, "Latitude": 57.162375, "Longitude": -5.414697, "Viewable": 575.44 }, "geometry": { "type": "Point", "coordinates": [ -5.414713543894793, 57.162397895829351 ] } },
{ "type": "Feature", "properties": { "Number": 690, "Name": "Sgurr an Lochain", "Classifica": "Hu,M,Mur", "Metres": 1004.0, "Feet": 3294, "Grid Ref": "NH005104", "Xcoord": 200580, "Ycoord": 810421, "Latitude": 57.141232, "Longitude": -5.297527, "Viewable": 628.6 }, "geometry": { "type": "Point", "coordinates": [ -5.29752930314419, 57.141255588766676 ] } },
{ "type": "Feature", "properties": { "Number": 691, "Name": "Spidean Mialach", "Classifica": "Ma,M,Mur", "Metres": 996.0, "Feet": 3268, "Grid Ref": "NH065043", "Xcoord": 206591, "Ycoord": 804307, "Latitude": 57.088973, "Longitude": -5.193631, "Viewable": 751.29 }, "geometry": { "type": "Point", "coordinates": [ -5.193634747772929, 57.088988785001312 ] } },
{ "type": "Feature", "properties": { "Number": 692, "Name": "Druim Shionnach", "Classifica": "Hu,M,Mur", "Metres": 987.0, "Feet": 3238, "Grid Ref": "NH074084", "Xcoord": 207440, "Ycoord": 808483, "Latitude": 57.126785, "Longitude": -5.182857, "Viewable": 543.56 }, "geometry": { "type": "Point", "coordinates": [ -5.182860362688416, 57.12680015973276 ] } },
{ "type": "Feature", "properties": { "Number": 693, "Name": "Maol Chinn-dearg", "Classifica": "Hu,M,Mur", "Metres": 981.0, "Feet": 3219, "Grid Ref": "NH032087", "Xcoord": 203221, "Ycoord": 808766, "Latitude": 57.127537, "Longitude": -5.252655, "Viewable": 417.67 }, "geometry": { "type": "Point", "coordinates": [ -5.252657604725616, 57.127551502326554 ] } },
{ "type": "Feature", "properties": { "Number": 695, "Name": "Beinn Sgritheall", "Classifica": "Ma,M,Mur", "Metres": 974.0, "Feet": 3196, "Grid Ref": "NG835126", "Xcoord": 183590, "Ycoord": 812677, "Latitude": 57.153772, "Longitude": -5.579673, "Viewable": 651.73 }, "geometry": { "type": "Point", "coordinates": [ -5.579686501272197, 57.153794087152811 ] } },
{ "type": "Feature", "properties": { "Number": 700, "Name": "Creag a'Mhaim", "Classifica": "M,Mur", "Metres": 947.0, "Feet": 3107, "Grid Ref": "NH087077", "Xcoord": 208790, "Ycoord": 807771, "Latitude": 57.120962, "Longitude": -5.160047, "Viewable": 596.92 }, "geometry": { "type": "Point", "coordinates": [ -5.160051627464256, 57.120977554519065 ] } },
{ "type": "Feature", "properties": { "Number": 701, "Name": "Sgurr na Sgine", "Classifica": "Ma,M,Mur", "Metres": 946.0, "Feet": 3104, "Grid Ref": "NG946113", "Xcoord": 194617, "Ycoord": 811368, "Latitude": 57.147098, "Longitude": -5.39665, "Viewable": 102.14 }, "geometry": { "type": "Point", "coordinates": [ -5.396666966178255, 57.147120621384502 ] } },
{ "type": "Feature", "properties": { "Number": 708, "Name": "Creag nan Damh", "Classifica": "Ma,M,Mur", "Metres": 918.0, "Feet": 3012, "Grid Ref": "NG983112", "Xcoord": 198370, "Ycoord": 811201, "Latitude": 57.147263, "Longitude": -5.334597, "Viewable": 427.51 }, "geometry": { "type": "Point", "coordinates": [ -5.334614704455023, 57.147285864126303 ] } },
{ "type": "Feature", "properties": { "Number": 730, "Name": "Sgurr na Ciche", "Classifica": "Ma,M,Mur", "Metres": 1040.0, "Feet": 3412, "Grid Ref": "NM902966", "Xcoord": 190223, "Ycoord": 796684, "Latitude": 57.013452, "Longitude": -5.456854, "Viewable": 784.54 }, "geometry": { "type": "Point", "coordinates": [ -5.456867943712037, 57.013468069171836 ] } },
{ "type": "Feature", "properties": { "Number": 731, "Name": "Ladhar Bheinn", "Classifica": "Ma,M,Mur", "Metres": 1020.0, "Feet": 3346, "Grid Ref": "NG824039", "Xcoord": 182397, "Ycoord": 803983, "Latitude": 57.075262, "Longitude": -5.591794, "Viewable": 604.9 }, "geometry": { "type": "Point", "coordinates": [ -5.59180641096839, 57.075285515061069 ] } },
{ "type": "Feature", "properties": { "Number": 732, "Name": "Garbh Chioch Mhor", "Classifica": "Ma,M,Mur", "Metres": 1013.0, "Feet": 3323, "Grid Ref": "NM909961", "Xcoord": 190956, "Ycoord": 796099, "Latitude": 57.008538, "Longitude": -5.44432, "Viewable": 668.34 }, "geometry": { "type": "Point", "coordinates": [ -5.444334042425736, 57.008554876811409 ] } },
{ "type": "Feature", "properties": { "Number": 733, "Name": "Sgurr Mor", "Classifica": "Ma,M,Mur", "Metres": 1003.0, "Feet": 3291, "Grid Ref": "NM965980", "Xcoord": 196534, "Ycoord": 798039, "Latitude": 57.028428, "Longitude": -5.354204, "Viewable": 835.14 }, "geometry": { "type": "Point", "coordinates": [ -5.354220067571761, 57.028444089839631 ] } },
{ "type": "Feature", "properties": { "Number": 736, "Name": "Sgurr nan Coireachan", "Classifica": "Ma,M,Mur", "Metres": 953.0, "Feet": 3127, "Grid Ref": "NM933958", "Xcoord": 193308, "Ycoord": 795827, "Latitude": 57.007158, "Longitude": -5.40544, "Viewable": 486.25 }, "geometry": { "type": "Point", "coordinates": [ -5.405454425030401, 57.007174573810467 ] } },
{ "type": "Feature", "properties": { "Number": 739, "Name": "Luinne Bheinn", "Classifica": "Ma,M,Mur", "Metres": 939.0, "Feet": 3081, "Grid Ref": "NG869007", "Xcoord": 186984, "Ycoord": 800742, "Latitude": 57.048346, "Longitude": -5.513527, "Viewable": 721.34 }, "geometry": { "type": "Point", "coordinates": [ -5.513540504832743, 57.048370256974245 ] } },
{ "type": "Feature", "properties": { "Number": 741, "Name": "Gairich", "Classifica": "Ma,M,Mur", "Metres": 919.0, "Feet": 3015, "Grid Ref": "NN025995", "Xcoord": 202589, "Ycoord": 799581, "Latitude": 57.044888, "Longitude": -5.255844, "Viewable": 461.5 }, "geometry": { "type": "Point", "coordinates": [ -5.255845764915696, 57.044904334909674 ] } },
{ "type": "Feature", "properties": { "Number": 758, "Name": "Sron a'Choire Ghairbh", "Classifica": "Ma,M,Mur", "Metres": 937.0, "Feet": 3074, "Grid Ref": "NN222945", "Xcoord": 222246, "Ycoord": 794562, "Latitude": 57.007857, "Longitude": -4.928764, "Viewable": 576.0 }, "geometry": { "type": "Point", "coordinates": [ -4.928772590803275, 57.007875388168287 ] } },
{ "type": "Feature", "properties": { "Number": 759, "Name": "Meall na Teanga", "Classifica": "Ma,M,Mur", "Metres": 918.0, "Feet": 3012, "Grid Ref": "NN220924", "Xcoord": 222024, "Ycoord": 792482, "Latitude": 56.989111, "Longitude": -4.930946, "Viewable": 384.22 }, "geometry": { "type": "Point", "coordinates": [ -4.930954225081162, 56.98912923124923 ] } },
{ "type": "Feature", "properties": { "Number": 773, "Name": "Gulvain [Gaor Bheinn]", "Classifica": "Ma,M,Mur", "Metres": 987.0, "Feet": 3238, "Grid Ref": "NN002875", "Xcoord": 200267, "Ycoord": 787572, "Latitude": 56.936184, "Longitude": -5.284525, "Viewable": 866.62 }, "geometry": { "type": "Point", "coordinates": [ -5.284541540899108, 56.93620256284256 ] } },
{ "type": "Feature", "properties": { "Number": 774, "Name": "Sgurr Thuilm", "Classifica": "Ma,M,Mur", "Metres": 963.0, "Feet": 3159, "Grid Ref": "NM939879", "Xcoord": 193904, "Ycoord": 787980, "Latitude": 56.937055, "Longitude": -5.38924, "Viewable": 637.61 }, "geometry": { "type": "Point", "coordinates": [ -5.389254862406088, 56.937072930374448 ] } },
{ "type": "Feature", "properties": { "Number": 776, "Name": "Sgurr nan Coireachan", "Classifica": "Ma,M,Mur", "Metres": 956.0, "Feet": 3136, "Grid Ref": "NM902880", "Xcoord": 190289, "Ycoord": 788013, "Latitude": 56.935728, "Longitude": -5.448568, "Viewable": 804.3 }, "geometry": { "type": "Point", "coordinates": [ -5.448581354506793, 56.935745677922213 ] } },
{ "type": "Feature", "properties": { "Number": 803, "Name": "Carn Eige [Carn Eighe]", "Classifica": "Ma,M,Mur,CoH", "Metres": 1183.0, "Feet": 3881, "Grid Ref": "NH123261", "Xcoord": 212357, "Ycoord": 826197, "Latitude": 57.287702, "Longitude": -5.115126, "Viewable": 2895.56 }, "geometry": { "type": "Point", "coordinates": [ -5.115133233590298, 57.28772302799166 ] } },
{ "type": "Feature", "properties": { "Number": 804, "Name": "Mam Sodhail", "Classifica": "Hu,M,Mur", "Metres": 1181.0, "Feet": 3875, "Grid Ref": "NH119253", "Xcoord": 211962, "Ycoord": 825351, "Latitude": 57.279951, "Longitude": -5.121026, "Viewable": 3011.5 }, "geometry": { "type": "Point", "coordinates": [ -5.121033309424234, 57.279972431026664 ] } },
{ "type": "Feature", "properties": { "Number": 805, "Name": "Sgurr nan Ceathreamhnan", "Classifica": "Ma,M,Mur", "Metres": 1151.0, "Feet": 3776, "Grid Ref": "NH057228", "Xcoord": 205702, "Ycoord": 822850, "Latitude": 57.254902, "Longitude": -5.222731, "Viewable": 1704.29 }, "geometry": { "type": "Point", "coordinates": [ -5.222735447767367, 57.254923228088394 ] } },
{ "type": "Feature", "properties": { "Number": 810, "Name": "Tom a'Choinich", "Classifica": "Hu,M,Mur,sMa", "Metres": 1112.0, "Feet": 3648, "Grid Ref": "NH164273", "Xcoord": 216403, "Ycoord": 827335, "Latitude": 57.299554, "Longitude": -5.048945, "Viewable": 1682.74 }, "geometry": { "type": "Point", "coordinates": [ -5.048953904304225, 57.299575067005392 ] } },
{ "type": "Feature", "properties": { "Number": 815, "Name": "Sgurr Fhuaran", "Classifica": "Ma,M,Mur", "Metres": 1067.0, "Feet": 3501, "Grid Ref": "NG978166", "Xcoord": 197847, "Ycoord": 816679, "Latitude": 57.196158, "Longitude": -5.347684, "Viewable": 578.1 }, "geometry": { "type": "Point", "coordinates": [ -5.347685883393633, 57.1961807850534 ] } },
{ "type": "Feature", "properties": { "Number": 818, "Name": "Toll Creagach", "Classifica": "Ma,M,Mur", "Metres": 1054.0, "Feet": 3458, "Grid Ref": "NH194282", "Xcoord": 219401, "Ycoord": 828280, "Latitude": 57.309227, "Longitude": -4.999953, "Viewable": 1278.57 }, "geometry": { "type": "Point", "coordinates": [ -4.99996269918986, 57.309247837009487 ] } },
{ "type": "Feature", "properties": { "Number": 821, "Name": "Sgurr a'Bhealaich Dheirg", "Classifica": "Ma,M,Mur", "Metres": 1036.0, "Feet": 3399, "Grid Ref": "NH035143", "Xcoord": 203517, "Ycoord": 814362, "Latitude": 57.177843, "Longitude": -5.252178, "Viewable": 217.64 }, "geometry": { "type": "Point", "coordinates": [ -5.252182029466973, 57.177866092133748 ] } },
{ "type": "Feature", "properties": { "Number": 823, "Name": "Beinn Fhada", "Classifica": "Ma,M,Mur", "Metres": 1032.0, "Feet": 3386, "Grid Ref": "NH018192", "Xcoord": 201855, "Ycoord": 819253, "Latitude": 57.220993, "Longitude": -5.283518, "Viewable": 640.08 }, "geometry": { "type": "Point", "coordinates": [ -5.28352152427922, 57.221014710554655 ] } },
{ "type": "Feature", "properties": { "Number": 825, "Name": "Sgurr na Ciste Duibhe", "Classifica": "Ma,M,Mur", "Metres": 1027.0, "Feet": 3369, "Grid Ref": "NG984149", "Xcoord": 198398, "Ycoord": 814952, "Latitude": 57.180914, "Longitude": -5.337167, "Viewable": 697.45 }, "geometry": { "type": "Point", "coordinates": [ -5.337185016470358, 57.18093619951275 ] } },
{ "type": "Feature", "properties": { "Number": 827, "Name": "Sgurr na Carnach", "Classifica": "Hu,M,Mur", "Metres": 1002.0, "Feet": 3287, "Grid Ref": "NG977158", "Xcoord": 197714, "Ycoord": 815890, "Latitude": 57.189024, "Longitude": -5.34924, "Viewable": 126.99 }, "geometry": { "type": "Point", "coordinates": [ -5.349241856687399, 57.189046695346953 ] } },
{ "type": "Feature", "properties": { "Number": 828, "Name": "Aonach Meadhoin", "Classifica": "Ma,M,Mur", "Metres": 1001.0, "Feet": 3284, "Grid Ref": "NH048137", "Xcoord": 204885, "Ycoord": 813766, "Latitude": 57.173082, "Longitude": -5.229121, "Viewable": 409.02 }, "geometry": { "type": "Point", "coordinates": [ -5.229124703663191, 57.173104622020162 ] } },
{ "type": "Feature", "properties": { "Number": 833, "Name": "Mullach na Dheiragain", "Classifica": "Hu,M,Mur,sMa", "Metres": 982.0, "Feet": 3222, "Grid Ref": "NH080259", "Xcoord": 208044, "Ycoord": 825917, "Latitude": 57.283399, "Longitude": -5.18635, "Viewable": 367.65 }, "geometry": { "type": "Point", "coordinates": [ -5.186355356294624, 57.283419846162566 ] } },
{ "type": "Feature", "properties": { "Number": 834, "Name": "Ciste Dhubh", "Classifica": "Ma,M,Mur", "Metres": 979.0, "Feet": 3212, "Grid Ref": "NH062166", "Xcoord": 206238, "Ycoord": 816619, "Latitude": 57.199244, "Longitude": -5.209, "Viewable": 144.54 }, "geometry": { "type": "Point", "coordinates": [ -5.20900410939186, 57.199266152669345 ] } },
{ "type": "Feature", "properties": { "Number": 839, "Name": "Saileag", "Classifica": "M,Mur,sHu", "Metres": 956.0, "Feet": 3136, "Grid Ref": "NH017148", "Xcoord": 201774, "Ycoord": 814827, "Latitude": 57.181264, "Longitude": -5.281331, "Viewable": 319.65 }, "geometry": { "type": "Point", "coordinates": [ -5.281334024352797, 57.181286510800334 ] } },
{ "type": "Feature", "properties": { "Number": 845, "Name": "An Socach", "Classifica": "Hu,M,Mur", "Metres": 921.0, "Feet": 3022, "Grid Ref": "NH088230", "Xcoord": 208817, "Ycoord": 822998, "Latitude": 57.257542, "Longitude": -5.171294, "Viewable": 114.43 }, "geometry": { "type": "Point", "coordinates": [ -5.171299571326306, 57.257563279021575 ] } },
{ "type": "Feature", "properties": { "Number": 846, "Name": "A'Ghlas-bheinn", "Classifica": "Ma,M,Mur", "Metres": 918.0, "Feet": 3012, "Grid Ref": "NH008231", "Xcoord": 200823, "Ycoord": 823104, "Latitude": 57.255081, "Longitude": -5.30367, "Viewable": 213.34 }, "geometry": { "type": "Point", "coordinates": [ -5.303672923461921, 57.25510267510996 ] } },
{ "type": "Feature", "properties": { "Number": 862, "Name": "A'Chralaig", "Classifica": "Ma,M,Mur", "Metres": 1120.0, "Feet": 3675, "Grid Ref": "NH094148", "Xcoord": 209428, "Ycoord": 814798, "Latitude": 57.184247, "Longitude": -5.154892, "Viewable": 2466.1 }, "geometry": { "type": "Point", "coordinates": [ -5.154897389436341, 57.184270428988732 ] } },
{ "type": "Feature", "properties": { "Number": 863, "Name": "Sgurr nan Conbhairean", "Classifica": "Ma,M,Mur", "Metres": 1109.0, "Feet": 3638, "Grid Ref": "NH129138", "Xcoord": 212987, "Ycoord": 813895, "Latitude": 57.177613, "Longitude": -5.095423, "Viewable": 2040.27 }, "geometry": { "type": "Point", "coordinates": [ -5.095429910164079, 57.177635755371234 ] } },
{ "type": "Feature", "properties": { "Number": 864, "Name": "Mullach Fraoch-choire", "Classifica": "Ma,M,Mur", "Metres": 1102.0, "Feet": 3615, "Grid Ref": "NH094171", "Xcoord": 209489, "Ycoord": 817160, "Latitude": 57.205459, "Longitude": -5.155692, "Viewable": 912.72 }, "geometry": { "type": "Point", "coordinates": [ -5.155697925863062, 57.20548129632396 ] } },
{ "type": "Feature", "properties": { "Number": 867, "Name": "Sail Chaorainn [Sail Chaoruinn]", "Classifica": "M,Mur", "Metres": 1002.0, "Feet": 3287, "Grid Ref": "NH133154", "Xcoord": 213320, "Ycoord": 815462, "Latitude": 57.191804, "Longitude": -5.091098, "Viewable": 620.41 }, "geometry": { "type": "Point", "coordinates": [ -5.091104825833557, 57.191827190307038 ] } },
{ "type": "Feature", "properties": { "Number": 871, "Name": "Carn Ghluasaid", "Classifica": "M,Mur", "Metres": 957.0, "Feet": 3140, "Grid Ref": "NH145125", "Xcoord": 214575, "Ycoord": 812522, "Latitude": 57.16595, "Longitude": -5.068174, "Viewable": 762.16 }, "geometry": { "type": "Point", "coordinates": [ -5.068180892739016, 57.165964472433288 ] } },
{ "type": "Feature", "properties": { "Number": 890, "Name": "Maoile Lunndaidh", "Classifica": "Ma,M,Mur", "Metres": 1005.0, "Feet": 3297, "Grid Ref": "NH135458", "Xcoord": 213518, "Ycoord": 845867, "Latitude": 57.464611, "Longitude": -5.110808, "Viewable": 794.99 }, "geometry": { "type": "Point", "coordinates": [ -5.110816984798627, 57.464628440928188 ] } },
{ "type": "Feature", "properties": { "Number": 896, "Name": "Lurg Mhor", "Classifica": "Ma,M,Mur", "Metres": 987.0, "Feet": 3238, "Grid Ref": "NH064404", "Xcoord": 206481, "Ycoord": 840451, "Latitude": 57.413091, "Longitude": -5.22365, "Viewable": 719.86 }, "geometry": { "type": "Point", "coordinates": [ -5.223655686828506, 57.413109377063648 ] } },
{ "type": "Feature", "properties": { "Number": 926, "Name": "Sgurr na Lapaich", "Classifica": "Ma,M,Mur", "Metres": 1150.0, "Feet": 3773, "Grid Ref": "NH160351", "Xcoord": 216102, "Ycoord": 835126, "Latitude": 57.369319, "Longitude": -5.059743, "Viewable": 2551.19 }, "geometry": { "type": "Point", "coordinates": [ -5.05975181485052, 57.369338804802695 ] } },
{ "type": "Feature", "properties": { "Number": 927, "Name": "An Riabhachan", "Classifica": "Ma,M,Mur", "Metres": 1129.0, "Feet": 3704, "Grid Ref": "NH133344", "Xcoord": 213363, "Ycoord": 834483, "Latitude": 57.362438, "Longitude": -5.104728, "Viewable": 1005.62 }, "geometry": { "type": "Point", "coordinates": [ -5.104736295532149, 57.362457125191391 ] } },
{ "type": "Feature", "properties": { "Number": 936, "Name": "Carn nan Gobhar", "Classifica": "Ma,M,Mur", "Metres": 993.0, "Feet": 3258, "Grid Ref": "NH181343", "Xcoord": 218188, "Ycoord": 834362, "Latitude": 57.363304, "Longitude": -5.024544, "Viewable": 1464.98 }, "geometry": { "type": "Point", "coordinates": [ -5.024553927647769, 57.363323225569012 ] } },
{ "type": "Feature", "properties": { "Number": 955, "Name": "Beinn Eighe - Ruadh-stac Mor", "Classifica": "Ma,M,Mur", "Metres": 1010.0, "Feet": 3314, "Grid Ref": "NG951611", "Xcoord": 195142, "Ycoord": 861151, "Latitude": 57.593726, "Longitude": -5.429453, "Viewable": 1029.43 }, "geometry": { "type": "Point", "coordinates": [ -5.4294570723097, 57.593748493508556 ] } },
{ "type": "Feature", "properties": { "Number": 956, "Name": "Beinn Eighe - Spidean Coire nan Clach", "Classifica": "Ma,M,Mur", "Metres": 993.0, "Feet": 3258, "Grid Ref": "NG966597", "Xcoord": 196615, "Ycoord": 859780, "Latitude": 57.582098, "Longitude": -5.403706, "Viewable": 625.99 }, "geometry": { "type": "Point", "coordinates": [ -5.403710261342403, 57.582121282610728 ] } },
{ "type": "Feature", "properties": { "Number": 1003, "Name": "An Teallach - Bidein a'Ghlas Thuill", "Classifica": "Ma,M,Mur", "Metres": 1062.0, "Feet": 3484, "Grid Ref": "NH069843", "Xcoord": 206899, "Ycoord": 884372, "Latitude": 57.807153, "Longitude": -5.251721, "Viewable": 1629.76 }, "geometry": { "type": "Point", "coordinates": [ -5.251730197609828, 57.807171838301372 ] } },
{ "type": "Feature", "properties": { "Number": 1004, "Name": "An Teallach - Sgurr Fiona", "Classifica": "Hu,M,Mur,sMa", "Metres": 1060.0, "Feet": 3478, "Grid Ref": "NH064836", "Xcoord": 206407, "Ycoord": 883678, "Latitude": 57.800717, "Longitude": -5.259425, "Viewable": 399.64 }, "geometry": { "type": "Point", "coordinates": [ -5.259433755465578, 57.80073595909947 ] } },
{ "type": "Feature", "properties": { "Number": 1007, "Name": "Mullach Coire Mhic Fhearchair", "Classifica": "Ma,M,Mur", "Metres": 1018.0, "Feet": 3340, "Grid Ref": "NH052735", "Xcoord": 205202, "Ycoord": 873506, "Latitude": 57.708976, "Longitude": -5.271405, "Viewable": 1072.93 }, "geometry": { "type": "Point", "coordinates": [ -5.271413220520044, 57.708996630453591 ] } },
{ "type": "Feature", "properties": { "Number": 1009, "Name": "Sgurr Ban", "Classifica": "Ma,M,Mur", "Metres": 989.0, "Feet": 3245, "Grid Ref": "NH055745", "Xcoord": 205579, "Ycoord": 874553, "Latitude": 57.718528, "Longitude": -5.265935, "Viewable": 1161.73 }, "geometry": { "type": "Point", "coordinates": [ -5.265943204964962, 57.718548920403421 ] } },
{ "type": "Feature", "properties": { "Number": 1014, "Name": "A'Mhaighdean", "Classifica": "Ma,M,Mur", "Metres": 967.0, "Feet": 3173, "Grid Ref": "NH007749", "Xcoord": 200773, "Ycoord": 874917, "Latitude": 57.719688, "Longitude": -5.346774, "Viewable": 1137.96 }, "geometry": { "type": "Point", "coordinates": [ -5.346780781494364, 57.719707900285158 ] } },
{ "type": "Feature", "properties": { "Number": 1019, "Name": "Beinn Tarsuinn", "Classifica": "Ma,M,Mur", "Metres": 937.0, "Feet": 3074, "Grid Ref": "NH039728", "Xcoord": 203962, "Ycoord": 872800, "Latitude": 57.702106, "Longitude": -5.291605, "Viewable": 771.65 }, "geometry": { "type": "Point", "coordinates": [ -5.291612790443371, 57.702126617737107 ] } },
{ "type": "Feature", "properties": { "Number": 1023, "Name": "Ruadh Stac Mor", "Classifica": "Ma,M,Mur", "Metres": 918.7, "Feet": 3014, "Grid Ref": "NH018756", "Xcoord": 201853, "Ycoord": 875655, "Latitude": 57.726783, "Longitude": -5.329288, "Viewable": 797.71 }, "geometry": { "type": "Point", "coordinates": [ -5.329290492984533, 57.726803097811434 ] } },
{ "type": "Feature", "properties": { "Number": 1041, "Name": "Sgurr nan Clach Geala", "Classifica": "Ma,M,Mur", "Metres": 1093.0, "Feet": 3586, "Grid Ref": "NH184714", "Xcoord": 218428, "Ycoord": 871474, "Latitude": 57.696287, "Longitude": -5.048238, "Viewable": 1006.71 }, "geometry": { "type": "Point", "coordinates": [ -5.04824994433955, 57.696308253293921 ] } },
{ "type": "Feature", "properties": { "Number": 1050, "Name": "Fionn Bheinn", "Classifica": "Ma,M,Mur", "Metres": 933.0, "Feet": 3061, "Grid Ref": "NH147621", "Xcoord": 214749, "Ycoord": 862149, "Latitude": 57.611148, "Longitude": -5.102713, "Viewable": 1003.33 }, "geometry": { "type": "Point", "coordinates": [ -5.102723237832324, 57.611171219653755 ] } },
{ "type": "Feature", "properties": { "Number": 1062, "Name": "Beinn Dearg", "Classifica": "Ma,M,Mur", "Metres": 1084.0, "Feet": 3556, "Grid Ref": "NH259811", "Xcoord": 225932, "Ycoord": 881182, "Latitude": 57.78634, "Longitude": -4.929573, "Viewable": 1400.92 }, "geometry": { "type": "Point", "coordinates": [ -4.929572026666585, 57.786360653826499 ] } },
{ "type": "Feature", "properties": { "Number": 1063, "Name": "Cona' Mheall", "Classifica": "Ma,M,Mur", "Metres": 978.0, "Feet": 3209, "Grid Ref": "NH275816", "Xcoord": 227512, "Ycoord": 881640, "Latitude": 57.79106, "Longitude": -4.903366, "Viewable": 645.05 }, "geometry": { "type": "Point", "coordinates": [ -4.903365044592612, 57.79108011233928 ] } },
{ "type": "Feature", "properties": { "Number": 1066, "Name": "Am Faochagach", "Classifica": "Ma,M,Mur", "Metres": 953.0, "Feet": 3127, "Grid Ref": "NH303793", "Xcoord": 230361, "Ycoord": 879372, "Latitude": 57.771801, "Longitude": -4.853899, "Viewable": 1092.05 }, "geometry": { "type": "Point", "coordinates": [ -4.853899102655233, 57.771821792047341 ] } },
{ "type": "Feature", "properties": { "Number": 1069, "Name": "Seana Bhraigh", "Classifica": "Ma,M,Mur", "Metres": 926.0, "Feet": 3038, "Grid Ref": "NH281878", "Xcoord": 228180, "Ycoord": 887883, "Latitude": 57.847321, "Longitude": -4.896636, "Viewable": 1392.35 }, "geometry": { "type": "Point", "coordinates": [ -4.896635523571217, 57.847340104020759 ] } },
{ "type": "Feature", "properties": { "Number": 1088, "Name": "Ben Wyvis - Glas Leathad Mor", "Classifica": "Ma,M,Mur", "Metres": 1046.0, "Feet": 3432, "Grid Ref": "NH462683", "Xcoord": 246295, "Ycoord": 868377, "Latitude": 57.678895, "Longitude": -4.579282, "Viewable": 3059.04 }, "geometry": { "type": "Point", "coordinates": [ -4.579285998528604, 57.678909576503514 ] } },
{ "type": "Feature", "properties": { "Number": 1239, "Name": "Sgurr Alasdair", "Classifica": "Ma,M,Mur", "Metres": 992.0, "Feet": 3255, "Grid Ref": "NG450207", "Xcoord": 145000, "Ycoord": 820786, "Latitude": 57.206615, "Longitude": -6.224179, "Viewable": 996.91 }, "geometry": { "type": "Point", "coordinates": [ -6.224196834379231, 57.206642764740174 ] } },
{ "type": "Feature", "properties": { "Number": 1240, "Name": "Sgurr Dearg - Inaccessible Pinnacle", "Classifica": "Ma,M,Mur", "Metres": 986.0, "Feet": 3235, "Grid Ref": "NG444215", "Xcoord": 144404, "Ycoord": 821566, "Latitude": 57.21327, "Longitude": -6.234819, "Viewable": 1131.99 }, "geometry": { "type": "Point", "coordinates": [ -6.234836952918991, 57.213298385197938 ] } },
{ "type": "Feature", "properties": { "Number": 1245, "Name": "Sgurr na Banachdich", "Classifica": "Hu,M,Mur", "Metres": 965.0, "Feet": 3166, "Grid Ref": "NG440224", "Xcoord": 144045, "Ycoord": 822449, "Latitude": 57.22098, "Longitude": -6.241655, "Viewable": 1311.12 }, "geometry": { "type": "Point", "coordinates": [ -6.241673313197476, 57.221008202191491 ] } },
{ "type": "Feature", "properties": { "Number": 1247, "Name": "Bruach na Frithe", "Classifica": "Hu,M,Mur", "Metres": 958.0, "Feet": 3143, "Grid Ref": "NG460251", "Xcoord": 146084, "Ycoord": 825201, "Latitude": 57.24677, "Longitude": -6.210796, "Viewable": 1777.84 }, "geometry": { "type": "Point", "coordinates": [ -6.210814244546882, 57.24679693648681 ] } },
{ "type": "Feature", "properties": { "Number": 1248, "Name": "Sgurr Mhic Choinnich", "Classifica": "M,Mur", "Metres": 948.0, "Feet": 3110, "Grid Ref": "NG450210", "Xcoord": 145022, "Ycoord": 821047, "Latitude": 57.208965, "Longitude": -6.224083, "Viewable": 546.67 }, "geometry": { "type": "Point", "coordinates": [ -6.224101189907483, 57.20899317148416 ] } },
{ "type": "Feature", "properties": { "Number": 1250, "Name": "Sgurr Dubh Mor", "Classifica": "M,Mur", "Metres": 944.0, "Feet": 3097, "Grid Ref": "NG457205", "Xcoord": 145758, "Ycoord": 820547, "Latitude": 57.204894, "Longitude": -6.211421, "Viewable": 1258.94 }, "geometry": { "type": "Point", "coordinates": [ -6.211439471605518, 57.204922670482887 ] } },
{ "type": "Feature", "properties": { "Number": 1254, "Name": "Am Basteir", "Classifica": "M,Mur", "Metres": 934.0, "Feet": 3064, "Grid Ref": "NG465253", "Xcoord": 146561, "Ycoord": 825302, "Latitude": 57.247939, "Longitude": -6.203016, "Viewable": 725.87 }, "geometry": { "type": "Point", "coordinates": [ -6.203034407648706, 57.247966132074126 ] } },
{ "type": "Feature", "properties": { "Number": 1255, "Name": "Bla Bheinn [Blaven] [Blabheinn]", "Classifica": "Ma,M,Mur", "Metres": 928.0, "Feet": 3045, "Grid Ref": "NG529217", "Xcoord": 152989, "Ycoord": 821747, "Latitude": 57.2196, "Longitude": -6.093231, "Viewable": 1598.89 }, "geometry": { "type": "Point", "coordinates": [ -6.093251473052459, 57.219628129565656 ] } },
{ "type": "Feature", "properties": { "Number": 1258, "Name": "Sgurr nan Eag", "Classifica": "Hu,M,Mur", "Metres": 924.0, "Feet": 3031, "Grid Ref": "NG457195", "Xcoord": 145708, "Ycoord": 819538, "Latitude": 57.195827, "Longitude": -6.211216, "Viewable": 1033.51 }, "geometry": { "type": "Point", "coordinates": [ -6.211233880634439, 57.195855655572203 ] } },
{ "type": "Feature", "properties": { "Number": 1259, "Name": "Sgurr a'Mhadaidh", "Classifica": "M,Mur", "Metres": 918.0, "Feet": 3012, "Grid Ref": "NG446235", "Xcoord": 144699, "Ycoord": 823509, "Latitude": 57.230841, "Longitude": -6.231944, "Viewable": 1366.86 }, "geometry": { "type": "Point", "coordinates": [ -6.231962290552693, 57.230868988475251 ] } },
{ "type": "Feature", "properties": { "Number": 1301, "Name": "Ben More", "Classifica": "Ma,M,Mur", "Metres": 966.0, "Feet": 3169, "Grid Ref": "NM525330", "Xcoord": 152575, "Ycoord": 733078, "Latitude": 56.424828, "Longitude": -6.014032, "Viewable": 1694.32 }, "geometry": { "type": "Point", "coordinates": [ -6.014061352581966, 56.424845962354034 ] } }
]
}
