{
"type": "FeatureCollection",
"crs": { "type": "name", "properties": { "name": "urn:ogc:def:crs:OGC:1.3:CRS84" } },
                                                                                
"features": [
{ "type": "Feature", "properties": { "Number": 31, "Name": "An Caisteal", "Classifica": "Ma,M,Mur", "Metres": 995.0, "Feet": 3264, "Grid Ref": "NN378193", "Xcoord": 237873, "Ycoord": 719345, "Latitude": 56.338618, "Longitude": -4.62437, "Viewable": 1717.21 }, "geometry": { "type": "Point", "coordinates": [ -4.624377236134579, 56.338624251970657 ] } },
{ "type": "Feature", "properties": { "Number": 65, "Name": "Ben Lui [Beinn Laoigh]", "Classifica": "Ma,M,Mur", "Metres": 1130.0, "Feet": 3707, "Grid Ref": "NN266263", "Xcoord": 226635, "Ycoord": 726297, "Latitude": 56.397013, "Longitude": -4.81051, "Viewable": 3782.59 }, "geometry": { "type": "Point", "coordinates": [ -4.81053058075227, 56.39702582631709 ] } },
{ "type": "Feature", "properties": { "Number": 67, "Name": "Ben Oss", "Classifica": "Ma,M,Mur", "Metres": 1029.0, "Feet": 3376, "Grid Ref": "NN287253", "Xcoord": 228761, "Ycoord": 725347, "Latitude": 56.389263, "Longitude": -4.775488, "Viewable": 1445.66 }, "geometry": { "type": "Point", "coordinates": [ -4.775509457776855, 56.389276301083441 ] } },
{ "type": "Feature", "properties": { "Number": 70, "Name": "Beinn Bhuidhe", "Classifica": "Ma,M,Mur", "Metres": 948.0, "Feet": 3110, "Grid Ref": "NN203187", "Xcoord": 220369, "Ycoord": 718722, "Latitude": 56.326704, "Longitude": -4.90671, "Viewable": 1380.77 }, "geometry": { "type": "Point", "coordinates": [ -4.906728470563254, 56.326718033585649 ] } },
{ "type": "Feature", "properties": { "Number": 71, "Name": "Ben Vorlich", "Classifica": "Ma,M,Mur,CoH", "Metres": 943.0, "Feet": 3094, "Grid Ref": "NN295124", "Xcoord": 229509, "Ycoord": 712475, "Latitude": 56.27403, "Longitude": -4.755047, "Viewable": 1094.11 }, "geometry": { "type": "Point", "coordinates": [ -4.755067535252079, 56.274036411876125 ] } },
{ "type": "Feature", "properties": { "Number": 75, "Name": "Beinn a'Chleibh", "Classifica": "Hu,M,Mur,sMa", "Metres": 916.3, "Feet": 3006, "Grid Ref": "NN250256", "Xcoord": 225054, "Ycoord": 725606, "Latitude": 56.390231, "Longitude": -4.835634, "Viewable": 674.28 }, "geometry": { "type": "Point", "coordinates": [ -4.835650055329889, 56.390242652383144 ] } },
{ "type": "Feature", "properties": { "Number": 76, "Name": "Ben Vane", "Classifica": "Ma,M,Mur", "Metres": 915.76, "Feet": 3004, "Grid Ref": "NN277098", "Xcoord": 227754, "Ycoord": 709843, "Latitude": 56.249777, "Longitude": -4.781638, "Viewable": 1686.11 }, "geometry": { "type": "Point", "coordinates": [ -4.781658370233979, 56.249784025496517 ] } },
{ "type": "Feature", "properties": { "Number": 103, "Name": "Schiehallion", "Classifica": "Ma,M,Mur", "Metres": 1083.0, "Feet": 3553, "Grid Ref": "NN713547", "Xcoord": 271393, "Ycoord": 754756, "Latitude": 56.666828, "Longitude": -4.100076, "Viewable": 1237.27 }, "geometry": { "type": "Point", "coordinates": [ -4.100081581565044, 56.666837133441902 ] } },
{ "type": "Feature", "properties": { "Number": 104, "Name": "Beinn a'Chreachain", "Classifica": "Ma,M,Mur", "Metres": 1081.0, "Feet": 3547, "Grid Ref": "NN373440", "Xcoord": 237389, "Ycoord": 744075, "Latitude": 56.560387, "Longitude": -4.647589, "Viewable": 1044.86 }, "geometry": { "type": "Point", "coordinates": [ -4.647598463275189, 56.560397108836888 ] } },
{ "type": "Feature", "properties": { "Number": 107, "Name": "Carn Mairg", "Classifica": "Ma,M,Mur", "Metres": 1041.0, "Feet": 3415, "Grid Ref": "NN684512", "Xcoord": 268400, "Ycoord": 751200, "Latitude": 56.634069, "Longitude": -4.147057, "Viewable": 512.17 }, "geometry": { "type": "Point", "coordinates": [ -4.147063802322598, 56.634080576322447 ] } },
{ "type": "Feature", "properties": { "Number": 108, "Name": "Beinn Achaladair", "Classifica": "Ma,M,Mur", "Metres": 1038.0, "Feet": 3406, "Grid Ref": "NN346433", "Xcoord": 234600, "Ycoord": 743300, "Latitude": 56.552454, "Longitude": -4.692417, "Viewable": 406.94 }, "geometry": { "type": "Point", "coordinates": [ -4.692430335326931, 56.552468136667706 ] } },
{ "type": "Feature", "properties": { "Number": 112, "Name": "Beinn an Dothaidh", "Classifica": "Ma,M,Mur", "Metres": 1004.0, "Feet": 3294, "Grid Ref": "NN331408", "Xcoord": 233100, "Ycoord": 740800, "Latitude": 56.529489, "Longitude": -4.715181, "Viewable": 377.06 }, "geometry": { "type": "Point", "coordinates": [ -4.715195049676126, 56.529503044917327 ] } },
{ "type": "Feature", "properties": { "Number": 115, "Name": "Meall na Aighean", "Classifica": "Hu,M,Mur", "Metres": 981.0, "Feet": 3219, "Grid Ref": "NN694496", "Xcoord": 269400, "Ycoord": 749600, "Latitude": 56.619985, "Longitude": -4.129957, "Viewable": 426.25 }, "geometry": { "type": "Point", "coordinates": [ -4.129964132743359, 56.61999656717358 ] } },
{ "type": "Feature", "properties": { "Number": 118, "Name": "Meall Garbh", "Classifica": "Hu,M,Mur", "Metres": 968.0, "Feet": 3176, "Grid Ref": "NN647517", "Xcoord": 264700, "Ycoord": 751700, "Latitude": 56.637502, "Longitude": -4.207589, "Viewable": 95.88 }, "geometry": { "type": "Point", "coordinates": [ -4.207596570567766, 56.637514345100598 ] } },
{ "type": "Feature", "properties": { "Number": 122, "Name": "Beinn Mhanach", "Classifica": "Ma,M,Mur", "Metres": 953.0, "Feet": 3127, "Grid Ref": "NN373411", "Xcoord": 237369, "Ycoord": 741138, "Latitude": 56.534022, "Longitude": -4.646074, "Viewable": 462.03 }, "geometry": { "type": "Point", "coordinates": [ -4.646082759318204, 56.534032709240158 ] } },
{ "type": "Feature", "properties": { "Number": 141, "Name": "Ben Lawers", "Classifica": "Ma,M,Mur,CoH,CoU,CoA", "Metres": 1214.0, "Feet": 3983, "Grid Ref": "NN635414", "Xcoord": 263551, "Ycoord": 741423, "Latitude": 56.544912, "Longitude": -4.220892, "Viewable": 5284.86 }, "geometry": { "type": "Point", "coordinates": [ -4.220893941012826, 56.544923728277958 ] } },
{ "type": "Feature", "properties": { "Number": 142, "Name": "An Stuc", "Classifica": "Ma=,Hu,M,Mur", "Metres": 1118.0, "Feet": 3668, "Grid Ref": "NN638430", "Xcoord": 263875, "Ycoord": 743089, "Latitude": 56.559962, "Longitude": -4.216501, "Viewable": 3238.06 }, "geometry": { "type": "Point", "coordinates": [ -4.216503123509484, 56.55997366235917 ] } },
{ "type": "Feature", "properties": { "Number": 143, "Name": "Meall Garbh", "Classifica": "Ma,M,Mur", "Metres": 1118.0, "Feet": 3668, "Grid Ref": "NN644437", "Xcoord": 264437, "Ycoord": 743759, "Latitude": 56.56614, "Longitude": -4.207715, "Viewable": 3439.07 }, "geometry": { "type": "Point", "coordinates": [ -4.20771694560595, 56.566151003705386 ] } },
{ "type": "Feature", "properties": { "Number": 144, "Name": "Beinn Ghlas", "Classifica": "Hu,M,Mur", "Metres": 1103.0, "Feet": 3619, "Grid Ref": "NN625404", "Xcoord": 262529, "Ycoord": 740466, "Latitude": 56.536023, "Longitude": -4.236994, "Viewable": 3245.89 }, "geometry": { "type": "Point", "coordinates": [ -4.236995202318425, 56.536034708837889 ] } },
{ "type": "Feature", "properties": { "Number": 145, "Name": "Beinn Heasgarnich [Beinn Sheasgarnaich]", "Classifica": "Ma,M,Mur", "Metres": 1078.0, "Feet": 3537, "Grid Ref": "NN413383", "Xcoord": 241381, "Ycoord": 738338, "Latitude": 56.510263, "Longitude": -4.579202, "Viewable": 1004.4 }, "geometry": { "type": "Point", "coordinates": [ -4.579212071225244, 56.51027446945659 ] } },
{ "type": "Feature", "properties": { "Number": 146, "Name": "Meall Corranaich", "Classifica": "Ma,M,Mur", "Metres": 1069.0, "Feet": 3507, "Grid Ref": "NN615410", "Xcoord": 261543, "Ycoord": 741036, "Latitude": 56.54085, "Longitude": -4.253317, "Viewable": 1037.77 }, "geometry": { "type": "Point", "coordinates": [ -4.253318415840341, 56.540862054936831 ] } },
{ "type": "Feature", "properties": { "Number": 148, "Name": "Creag Mhor", "Classifica": "Ma,M,Mur", "Metres": 1047.0, "Feet": 3435, "Grid Ref": "NN391361", "Xcoord": 239149, "Ycoord": 736111, "Latitude": 56.489518, "Longitude": -4.614054, "Viewable": 747.97 }, "geometry": { "type": "Point", "coordinates": [ -4.614064052174806, 56.489530160021879 ] } },
{ "type": "Feature", "properties": { "Number": 150, "Name": "Meall Ghaordaidh", "Classifica": "Ma,M,Mur", "Metres": 1039.0, "Feet": 3409, "Grid Ref": "NN514397", "Xcoord": 251443, "Ycoord": 739704, "Latitude": 56.52581, "Longitude": -4.416638, "Viewable": 961.75 }, "geometry": { "type": "Point", "coordinates": [ -4.416652099640396, 56.525821187234897 ] } },
{ "type": "Feature", "properties": { "Number": 163, "Name": "Meall a'Choire Leith", "Classifica": "Ma,M,Mur", "Metres": 926.0, "Feet": 3038, "Grid Ref": "NN612439", "Xcoord": 261200, "Ycoord": 743900, "Latitude": 56.566459, "Longitude": -4.260415, "Viewable": 235.4 }, "geometry": { "type": "Point", "coordinates": [ -4.260424568714782, 56.56647061462904 ] } },
{ "type": "Feature", "properties": { "Number": 178, "Name": "Aonach Eagach - Sgorr nam Fiannaidh", "Classifica": "Ma,M,Mur", "Metres": 967.0, "Feet": 3173, "Grid Ref": "NN140583", "Xcoord": 214043, "Ycoord": 758307, "Latitude": 56.679396, "Longitude": -5.037144, "Viewable": 631.37 }, "geometry": { "type": "Point", "coordinates": [ -5.037163029883993, 56.679411393971861 ] } },
{ "type": "Feature", "properties": { "Number": 179, "Name": "Aonach Eagach - Meall Dearg", "Classifica": "Hu,M,Mur", "Metres": 953.0, "Feet": 3127, "Grid Ref": "NN161583", "Xcoord": 216128, "Ycoord": 758364, "Latitude": 56.680732, "Longitude": -5.003202, "Viewable": 551.01 }, "geometry": { "type": "Point", "coordinates": [ -5.003221597667999, 56.680747490816657 ] } },
{ "type": "Feature", "properties": { "Number": 191, "Name": "Bidean nam Bian", "Classifica": "Ma,M,Mur,CoH", "Metres": 1150.0, "Feet": 3773, "Grid Ref": "NN143542", "Xcoord": 214341, "Ycoord": 754208, "Latitude": 56.642741, "Longitude": -5.029333, "Viewable": 2093.69 }, "geometry": { "type": "Point", "coordinates": [ -5.029352296575269, 56.642757150427322 ] } },
{ "type": "Feature", "properties": { "Number": 194, "Name": "Stob Coire Sgreamhach", "Classifica": "Hu,M,Mur", "Metres": 1072.0, "Feet": 3517, "Grid Ref": "NN154536", "Xcoord": 215487, "Ycoord": 753664, "Latitude": 56.638314, "Longitude": -5.010284, "Viewable": 845.48 }, "geometry": { "type": "Point", "coordinates": [ -5.010303435041324, 56.638329838759503 ] } },
{ "type": "Feature", "properties": { "Number": 195, "Name": "Beinn a'Bheithir - Sgorr Dhearg", "Classifica": "Ma,M,Mur", "Metres": 1024.0, "Feet": 3360, "Grid Ref": "NN056558", "Xcoord": 205682, "Ycoord": 755846, "Latitude": 56.65392, "Longitude": -5.171543, "Viewable": 1009.01 }, "geometry": { "type": "Point", "coordinates": [ -5.171558924244988, 56.653936142474116 ] } },
{ "type": "Feature", "properties": { "Number": 196, "Name": "Buachaille Etive Mor - Stob Dearg", "Classifica": "Ma,M,Mur", "Metres": 1022.0, "Feet": 3353, "Grid Ref": "NN223543", "Xcoord": 222362, "Ycoord": 754320, "Latitude": 56.646858, "Longitude": -4.898794, "Viewable": 777.53 }, "geometry": { "type": "Point", "coordinates": [ -4.898816139709804, 56.646874627501717 ] } },
{ "type": "Feature", "properties": { "Number": 198, "Name": "Beinn a'Bheithir - Sgorr Dhonuill", "Classifica": "Ma,M,Mur", "Metres": 1001.0, "Feet": 3284, "Grid Ref": "NN040555", "Xcoord": 204057, "Ycoord": 755539, "Latitude": 56.650489, "Longitude": -5.197772, "Viewable": 862.62 }, "geometry": { "type": "Point", "coordinates": [ -5.197787973770389, 56.650504865166425 ] } },
{ "type": "Feature", "properties": { "Number": 199, "Name": "Sgor na h-Ulaidh", "Classifica": "Ma,M,Mur", "Metres": 994.0, "Feet": 3261, "Grid Ref": "NN111518", "Xcoord": 211116, "Ycoord": 751797, "Latitude": 56.619822, "Longitude": -5.080078, "Viewable": 575.79 }, "geometry": { "type": "Point", "coordinates": [ -5.080096307242775, 56.619838583393971 ] } },
{ "type": "Feature", "properties": { "Number": 201, "Name": "Beinn Fhionnlaidh", "Classifica": "Ma,M,Mur", "Metres": 959.0, "Feet": 3146, "Grid Ref": "NN095497", "Xcoord": 209498, "Ycoord": 749773, "Latitude": 56.60101, "Longitude": -5.104914, "Viewable": 735.31 }, "geometry": { "type": "Point", "coordinates": [ -5.104931589549937, 56.601027095744641 ] } },
{ "type": "Feature", "properties": { "Number": 202, "Name": "Buachaille Etive Beag - Stob Dubh", "Classifica": "Ma,M,Mur", "Metres": 958.0, "Feet": 3143, "Grid Ref": "NN179535", "Xcoord": 217906, "Ycoord": 753552, "Latitude": 56.638256, "Longitude": -4.97082, "Viewable": 264.64 }, "geometry": { "type": "Point", "coordinates": [ -4.9708402809518, 56.638272062668577 ] } },
{ "type": "Feature", "properties": { "Number": 203, "Name": "Buachaille Etive Mor - Stob na Broige", "Classifica": "Hu,M,Mur", "Metres": 956.0, "Feet": 3136, "Grid Ref": "NN190525", "Xcoord": 219070, "Ycoord": 752564, "Latitude": 56.629843, "Longitude": -4.951175, "Viewable": 569.02 }, "geometry": { "type": "Point", "coordinates": [ -4.951195988833401, 56.629859158153067 ] } },
{ "type": "Feature", "properties": { "Number": 207, "Name": "Beinn Sgulaird", "Classifica": "Ma,M,Mur", "Metres": 937.0, "Feet": 3074, "Grid Ref": "NN053460", "Xcoord": 205304, "Ycoord": 746089, "Latitude": 56.566241, "Longitude": -5.17035, "Viewable": 340.75 }, "geometry": { "type": "Point", "coordinates": [ -5.170365649008637, 56.566258800016826 ] } },
{ "type": "Feature", "properties": { "Number": 209, "Name": "Buachaille Etive Beag - Stob Coire Raineach", "Classifica": "Ma,M,Mur", "Metres": 925.0, "Feet": 3035, "Grid Ref": "NN191548", "Xcoord": 219132, "Ycoord": 754807, "Latitude": 56.649991, "Longitude": -4.951739, "Viewable": 459.04 }, "geometry": { "type": "Point", "coordinates": [ -4.951759351470444, 56.650006898533121 ] } },
{ "type": "Feature", "properties": { "Number": 232, "Name": "Ben Cruachan", "Classifica": "Ma,M,Mur,CoU,CoA", "Metres": 1126.0, "Feet": 3694, "Grid Ref": "NN069304", "Xcoord": 206965, "Ycoord": 730473, "Latitude": 56.42685, "Longitude": -5.131786, "Viewable": 3851.54 }, "geometry": { "type": "Point", "coordinates": [ -5.131801144890179, 56.426861734335596 ] } },
{ "type": "Feature", "properties": { "Number": 233, "Name": "Meall a'Bhuiridh", "Classifica": "Ma,M,Mur", "Metres": 1108.0, "Feet": 3635, "Grid Ref": "NN250503", "Xcoord": 225064, "Ycoord": 750351, "Latitude": 56.612262, "Longitude": -4.852114, "Viewable": 2067.61 }, "geometry": { "type": "Point", "coordinates": [ -4.85212015905547, 56.612280070453025 ] } },
{ "type": "Feature", "properties": { "Number": 235, "Name": "Creise", "Classifica": "Ma,M,Mur", "Metres": 1100.0, "Feet": 3609, "Grid Ref": "NN238506", "Xcoord": 223857, "Ycoord": 750650, "Latitude": 56.614494, "Longitude": -4.871942, "Viewable": 808.6 }, "geometry": { "type": "Point", "coordinates": [ -4.87196368041109, 56.61451074814989 ] } },
{ "type": "Feature", "properties": { "Number": 237, "Name": "Stob Ghabhar", "Classifica": "Ma,M,Mur", "Metres": 1090.0, "Feet": 3576, "Grid Ref": "NN230455", "Xcoord": 223016, "Ycoord": 745514, "Latitude": 56.568093, "Longitude": -4.882114, "Viewable": 554.06 }, "geometry": { "type": "Point", "coordinates": [ -4.882136027082328, 56.568111493494541 ] } },
{ "type": "Feature", "properties": { "Number": 238, "Name": "Ben Starav", "Classifica": "Ma,M,Mur", "Metres": 1078.0, "Feet": 3537, "Grid Ref": "NN125427", "Xcoord": 212573, "Ycoord": 742717, "Latitude": 56.538948, "Longitude": -5.049799, "Viewable": 1028.5 }, "geometry": { "type": "Point", "coordinates": [ -5.049816929267415, 56.538966371010453 ] } },
{ "type": "Feature", "properties": { "Number": 241, "Name": "Stob Coir'an Albannaich", "Classifica": "Ma,M,Mur", "Metres": 1044.0, "Feet": 3425, "Grid Ref": "NN169443", "Xcoord": 216952, "Ycoord": 744307, "Latitude": 56.554939, "Longitude": -4.979811, "Viewable": 233.89 }, "geometry": { "type": "Point", "coordinates": [ -4.979830908310125, 56.554957416844658 ] } },
{ "type": "Feature", "properties": { "Number": 244, "Name": "Stob Diamh", "Classifica": "Hu,M,Mur", "Metres": 998.0, "Feet": 3274, "Grid Ref": "NN094308", "Xcoord": 209478, "Ycoord": 730852, "Latitude": 56.431271, "Longitude": -5.091379, "Viewable": 1354.9 }, "geometry": { "type": "Point", "coordinates": [ -5.091394615857054, 56.431282837656511 ] } },
{ "type": "Feature", "properties": { "Number": 251, "Name": "Beinn a'Chochuill", "Classifica": "Ma,M,Mur", "Metres": 980.0, "Feet": 3215, "Grid Ref": "NN109328", "Xcoord": 210978, "Ycoord": 732847, "Latitude": 56.449772, "Longitude": -5.068535, "Viewable": 1021.65 }, "geometry": { "type": "Point", "coordinates": [ -5.068550989443159, 56.449783497157711 ] } },
{ "type": "Feature", "properties": { "Number": 258, "Name": "Meall nan Eun", "Classifica": "Ma,M,Mur", "Metres": 928.0, "Feet": 3045, "Grid Ref": "NN192449", "Xcoord": 219246, "Ycoord": 744904, "Latitude": 56.561184, "Longitude": -4.942959, "Viewable": 312.68 }, "geometry": { "type": "Point", "coordinates": [ -4.942979250813648, 56.561202149398611 ] } },
{ "type": "Feature", "properties": { "Number": 278, "Name": "Ben Nevis", "Classifica": "Ma,M,Mur,CoH,CoU,CoA", "Metres": 1344.0, "Feet": 4409, "Grid Ref": "NN166712", "Xcoord": 216676, "Ycoord": 771283, "Latitude": 56.79685, "Longitude": -5.003508, "Viewable": 3454.84 }, "geometry": { "type": "Point", "coordinates": [ -5.003528959242606, 56.796862774329121 ] } },
{ "type": "Feature", "properties": { "Number": 281, "Name": "Aonach Mor", "Classifica": "Hu,M,Mur", "Metres": 1221.0, "Feet": 4006, "Grid Ref": "NN193729", "Xcoord": 219304, "Ycoord": 772961, "Latitude": 56.812932, "Longitude": -4.961744, "Viewable": 2128.06 }, "geometry": { "type": "Point", "coordinates": [ -4.961749311088616, 56.812944718201692 ] } },
{ "type": "Feature", "properties": { "Number": 282, "Name": "Carn Mor Dearg", "Classifica": "Ma,M,Mur", "Metres": 1220.0, "Feet": 4003, "Grid Ref": "NN177721", "Xcoord": 217749, "Ycoord": 772171, "Latitude": 56.805237, "Longitude": -4.986615, "Viewable": 1247.66 }, "geometry": { "type": "Point", "coordinates": [ -4.986619736971463, 56.80525070755079 ] } },
{ "type": "Feature", "properties": { "Number": 287, "Name": "Binnein Mor", "Classifica": "Ma,M,Mur", "Metres": 1130.0, "Feet": 3707, "Grid Ref": "NN212663", "Xcoord": 221200, "Ycoord": 766300, "Latitude": 56.7539, "Longitude": -4.926063, "Viewable": 606.93 }, "geometry": { "type": "Point", "coordinates": [ -4.926075871750523, 56.753916334241787 ] } },
{ "type": "Feature", "properties": { "Number": 292, "Name": "Stob a'Choire Mheadhoin", "Classifica": "Hu,M,Mur,sMa", "Metres": 1105.0, "Feet": 3625, "Grid Ref": "NN316736", "Xcoord": 231600, "Ycoord": 773600, "Latitude": 56.823277, "Longitude": -4.761005, "Viewable": 844.84 }, "geometry": { "type": "Point", "coordinates": [ -4.761015220555818, 56.823293465222648 ] } },
{ "type": "Feature", "properties": { "Number": 295, "Name": "Sgurr a'Mhaim", "Classifica": "Ma,M,Mur", "Metres": 1099.0, "Feet": 3606, "Grid Ref": "NN164667", "Xcoord": 216466, "Ycoord": 766730, "Latitude": 56.75592, "Longitude": -5.003674, "Viewable": 775.08 }, "geometry": { "type": "Point", "coordinates": [ -5.003694533482893, 56.755934227643827 ] } },
{ "type": "Feature", "properties": { "Number": 303, "Name": "Am Bodach", "Classifica": "Ma,M,Mur", "Metres": 1032.0, "Feet": 3386, "Grid Ref": "NN176650", "Xcoord": 217637, "Ycoord": 765096, "Latitude": 56.74172, "Longitude": -4.983386, "Viewable": 951.61 }, "geometry": { "type": "Point", "coordinates": [ -4.983406719563914, 56.741734570230378 ] } },
{ "type": "Feature", "properties": { "Number": 309, "Name": "Stob Ban", "Classifica": "Ma,M,Mur", "Metres": 999.0, "Feet": 3278, "Grid Ref": "NN147654", "Xcoord": 214775, "Ycoord": 765443, "Latitude": 56.743706, "Longitude": -5.03036, "Viewable": 603.66 }, "geometry": { "type": "Point", "coordinates": [ -5.030380075341562, 56.74371967663371 ] } },
{ "type": "Feature", "properties": { "Number": 312, "Name": "An Gearanach", "Classifica": "Ma,M,Mur", "Metres": 982.0, "Feet": 3222, "Grid Ref": "NN187669", "Xcoord": 218771, "Ycoord": 766994, "Latitude": 56.759191, "Longitude": -4.966215, "Viewable": 273.1 }, "geometry": { "type": "Point", "coordinates": [ -4.966235985438726, 56.759204596865587 ] } },
{ "type": "Feature", "properties": { "Number": 313, "Name": "Stob Coire a'Chairn", "Classifica": "Hu,M,Mur", "Metres": 981.0, "Feet": 3219, "Grid Ref": "NN185660", "Xcoord": 218560, "Ycoord": 766067, "Latitude": 56.750792, "Longitude": -4.969004, "Viewable": 218.68 }, "geometry": { "type": "Point", "coordinates": [ -4.969025522855325, 56.750805917866565 ] } },
{ "type": "Feature", "properties": { "Number": 314, "Name": "Stob Ban", "Classifica": "Ma,M,Mur", "Metres": 977.0, "Feet": 3205, "Grid Ref": "NN266723", "Xcoord": 226668, "Ycoord": 772394, "Latitude": 56.810647, "Longitude": -4.840892, "Viewable": 407.3 }, "geometry": { "type": "Point", "coordinates": [ -4.840900042240325, 56.810660129246294 ] } },
{ "type": "Feature", "properties": { "Number": 320, "Name": "Binnein Beag", "Classifica": "Ma,M,Mur", "Metres": 943.0, "Feet": 3094, "Grid Ref": "NN221677", "Xcoord": 222100, "Ycoord": 767700, "Latitude": 56.766805, "Longitude": -4.912337, "Viewable": 203.51 }, "geometry": { "type": "Point", "coordinates": [ -4.912350033435073, 56.766821418959147 ] } },
{ "type": "Feature", "properties": { "Number": 321, "Name": "Mullach nan Coirean", "Classifica": "M,Mur,sHu", "Metres": 939.0, "Feet": 3081, "Grid Ref": "NN122662", "Xcoord": 212237, "Ycoord": 766243, "Latitude": 56.749867, "Longitude": -5.072381, "Viewable": 537.02 }, "geometry": { "type": "Point", "coordinates": [ -5.072400098007091, 56.749881298336973 ] } },
{ "type": "Feature", "properties": { "Number": 346, "Name": "Geal-charn", "Classifica": "Ma,M,Mur", "Metres": 1132.0, "Feet": 3714, "Grid Ref": "NN469746", "Xcoord": 246992, "Ycoord": 774631, "Latitude": 56.837854, "Longitude": -4.509695, "Viewable": 1903.89 }, "geometry": { "type": "Point", "coordinates": [ -4.509709856998947, 56.837867963742397 ] } },
{ "type": "Feature", "properties": { "Number": 347, "Name": "Aonach Beag", "Classifica": "M,Mur,sHu", "Metres": 1115.7, "Feet": 3660, "Grid Ref": "NN457741", "Xcoord": 245787, "Ycoord": 774189, "Latitude": 56.833489, "Longitude": -4.529158, "Viewable": 1466.08 }, "geometry": { "type": "Point", "coordinates": [ -4.529172705545435, 56.833502736108279 ] } },
{ "type": "Feature", "properties": { "Number": 348, "Name": "Beinn Eibhinn", "Classifica": "Hu,M,Mur", "Metres": 1103.2, "Feet": 3619, "Grid Ref": "NN449733", "Xcoord": 244965, "Ycoord": 773302, "Latitude": 56.825255, "Longitude": -4.542077, "Viewable": 608.6 }, "geometry": { "type": "Point", "coordinates": [ -4.542090575895859, 56.825268724361742 ] } },
{ "type": "Feature", "properties": { "Number": 351, "Name": "Chno Dearg", "Classifica": "Ma,M,Mur", "Metres": 1046.0, "Feet": 3432, "Grid Ref": "NN377741", "Xcoord": 237741, "Ycoord": 774115, "Latitude": 56.830086, "Longitude": -4.660831, "Viewable": 881.44 }, "geometry": { "type": "Point", "coordinates": [ -4.660842305740955, 56.830098983145518 ] } },
{ "type": "Feature", "properties": { "Number": 356, "Name": "Stob Coire Sgriodain", "Classifica": "M,Mur,sHu", "Metres": 979.0, "Feet": 3212, "Grid Ref": "NN356743", "Xcoord": 235669, "Ycoord": 774380, "Latitude": 56.831736, "Longitude": -4.694917, "Viewable": 653.38 }, "geometry": { "type": "Point", "coordinates": [ -4.694928388028243, 56.831748978559368 ] } },
{ "type": "Feature", "properties": { "Number": 683, "Name": "Gleouraich", "Classifica": "Ma,M,Mur", "Metres": 1035.0, "Feet": 3396, "Grid Ref": "NH039053", "Xcoord": 203944, "Ycoord": 805344, "Latitude": 57.097154, "Longitude": -5.238051, "Viewable": 782.44 }, "geometry": { "type": "Point", "coordinates": [ -5.23805329423944, 57.097169590440942 ] } },
{ "type": "Feature", "properties": { "Number": 684, "Name": "Sgurr a'Mhaoraich", "Classifica": "Ma,M,Mur", "Metres": 1027.0, "Feet": 3369, "Grid Ref": "NG983065", "Xcoord": 198392, "Ycoord": 806549, "Latitude": 57.105562, "Longitude": -5.330483, "Viewable": 745.69 }, "geometry": { "type": "Point", "coordinates": [ -5.330500235468167, 57.105577138489807 ] } },
{ "type": "Feature", "properties": { "Number": 685, "Name": "Aonach air Chrith", "Classifica": "Ma,M,Mur", "Metres": 1021.0, "Feet": 3350, "Grid Ref": "NH051083", "Xcoord": 205107, "Ycoord": 808345, "Latitude": 57.124564, "Longitude": -5.221224, "Viewable": 445.47 }, "geometry": { "type": "Point", "coordinates": [ -5.221226714062365, 57.124579193134139 ] } },
{ "type": "Feature", "properties": { "Number": 688, "Name": "The Saddle", "Classifica": "Ma,M,Mur", "Metres": 1010.0, "Feet": 3314, "Grid Ref": "NG936131", "Xcoord": 193611, "Ycoord": 813122, "Latitude": 57.162375, "Longitude": -5.414697, "Viewable": 575.44 }, "geometry": { "type": "Point", "coordinates": [ -5.414713543894793, 57.162397895829351 ] } },
{ "type": "Feature", "properties": { "Number": 690, "Name": "Sgurr an Lochain", "Classifica": "Hu,M,Mur", "Metres": 1004.0, "Feet": 3294, "Grid Ref": "NH005104", "Xcoord": 200580, "Ycoord": 810421, "Latitude": 57.141232, "Longitude": -5.297527, "Viewable": 628.6 }, "geometry": { "type": "Point", "coordinates": [ -5.29752930314419, 57.141255588766676 ] } },
{ "type": "Feature", "properties": { "Number": 691, "Name": "Spidean Mialach", "Classifica": "Ma,M,Mur", "Metres": 996.0, "Feet": 3268, "Grid Ref": "NH065043", "Xcoord": 206591, "Ycoord": 804307, "Latitude": 57.088973, "Longitude": -5.193631, "Viewable": 751.29 }, "geometry": { "type": "Point", "coordinates": [ -5.193634747772929, 57.088988785001312 ] } },
{ "type": "Feature", "properties": { "Number": 692, "Name": "Druim Shionnach", "Classifica": "Hu,M,Mur", "Metres": 987.0, "Feet": 3238, "Grid Ref": "NH074084", "Xcoord": 207440, "Ycoord": 808483, "Latitude": 57.126785, "Longitude": -5.182857, "Viewable": 543.56 }, "geometry": { "type": "Point", "coordinates": [ -5.182860362688416, 57.12680015973276 ] } },
{ "type": "Feature", "properties": { "Number": 700, "Name": "Creag a'Mhaim", "Classifica": "M,Mur", "Metres": 947.0, "Feet": 3107, "Grid Ref": "NH087077", "Xcoord": 208790, "Ycoord": 807771, "Latitude": 57.120962, "Longitude": -5.160047, "Viewable": 596.92 }, "geometry": { "type": "Point", "coordinates": [ -5.160051627464256, 57.120977554519065 ] } },
{ "type": "Feature", "properties": { "Number": 701, "Name": "Sgurr na Sgine", "Classifica": "Ma,M,Mur", "Metres": 946.0, "Feet": 3104, "Grid Ref": "NG946113", "Xcoord": 194617, "Ycoord": 811368, "Latitude": 57.147098, "Longitude": -5.39665, "Viewable": 102.14 }, "geometry": { "type": "Point", "coordinates": [ -5.396666966178255, 57.147120621384502 ] } },
{ "type": "Feature", "properties": { "Number": 730, "Name": "Sgurr na Ciche", "Classifica": "Ma,M,Mur", "Metres": 1040.0, "Feet": 3412, "Grid Ref": "NM902966", "Xcoord": 190223, "Ycoord": 796684, "Latitude": 57.013452, "Longitude": -5.456854, "Viewable": 784.54 }, "geometry": { "type": "Point", "coordinates": [ -5.456867943712037, 57.013468069171836 ] } },
{ "type": "Feature", "properties": { "Number": 731, "Name": "Ladhar Bheinn", "Classifica": "Ma,M,Mur", "Metres": 1020.0, "Feet": 3346, "Grid Ref": "NG824039", "Xcoord": 182397, "Ycoord": 803983, "Latitude": 57.075262, "Longitude": -5.591794, "Viewable": 604.9 }, "geometry": { "type": "Point", "coordinates": [ -5.59180641096839, 57.075285515061069 ] } },
{ "type": "Feature", "properties": { "Number": 732, "Name": "Garbh Chioch Mhor", "Classifica": "Ma,M,Mur", "Metres": 1013.0, "Feet": 3323, "Grid Ref": "NM909961", "Xcoord": 190956, "Ycoord": 796099, "Latitude": 57.008538, "Longitude": -5.44432, "Viewable": 668.34 }, "geometry": { "type": "Point", "coordinates": [ -5.444334042425736, 57.008554876811409 ] } },
{ "type": "Feature", "properties": { "Number": 733, "Name": "Sgurr Mor", "Classifica": "Ma,M,Mur", "Metres": 1003.0, "Feet": 3291, "Grid Ref": "NM965980", "Xcoord": 196534, "Ycoord": 798039, "Latitude": 57.028428, "Longitude": -5.354204, "Viewable": 835.14 }, "geometry": { "type": "Point", "coordinates": [ -5.354220067571761, 57.028444089839631 ] } },
{ "type": "Feature", "properties": { "Number": 736, "Name": "Sgurr nan Coireachan", "Classifica": "Ma,M,Mur", "Metres": 953.0, "Feet": 3127, "Grid Ref": "NM933958", "Xcoord": 193308, "Ycoord": 795827, "Latitude": 57.007158, "Longitude": -5.40544, "Viewable": 486.25 }, "geometry": { "type": "Point", "coordinates": [ -5.405454425030401, 57.007174573810467 ] } },
{ "type": "Feature", "properties": { "Number": 737, "Name": "Meall Buidhe", "Classifica": "Ma,M,Mur", "Metres": 946.0, "Feet": 3104, "Grid Ref": "NM849989", "Xcoord": 184901, "Ycoord": 798977, "Latitude": 57.031553, "Longitude": -5.546285, "Viewable": 1011.9 }, "geometry": { "type": "Point", "coordinates": [ -5.546297750605468, 57.031578343192763 ] } },
{ "type": "Feature", "properties": { "Number": 741, "Name": "Gairich", "Classifica": "Ma,M,Mur", "Metres": 919.0, "Feet": 3015, "Grid Ref": "NN025995", "Xcoord": 202589, "Ycoord": 799581, "Latitude": 57.044888, "Longitude": -5.255844, "Viewable": 461.5 }, "geometry": { "type": "Point", "coordinates": [ -5.255845764915696, 57.044904334909674 ] } },
{ "type": "Feature", "properties": { "Number": 773, "Name": "Gulvain [Gaor Bheinn]", "Classifica": "Ma,M,Mur", "Metres": 987.0, "Feet": 3238, "Grid Ref": "NN002875", "Xcoord": 200267, "Ycoord": 787572, "Latitude": 56.936184, "Longitude": -5.284525, "Viewable": 866.62 }, "geometry": { "type": "Point", "coordinates": [ -5.284541540899108, 56.93620256284256 ] } },
{ "type": "Feature", "properties": { "Number": 774, "Name": "Sgurr Thuilm", "Classifica": "Ma,M,Mur", "Metres": 963.0, "Feet": 3159, "Grid Ref": "NM939879", "Xcoord": 193904, "Ycoord": 787980, "Latitude": 56.937055, "Longitude": -5.38924, "Viewable": 637.61 }, "geometry": { "type": "Point", "coordinates": [ -5.389254862406088, 56.937072930374448 ] } },
{ "type": "Feature", "properties": { "Number": 776, "Name": "Sgurr nan Coireachan", "Classifica": "Ma,M,Mur", "Metres": 956.0, "Feet": 3136, "Grid Ref": "NM902880", "Xcoord": 190289, "Ycoord": 788013, "Latitude": 56.935728, "Longitude": -5.448568, "Viewable": 804.3 }, "geometry": { "type": "Point", "coordinates": [ -5.448581354506793, 56.935745677922213 ] } },
{ "type": "Feature", "properties": { "Number": 803, "Name": "Carn Eige [Carn Eighe]", "Classifica": "Ma,M,Mur,CoH", "Metres": 1183.0, "Feet": 3881, "Grid Ref": "NH123261", "Xcoord": 212357, "Ycoord": 826197, "Latitude": 57.287702, "Longitude": -5.115126, "Viewable": 2895.56 }, "geometry": { "type": "Point", "coordinates": [ -5.115133233590298, 57.28772302799166 ] } },
{ "type": "Feature", "properties": { "Number": 804, "Name": "Mam Sodhail", "Classifica": "Hu,M,Mur", "Metres": 1181.0, "Feet": 3875, "Grid Ref": "NH119253", "Xcoord": 211962, "Ycoord": 825351, "Latitude": 57.279951, "Longitude": -5.121026, "Viewable": 3011.5 }, "geometry": { "type": "Point", "coordinates": [ -5.121033309424234, 57.279972431026664 ] } },
{ "type": "Feature", "properties": { "Number": 805, "Name": "Sgurr nan Ceathreamhnan", "Classifica": "Ma,M,Mur", "Metres": 1151.0, "Feet": 3776, "Grid Ref": "NH057228", "Xcoord": 205702, "Ycoord": 822850, "Latitude": 57.254902, "Longitude": -5.222731, "Viewable": 1704.29 }, "geometry": { "type": "Point", "coordinates": [ -5.222735447767367, 57.254923228088394 ] } },
{ "type": "Feature", "properties": { "Number": 815, "Name": "Sgurr Fhuaran", "Classifica": "Ma,M,Mur", "Metres": 1067.0, "Feet": 3501, "Grid Ref": "NG978166", "Xcoord": 197847, "Ycoord": 816679, "Latitude": 57.196158, "Longitude": -5.347684, "Viewable": 578.1 }, "geometry": { "type": "Point", "coordinates": [ -5.347685883393633, 57.1961807850534 ] } },
{ "type": "Feature", "properties": { "Number": 823, "Name": "Beinn Fhada", "Classifica": "Ma,M,Mur", "Metres": 1032.0, "Feet": 3386, "Grid Ref": "NH018192", "Xcoord": 201855, "Ycoord": 819253, "Latitude": 57.220993, "Longitude": -5.283518, "Viewable": 640.08 }, "geometry": { "type": "Point", "coordinates": [ -5.28352152427922, 57.221014710554655 ] } },
{ "type": "Feature", "properties": { "Number": 825, "Name": "Sgurr na Ciste Duibhe", "Classifica": "Ma,M,Mur", "Metres": 1027.0, "Feet": 3369, "Grid Ref": "NG984149", "Xcoord": 198398, "Ycoord": 814952, "Latitude": 57.180914, "Longitude": -5.337167, "Viewable": 697.45 }, "geometry": { "type": "Point", "coordinates": [ -5.337185016470358, 57.18093619951275 ] } },
{ "type": "Feature", "properties": { "Number": 828, "Name": "Aonach Meadhoin", "Classifica": "Ma,M,Mur", "Metres": 1001.0, "Feet": 3284, "Grid Ref": "NH048137", "Xcoord": 204885, "Ycoord": 813766, "Latitude": 57.173082, "Longitude": -5.229121, "Viewable": 409.02 }, "geometry": { "type": "Point", "coordinates": [ -5.229124703663191, 57.173104622020162 ] } },
{ "type": "Feature", "properties": { "Number": 862, "Name": "A'Chralaig", "Classifica": "Ma,M,Mur", "Metres": 1120.0, "Feet": 3675, "Grid Ref": "NH094148", "Xcoord": 209428, "Ycoord": 814798, "Latitude": 57.184247, "Longitude": -5.154892, "Viewable": 2466.1 }, "geometry": { "type": "Point", "coordinates": [ -5.154897389436341, 57.184270428988732 ] } },
{ "type": "Feature", "properties": { "Number": 863, "Name": "Sgurr nan Conbhairean", "Classifica": "Ma,M,Mur", "Metres": 1109.0, "Feet": 3638, "Grid Ref": "NH129138", "Xcoord": 212987, "Ycoord": 813895, "Latitude": 57.177613, "Longitude": -5.095423, "Viewable": 2040.27 }, "geometry": { "type": "Point", "coordinates": [ -5.095429910164079, 57.177635755371234 ] } },
{ "type": "Feature", "properties": { "Number": 864, "Name": "Mullach Fraoch-choire", "Classifica": "Ma,M,Mur", "Metres": 1102.0, "Feet": 3615, "Grid Ref": "NH094171", "Xcoord": 209489, "Ycoord": 817160, "Latitude": 57.205459, "Longitude": -5.155692, "Viewable": 912.72 }, "geometry": { "type": "Point", "coordinates": [ -5.155697925863062, 57.20548129632396 ] } },
{ "type": "Feature", "properties": { "Number": 871, "Name": "Carn Ghluasaid", "Classifica": "M,Mur", "Metres": 957.0, "Feet": 3140, "Grid Ref": "NH145125", "Xcoord": 214575, "Ycoord": 812522, "Latitude": 57.16595, "Longitude": -5.068174, "Viewable": 762.16 }, "geometry": { "type": "Point", "coordinates": [ -5.068180892739016, 57.165964472433288 ] } },
{ "type": "Feature", "properties": { "Number": 926, "Name": "Sgurr na Lapaich", "Classifica": "Ma,M,Mur", "Metres": 1150.0, "Feet": 3773, "Grid Ref": "NH160351", "Xcoord": 216102, "Ycoord": 835126, "Latitude": 57.369319, "Longitude": -5.059743, "Viewable": 2551.19 }, "geometry": { "type": "Point", "coordinates": [ -5.05975181485052, 57.369338804802695 ] } },
{ "type": "Feature", "properties": { "Number": 936, "Name": "Carn nan Gobhar", "Classifica": "Ma,M,Mur", "Metres": 993.0, "Feet": 3258, "Grid Ref": "NH181343", "Xcoord": 218188, "Ycoord": 834362, "Latitude": 57.363304, "Longitude": -5.024544, "Viewable": 1464.98 }, "geometry": { "type": "Point", "coordinates": [ -5.024553927647769, 57.363323225569012 ] } },
{ "type": "Feature", "properties": { "Number": 1239, "Name": "Sgurr Alasdair", "Classifica": "Ma,M,Mur", "Metres": 992.0, "Feet": 3255, "Grid Ref": "NG450207", "Xcoord": 145000, "Ycoord": 820786, "Latitude": 57.206615, "Longitude": -6.224179, "Viewable": 996.91 }, "geometry": { "type": "Point", "coordinates": [ -6.224196834379231, 57.206642764740174 ] } },
{ "type": "Feature", "properties": { "Number": 1240, "Name": "Sgurr Dearg - Inaccessible Pinnacle", "Classifica": "Ma,M,Mur", "Metres": 986.0, "Feet": 3235, "Grid Ref": "NG444215", "Xcoord": 144404, "Ycoord": 821566, "Latitude": 57.21327, "Longitude": -6.234819, "Viewable": 1131.99 }, "geometry": { "type": "Point", "coordinates": [ -6.234836952918991, 57.213298385197938 ] } },
{ "type": "Feature", "properties": { "Number": 1245, "Name": "Sgurr na Banachdich", "Classifica": "Hu,M,Mur", "Metres": 965.0, "Feet": 3166, "Grid Ref": "NG440224", "Xcoord": 144045, "Ycoord": 822449, "Latitude": 57.22098, "Longitude": -6.241655, "Viewable": 1311.12 }, "geometry": { "type": "Point", "coordinates": [ -6.241673313197476, 57.221008202191491 ] } },
{ "type": "Feature", "properties": { "Number": 1247, "Name": "Bruach na Frithe", "Classifica": "Hu,M,Mur", "Metres": 958.0, "Feet": 3143, "Grid Ref": "NG460251", "Xcoord": 146084, "Ycoord": 825201, "Latitude": 57.24677, "Longitude": -6.210796, "Viewable": 1777.84 }, "geometry": { "type": "Point", "coordinates": [ -6.210814244546882, 57.24679693648681 ] } },
{ "type": "Feature", "properties": { "Number": 1250, "Name": "Sgurr Dubh Mor", "Classifica": "M,Mur", "Metres": 944.0, "Feet": 3097, "Grid Ref": "NG457205", "Xcoord": 145758, "Ycoord": 820547, "Latitude": 57.204894, "Longitude": -6.211421, "Viewable": 1258.94 }, "geometry": { "type": "Point", "coordinates": [ -6.211439471605518, 57.204922670482887 ] } },
{ "type": "Feature", "properties": { "Number": 1258, "Name": "Sgurr nan Eag", "Classifica": "Hu,M,Mur", "Metres": 924.0, "Feet": 3031, "Grid Ref": "NG457195", "Xcoord": 145708, "Ycoord": 819538, "Latitude": 57.195827, "Longitude": -6.211216, "Viewable": 1033.51 }, "geometry": { "type": "Point", "coordinates": [ -6.211233880634439, 57.195855655572203 ] } },
{ "type": "Feature", "properties": { "Number": 1301, "Name": "Ben More", "Classifica": "Ma,M,Mur", "Metres": 966.0, "Feet": 3169, "Grid Ref": "NM525330", "Xcoord": 152575, "Ycoord": 733078, "Latitude": 56.424828, "Longitude": -6.014032, "Viewable": 1694.32 }, "geometry": { "type": "Point", "coordinates": [ -6.014061352581966, 56.424845962354034 ] } }
]
}
