{
"type": "FeatureCollection",
"crs": { "type": "name", "properties": { "name": "urn:ogc:def:crs:EPSG::27700" } },
                                                                                
"features": [
{ "type": "Feature", "properties": { "Number": 18, "Name": "Stuc a'Chroin", "Classifica": "Ma,M,Mur", "Metres": 975.0, "Feet": 3199, "Grid Ref": "NN617174", "Xcoord": 261746, "Ycoord": 717466, "Latitude": 56.329324, "Longitude": -4.237534 }, "geometry": { "type": "Point", "coordinates": [ 261746.0, 717466.0 ] } },
{ "type": "Feature", "properties": { "Number": 26, "Name": "Ben More", "Classifica": "Ma,M,Mur,CoU,CoA", "Metres": 1174.0, "Feet": 3852, "Grid Ref": "NN432244", "Xcoord": 243275, "Ycoord": 724417, "Latitude": 56.385952, "Longitude": -4.540103 }, "geometry": { "type": "Point", "coordinates": [ 243275.0, 724417.0 ] } },
{ "type": "Feature", "properties": { "Number": 27, "Name": "Stob Binnein", "Classifica": "Ma,M,Mur", "Metres": 1165.0, "Feet": 3822, "Grid Ref": "NN434227", "Xcoord": 243481, "Ycoord": 722714, "Latitude": 56.370735, "Longitude": -4.535754 }, "geometry": { "type": "Point", "coordinates": [ 243481.0, 722714.0 ] } },
{ "type": "Feature", "properties": { "Number": 30, "Name": "Cruach Ardrain", "Classifica": "Ma,M,Mur", "Metres": 1046.0, "Feet": 3432, "Grid Ref": "NN409212", "Xcoord": 240927, "Ycoord": 721215, "Latitude": 56.356429, "Longitude": -4.576151 }, "geometry": { "type": "Point", "coordinates": [ 240927.0, 721215.0 ] } },
{ "type": "Feature", "properties": { "Number": 31, "Name": "An Caisteal", "Classifica": "Ma,M,Mur", "Metres": 995.0, "Feet": 3264, "Grid Ref": "NN378193", "Xcoord": 237873, "Ycoord": 719345, "Latitude": 56.338618, "Longitude": -4.62437 }, "geometry": { "type": "Point", "coordinates": [ 237873.0, 719345.0 ] } },
{ "type": "Feature", "properties": { "Number": 32, "Name": "Ben Lomond", "Classifica": "Ma,M,Mur,CoH", "Metres": 974.0, "Feet": 3196, "Grid Ref": "NN367028", "Xcoord": 236703, "Ycoord": 702866, "Latitude": 56.190319, "Longitude": -4.633075 }, "geometry": { "type": "Point", "coordinates": [ 236703.0, 702866.0 ] } },
{ "type": "Feature", "properties": { "Number": 38, "Name": "Beinn Chabhair", "Classifica": "Ma,M,Mur", "Metres": 933.0, "Feet": 3061, "Grid Ref": "NN367179", "Xcoord": 236758, "Ycoord": 717968, "Latitude": 56.325877, "Longitude": -4.641532 }, "geometry": { "type": "Point", "coordinates": [ 236758.0, 717968.0 ] } },
{ "type": "Feature", "properties": { "Number": 67, "Name": "Ben Oss", "Classifica": "Ma,M,Mur", "Metres": 1029.0, "Feet": 3376, "Grid Ref": "NN287253", "Xcoord": 228761, "Ycoord": 725347, "Latitude": 56.389263, "Longitude": -4.775488 }, "geometry": { "type": "Point", "coordinates": [ 228761.0, 725347.0 ] } },
{ "type": "Feature", "properties": { "Number": 70, "Name": "Beinn Bhuidhe", "Classifica": "Ma,M,Mur", "Metres": 948.0, "Feet": 3110, "Grid Ref": "NN203187", "Xcoord": 220369, "Ycoord": 718722, "Latitude": 56.326704, "Longitude": -4.90671 }, "geometry": { "type": "Point", "coordinates": [ 220369.0, 718722.0 ] } },
{ "type": "Feature", "properties": { "Number": 75, "Name": "Beinn a'Chleibh", "Classifica": "Hu,M,Mur,sMa", "Metres": 916.3, "Feet": 3006, "Grid Ref": "NN250256", "Xcoord": 225054, "Ycoord": 725606, "Latitude": 56.390231, "Longitude": -4.835634 }, "geometry": { "type": "Point", "coordinates": [ 225054.0, 725606.0 ] } },
{ "type": "Feature", "properties": { "Number": 76, "Name": "Ben Vane", "Classifica": "Ma,M,Mur", "Metres": 915.76, "Feet": 3004, "Grid Ref": "NN277098", "Xcoord": 227754, "Ycoord": 709843, "Latitude": 56.249777, "Longitude": -4.781638 }, "geometry": { "type": "Point", "coordinates": [ 227754.0, 709843.0 ] } },
{ "type": "Feature", "properties": { "Number": 103, "Name": "Schiehallion", "Classifica": "Ma,M,Mur", "Metres": 1083.0, "Feet": 3553, "Grid Ref": "NN713547", "Xcoord": 271393, "Ycoord": 754756, "Latitude": 56.666828, "Longitude": -4.100076 }, "geometry": { "type": "Point", "coordinates": [ 271393.0, 754756.0 ] } },
{ "type": "Feature", "properties": { "Number": 105, "Name": "Beinn Dorain", "Classifica": "Ma,M,Mur", "Metres": 1076.0, "Feet": 3530, "Grid Ref": "NN325378", "Xcoord": 232563, "Ycoord": 737875, "Latitude": 56.503053, "Longitude": -4.722024 }, "geometry": { "type": "Point", "coordinates": [ 232563.0, 737875.0 ] } },
{ "type": "Feature", "properties": { "Number": 108, "Name": "Beinn Achaladair", "Classifica": "Ma,M,Mur", "Metres": 1038.0, "Feet": 3406, "Grid Ref": "NN346433", "Xcoord": 234600, "Ycoord": 743300, "Latitude": 56.552454, "Longitude": -4.692417 }, "geometry": { "type": "Point", "coordinates": [ 234600.0, 743300.0 ] } },
{ "type": "Feature", "properties": { "Number": 141, "Name": "Ben Lawers", "Classifica": "Ma,M,Mur,CoH,CoU,CoA", "Metres": 1214.0, "Feet": 3983, "Grid Ref": "NN635414", "Xcoord": 263551, "Ycoord": 741423, "Latitude": 56.544912, "Longitude": -4.220892 }, "geometry": { "type": "Point", "coordinates": [ 263551.0, 741423.0 ] } },
{ "type": "Feature", "properties": { "Number": 145, "Name": "Beinn Heasgarnich [Beinn Sheasgarnaich]", "Classifica": "Ma,M,Mur", "Metres": 1078.0, "Feet": 3537, "Grid Ref": "NN413383", "Xcoord": 241381, "Ycoord": 738338, "Latitude": 56.510263, "Longitude": -4.579202 }, "geometry": { "type": "Point", "coordinates": [ 241381.0, 738338.0 ] } },
{ "type": "Feature", "properties": { "Number": 152, "Name": "Ben Challum [Beinn Challuim]", "Classifica": "Ma,M,Mur", "Metres": 1025.0, "Feet": 3363, "Grid Ref": "NN386322", "Xcoord": 238684, "Ycoord": 732233, "Latitude": 56.454555, "Longitude": -4.619199 }, "geometry": { "type": "Point", "coordinates": [ 238684.0, 732233.0 ] } },
{ "type": "Feature", "properties": { "Number": 178, "Name": "Aonach Eagach - Sgorr nam Fiannaidh", "Classifica": "Ma,M,Mur", "Metres": 967.0, "Feet": 3173, "Grid Ref": "NN140583", "Xcoord": 214043, "Ycoord": 758307, "Latitude": 56.679396, "Longitude": -5.037144 }, "geometry": { "type": "Point", "coordinates": [ 214043.0, 758307.0 ] } },
{ "type": "Feature", "properties": { "Number": 179, "Name": "Aonach Eagach - Meall Dearg", "Classifica": "Hu,M,Mur", "Metres": 953.0, "Feet": 3127, "Grid Ref": "NN161583", "Xcoord": 216128, "Ycoord": 758364, "Latitude": 56.680732, "Longitude": -5.003202 }, "geometry": { "type": "Point", "coordinates": [ 216128.0, 758364.0 ] } },
{ "type": "Feature", "properties": { "Number": 191, "Name": "Bidean nam Bian", "Classifica": "Ma,M,Mur,CoH", "Metres": 1150.0, "Feet": 3773, "Grid Ref": "NN143542", "Xcoord": 214341, "Ycoord": 754208, "Latitude": 56.642741, "Longitude": -5.029333 }, "geometry": { "type": "Point", "coordinates": [ 214341.0, 754208.0 ] } },
{ "type": "Feature", "properties": { "Number": 194, "Name": "Stob Coire Sgreamhach", "Classifica": "Hu,M,Mur", "Metres": 1072.0, "Feet": 3517, "Grid Ref": "NN154536", "Xcoord": 215487, "Ycoord": 753664, "Latitude": 56.638314, "Longitude": -5.010284 }, "geometry": { "type": "Point", "coordinates": [ 215487.0, 753664.0 ] } },
{ "type": "Feature", "properties": { "Number": 195, "Name": "Beinn a'Bheithir - Sgorr Dhearg", "Classifica": "Ma,M,Mur", "Metres": 1024.0, "Feet": 3360, "Grid Ref": "NN056558", "Xcoord": 205682, "Ycoord": 755846, "Latitude": 56.65392, "Longitude": -5.171543 }, "geometry": { "type": "Point", "coordinates": [ 205682.0, 755846.0 ] } },
{ "type": "Feature", "properties": { "Number": 198, "Name": "Beinn a'Bheithir - Sgorr Dhonuill", "Classifica": "Ma,M,Mur", "Metres": 1001.0, "Feet": 3284, "Grid Ref": "NN040555", "Xcoord": 204057, "Ycoord": 755539, "Latitude": 56.650489, "Longitude": -5.197772 }, "geometry": { "type": "Point", "coordinates": [ 204057.0, 755539.0 ] } },
{ "type": "Feature", "properties": { "Number": 199, "Name": "Sgor na h-Ulaidh", "Classifica": "Ma,M,Mur", "Metres": 994.0, "Feet": 3261, "Grid Ref": "NN111518", "Xcoord": 211116, "Ycoord": 751797, "Latitude": 56.619822, "Longitude": -5.080078 }, "geometry": { "type": "Point", "coordinates": [ 211116.0, 751797.0 ] } },
{ "type": "Feature", "properties": { "Number": 201, "Name": "Beinn Fhionnlaidh", "Classifica": "Ma,M,Mur", "Metres": 959.0, "Feet": 3146, "Grid Ref": "NN095497", "Xcoord": 209498, "Ycoord": 749773, "Latitude": 56.60101, "Longitude": -5.104914 }, "geometry": { "type": "Point", "coordinates": [ 209498.0, 749773.0 ] } },
{ "type": "Feature", "properties": { "Number": 232, "Name": "Ben Cruachan", "Classifica": "Ma,M,Mur,CoU,CoA", "Metres": 1126.0, "Feet": 3694, "Grid Ref": "NN069304", "Xcoord": 206965, "Ycoord": 730473, "Latitude": 56.42685, "Longitude": -5.131786 }, "geometry": { "type": "Point", "coordinates": [ 206965.0, 730473.0 ] } },
{ "type": "Feature", "properties": { "Number": 233, "Name": "Meall a'Bhuiridh", "Classifica": "Ma,M,Mur", "Metres": 1108.0, "Feet": 3635, "Grid Ref": "NN250503", "Xcoord": 225064, "Ycoord": 750351, "Latitude": 56.612262, "Longitude": -4.852114 }, "geometry": { "type": "Point", "coordinates": [ 225064.0, 750351.0 ] } },
{ "type": "Feature", "properties": { "Number": 235, "Name": "Creise", "Classifica": "Ma,M,Mur", "Metres": 1100.0, "Feet": 3609, "Grid Ref": "NN238506", "Xcoord": 223857, "Ycoord": 750650, "Latitude": 56.614494, "Longitude": -4.871942 }, "geometry": { "type": "Point", "coordinates": [ 223857.0, 750650.0 ] } },
{ "type": "Feature", "properties": { "Number": 238, "Name": "Ben Starav", "Classifica": "Ma,M,Mur", "Metres": 1078.0, "Feet": 3537, "Grid Ref": "NN125427", "Xcoord": 212573, "Ycoord": 742717, "Latitude": 56.538948, "Longitude": -5.049799 }, "geometry": { "type": "Point", "coordinates": [ 212573.0, 742717.0 ] } },
{ "type": "Feature", "properties": { "Number": 244, "Name": "Stob Diamh", "Classifica": "Hu,M,Mur", "Metres": 998.0, "Feet": 3274, "Grid Ref": "NN094308", "Xcoord": 209478, "Ycoord": 730852, "Latitude": 56.431271, "Longitude": -5.091379 }, "geometry": { "type": "Point", "coordinates": [ 209478.0, 730852.0 ] } },
{ "type": "Feature", "properties": { "Number": 245, "Name": "Glas Bheinn Mhor", "Classifica": "Ma,M,Mur", "Metres": 997.0, "Feet": 3271, "Grid Ref": "NN153429", "Xcoord": 215328, "Ycoord": 742982, "Latitude": 56.542416, "Longitude": -5.005251 }, "geometry": { "type": "Point", "coordinates": [ 215328.0, 742982.0 ] } },
{ "type": "Feature", "properties": { "Number": 249, "Name": "Beinn Eunaich", "Classifica": "Ma,M,Mur", "Metres": 989.0, "Feet": 3245, "Grid Ref": "NN135328", "Xcoord": 213561, "Ycoord": 732799, "Latitude": 56.45037, "Longitude": -5.026656 }, "geometry": { "type": "Point", "coordinates": [ 213561.0, 732799.0 ] } },
{ "type": "Feature", "properties": { "Number": 251, "Name": "Beinn a'Chochuill", "Classifica": "Ma,M,Mur", "Metres": 980.0, "Feet": 3215, "Grid Ref": "NN109328", "Xcoord": 210978, "Ycoord": 732847, "Latitude": 56.449772, "Longitude": -5.068535 }, "geometry": { "type": "Point", "coordinates": [ 210978.0, 732847.0 ] } },
{ "type": "Feature", "properties": { "Number": 254, "Name": "Beinn nan Aighenan", "Classifica": "Ma,M,Mur", "Metres": 960.0, "Feet": 3150, "Grid Ref": "NN148405", "Xcoord": 214852, "Ycoord": 740528, "Latitude": 56.520221, "Longitude": -5.011233 }, "geometry": { "type": "Point", "coordinates": [ 214852.0, 740528.0 ] } },
{ "type": "Feature", "properties": { "Number": 258, "Name": "Meall nan Eun", "Classifica": "Ma,M,Mur", "Metres": 928.0, "Feet": 3045, "Grid Ref": "NN192449", "Xcoord": 219246, "Ycoord": 744904, "Latitude": 56.561184, "Longitude": -4.942959 }, "geometry": { "type": "Point", "coordinates": [ 219246.0, 744904.0 ] } },
{ "type": "Feature", "properties": { "Number": 278, "Name": "Ben Nevis", "Classifica": "Ma,M,Mur,CoH,CoU,CoA", "Metres": 1344.0, "Feet": 4409, "Grid Ref": "NN166712", "Xcoord": 216676, "Ycoord": 771283, "Latitude": 56.79685, "Longitude": -5.003508 }, "geometry": { "type": "Point", "coordinates": [ 216676.0, 771283.0 ] } },
{ "type": "Feature", "properties": { "Number": 281, "Name": "Aonach Mor", "Classifica": "Hu,M,Mur", "Metres": 1221.0, "Feet": 4006, "Grid Ref": "NN193729", "Xcoord": 219304, "Ycoord": 772961, "Latitude": 56.812932, "Longitude": -4.961744 }, "geometry": { "type": "Point", "coordinates": [ 219304.0, 772961.0 ] } },
{ "type": "Feature", "properties": { "Number": 285, "Name": "Stob Choire Claurigh", "Classifica": "Ma,M,Mur", "Metres": 1177.0, "Feet": 3862, "Grid Ref": "NN262738", "Xcoord": 226196, "Ycoord": 773878, "Latitude": 56.823786, "Longitude": -4.849624 }, "geometry": { "type": "Point", "coordinates": [ 226196.0, 773878.0 ] } },
{ "type": "Feature", "properties": { "Number": 287, "Name": "Binnein Mor", "Classifica": "Ma,M,Mur", "Metres": 1130.0, "Feet": 3707, "Grid Ref": "NN212663", "Xcoord": 221200, "Ycoord": 766300, "Latitude": 56.7539, "Longitude": -4.926063 }, "geometry": { "type": "Point", "coordinates": [ 221200.0, 766300.0 ] } },
{ "type": "Feature", "properties": { "Number": 289, "Name": "Stob Coire an Laoigh", "Classifica": "M,Mur", "Metres": 1116.0, "Feet": 3661, "Grid Ref": "NN239725", "Xcoord": 223983, "Ycoord": 772532, "Latitude": 56.810877, "Longitude": -4.884907 }, "geometry": { "type": "Point", "coordinates": [ 223983.0, 772532.0 ] } },
{ "type": "Feature", "properties": { "Number": 295, "Name": "Sgurr a'Mhaim", "Classifica": "Ma,M,Mur", "Metres": 1099.0, "Feet": 3606, "Grid Ref": "NN164667", "Xcoord": 216466, "Ycoord": 766730, "Latitude": 56.75592, "Longitude": -5.003674 }, "geometry": { "type": "Point", "coordinates": [ 216466.0, 766730.0 ] } },
{ "type": "Feature", "properties": { "Number": 296, "Name": "Sgurr Choinnich Mor", "Classifica": "Ma,M,Mur", "Metres": 1094.0, "Feet": 3589, "Grid Ref": "NN227714", "Xcoord": 222772, "Ycoord": 771419, "Latitude": 56.800431, "Longitude": -4.903943 }, "geometry": { "type": "Point", "coordinates": [ 222772.0, 771419.0 ] } },
{ "type": "Feature", "properties": { "Number": 303, "Name": "Am Bodach", "Classifica": "Ma,M,Mur", "Metres": 1032.0, "Feet": 3386, "Grid Ref": "NN176650", "Xcoord": 217637, "Ycoord": 765096, "Latitude": 56.74172, "Longitude": -4.983386 }, "geometry": { "type": "Point", "coordinates": [ 217637.0, 765096.0 ] } },
{ "type": "Feature", "properties": { "Number": 305, "Name": "Sgurr Eilde Mor", "Classifica": "Ma,M,Mur", "Metres": 1010.0, "Feet": 3314, "Grid Ref": "NN230657", "Xcoord": 223052, "Ycoord": 765792, "Latitude": 56.750051, "Longitude": -4.895471 }, "geometry": { "type": "Point", "coordinates": [ 223052.0, 765792.0 ] } },
{ "type": "Feature", "properties": { "Number": 309, "Name": "Stob Ban", "Classifica": "Ma,M,Mur", "Metres": 999.0, "Feet": 3278, "Grid Ref": "NN147654", "Xcoord": 214775, "Ycoord": 765443, "Latitude": 56.743706, "Longitude": -5.03036 }, "geometry": { "type": "Point", "coordinates": [ 214775.0, 765443.0 ] } },
{ "type": "Feature", "properties": { "Number": 312, "Name": "An Gearanach", "Classifica": "Ma,M,Mur", "Metres": 982.0, "Feet": 3222, "Grid Ref": "NN187669", "Xcoord": 218771, "Ycoord": 766994, "Latitude": 56.759191, "Longitude": -4.966215 }, "geometry": { "type": "Point", "coordinates": [ 218771.0, 766994.0 ] } },
{ "type": "Feature", "properties": { "Number": 313, "Name": "Stob Coire a'Chairn", "Classifica": "Hu,M,Mur", "Metres": 981.0, "Feet": 3219, "Grid Ref": "NN185660", "Xcoord": 218560, "Ycoord": 766067, "Latitude": 56.750792, "Longitude": -4.969004 }, "geometry": { "type": "Point", "coordinates": [ 218560.0, 766067.0 ] } },
{ "type": "Feature", "properties": { "Number": 321, "Name": "Mullach nan Coirean", "Classifica": "M,Mur,sHu", "Metres": 939.0, "Feet": 3081, "Grid Ref": "NN122662", "Xcoord": 212237, "Ycoord": 766243, "Latitude": 56.749867, "Longitude": -5.072381 }, "geometry": { "type": "Point", "coordinates": [ 212237.0, 766243.0 ] } },
{ "type": "Feature", "properties": { "Number": 346, "Name": "Geal-charn", "Classifica": "Ma,M,Mur", "Metres": 1132.0, "Feet": 3714, "Grid Ref": "NN469746", "Xcoord": 246992, "Ycoord": 774631, "Latitude": 56.837854, "Longitude": -4.509695 }, "geometry": { "type": "Point", "coordinates": [ 246992.0, 774631.0 ] } },
{ "type": "Feature", "properties": { "Number": 347, "Name": "Aonach Beag", "Classifica": "M,Mur,sHu", "Metres": 1115.7, "Feet": 3660, "Grid Ref": "NN457741", "Xcoord": 245787, "Ycoord": 774189, "Latitude": 56.833489, "Longitude": -4.529158 }, "geometry": { "type": "Point", "coordinates": [ 245787.0, 774189.0 ] } },
{ "type": "Feature", "properties": { "Number": 348, "Name": "Beinn Eibhinn", "Classifica": "Hu,M,Mur", "Metres": 1103.2, "Feet": 3619, "Grid Ref": "NN449733", "Xcoord": 244965, "Ycoord": 773302, "Latitude": 56.825255, "Longitude": -4.542077 }, "geometry": { "type": "Point", "coordinates": [ 244965.0, 773302.0 ] } },
{ "type": "Feature", "properties": { "Number": 351, "Name": "Chno Dearg", "Classifica": "Ma,M,Mur", "Metres": 1046.0, "Feet": 3432, "Grid Ref": "NN377741", "Xcoord": 237741, "Ycoord": 774115, "Latitude": 56.830086, "Longitude": -4.660831 }, "geometry": { "type": "Point", "coordinates": [ 237741.0, 774115.0 ] } },
{ "type": "Feature", "properties": { "Number": 361, "Name": "Sgor Gaibhre", "Classifica": "Ma,M,Mur", "Metres": 955.0, "Feet": 3133, "Grid Ref": "NN444674", "Xcoord": 244477, "Ycoord": 767447, "Latitude": 56.772544, "Longitude": -4.546498 }, "geometry": { "type": "Point", "coordinates": [ 244477.0, 767447.0 ] } },
{ "type": "Feature", "properties": { "Number": 363, "Name": "Carn Dearg", "Classifica": "Ma,M,Mur", "Metres": 941.0, "Feet": 3087, "Grid Ref": "NN417661", "Xcoord": 241773, "Ycoord": 766142, "Latitude": 56.759922, "Longitude": -4.589888 }, "geometry": { "type": "Point", "coordinates": [ 241773.0, 766142.0 ] } },
{ "type": "Feature", "properties": { "Number": 384, "Name": "Sgairneach Mhor", "Classifica": "Ma,M,Mur", "Metres": 991.0, "Feet": 3251, "Grid Ref": "NN598731", "Xcoord": 259882, "Ycoord": 773128, "Latitude": 56.828429, "Longitude": -4.297791 }, "geometry": { "type": "Point", "coordinates": [ 259882.0, 773128.0 ] } },
{ "type": "Feature", "properties": { "Number": 392, "Name": "Geal-charn", "Classifica": "Ma,M,Mur", "Metres": 917.1, "Feet": 3009, "Grid Ref": "NN596782", "Xcoord": 259644, "Ycoord": 778261, "Latitude": 56.874434, "Longitude": -4.304511 }, "geometry": { "type": "Point", "coordinates": [ 259644.0, 778261.0 ] } },
{ "type": "Feature", "properties": { "Number": 409, "Name": "Carn a'Chlamain", "Classifica": "Ma,M,Mur", "Metres": 963.0, "Feet": 3159, "Grid Ref": "NN915758", "Xcoord": 291590, "Ycoord": 775807, "Latitude": 56.860965, "Longitude": -3.779651 }, "geometry": { "type": "Point", "coordinates": [ 291590.0, 775807.0 ] } },
{ "type": "Feature", "properties": { "Number": 422, "Name": "Beinn a'Ghlo - Braigh Coire Chruinn-bhalgain", "Classifica": "Ma,M,Mur", "Metres": 1070.0, "Feet": 3510, "Grid Ref": "NN945724", "Xcoord": 294565, "Ycoord": 772411, "Latitude": 56.831156, "Longitude": -3.729475 }, "geometry": { "type": "Point", "coordinates": [ 294565.0, 772411.0 ] } },
{ "type": "Feature", "properties": { "Number": 426, "Name": "Carn an Righ", "Classifica": "Ma,M,Mur", "Metres": 1029.0, "Feet": 3376, "Grid Ref": "NO028772", "Xcoord": 302871, "Ycoord": 777266, "Latitude": 56.876565, "Longitude": -3.595272 }, "geometry": { "type": "Point", "coordinates": [ 302871.0, 777266.0 ] } },
{ "type": "Feature", "properties": { "Number": 525, "Name": "Cairn Gorm", "Classifica": "Hu,M,Mur,sMa", "Metres": 1244.0, "Feet": 4081, "Grid Ref": "NJ005040", "Xcoord": 300519, "Ycoord": 804067, "Latitude": 57.116732, "Longitude": -3.644428 }, "geometry": { "type": "Point", "coordinates": [ 300519.0, 804067.0 ] } },
{ "type": "Feature", "properties": { "Number": 538, "Name": "Beinn Bhrotain", "Classifica": "Ma,M,Mur", "Metres": 1157.0, "Feet": 3796, "Grid Ref": "NN954922", "Xcoord": 295412, "Ycoord": 792292, "Latitude": 57.009868, "Longitude": -3.723813 }, "geometry": { "type": "Point", "coordinates": [ 295412.0, 792292.0 ] } },
{ "type": "Feature", "properties": { "Number": 548, "Name": "Sgor Gaoith", "Classifica": "Ma,M,Mur", "Metres": 1118.0, "Feet": 3668, "Grid Ref": "NN903989", "Xcoord": 290300, "Ycoord": 798960, "Latitude": 57.068552, "Longitude": -3.810856 }, "geometry": { "type": "Point", "coordinates": [ 290300.0, 798960.0 ] } },
{ "type": "Feature", "properties": { "Number": 683, "Name": "Gleouraich", "Classifica": "Ma,M,Mur", "Metres": 1035.0, "Feet": 3396, "Grid Ref": "NH039053", "Xcoord": 203944, "Ycoord": 805344, "Latitude": 57.097154, "Longitude": -5.238051 }, "geometry": { "type": "Point", "coordinates": [ 203944.0, 805344.0 ] } },
{ "type": "Feature", "properties": { "Number": 684, "Name": "Sgurr a'Mhaoraich", "Classifica": "Ma,M,Mur", "Metres": 1027.0, "Feet": 3369, "Grid Ref": "NG983065", "Xcoord": 198392, "Ycoord": 806549, "Latitude": 57.105562, "Longitude": -5.330483 }, "geometry": { "type": "Point", "coordinates": [ 198392.0, 806549.0 ] } },
{ "type": "Feature", "properties": { "Number": 685, "Name": "Aonach air Chrith", "Classifica": "Ma,M,Mur", "Metres": 1021.0, "Feet": 3350, "Grid Ref": "NH051083", "Xcoord": 205107, "Ycoord": 808345, "Latitude": 57.124564, "Longitude": -5.221224 }, "geometry": { "type": "Point", "coordinates": [ 205107.0, 808345.0 ] } },
{ "type": "Feature", "properties": { "Number": 690, "Name": "Sgurr an Lochain", "Classifica": "Hu,M,Mur", "Metres": 1004.0, "Feet": 3294, "Grid Ref": "NH005104", "Xcoord": 200580, "Ycoord": 810421, "Latitude": 57.141232, "Longitude": -5.297527 }, "geometry": { "type": "Point", "coordinates": [ 200580.0, 810421.0 ] } },
{ "type": "Feature", "properties": { "Number": 691, "Name": "Spidean Mialach", "Classifica": "Ma,M,Mur", "Metres": 996.0, "Feet": 3268, "Grid Ref": "NH065043", "Xcoord": 206591, "Ycoord": 804307, "Latitude": 57.088973, "Longitude": -5.193631 }, "geometry": { "type": "Point", "coordinates": [ 206591.0, 804307.0 ] } },
{ "type": "Feature", "properties": { "Number": 692, "Name": "Druim Shionnach", "Classifica": "Hu,M,Mur", "Metres": 987.0, "Feet": 3238, "Grid Ref": "NH074084", "Xcoord": 207440, "Ycoord": 808483, "Latitude": 57.126785, "Longitude": -5.182857 }, "geometry": { "type": "Point", "coordinates": [ 207440.0, 808483.0 ] } },
{ "type": "Feature", "properties": { "Number": 693, "Name": "Maol Chinn-dearg", "Classifica": "Hu,M,Mur", "Metres": 981.0, "Feet": 3219, "Grid Ref": "NH032087", "Xcoord": 203221, "Ycoord": 808766, "Latitude": 57.127537, "Longitude": -5.252655 }, "geometry": { "type": "Point", "coordinates": [ 203221.0, 808766.0 ] } },
{ "type": "Feature", "properties": { "Number": 695, "Name": "Beinn Sgritheall", "Classifica": "Ma,M,Mur", "Metres": 974.0, "Feet": 3196, "Grid Ref": "NG835126", "Xcoord": 183590, "Ycoord": 812677, "Latitude": 57.153772, "Longitude": -5.579673 }, "geometry": { "type": "Point", "coordinates": [ 183590.0, 812677.0 ] } },
{ "type": "Feature", "properties": { "Number": 700, "Name": "Creag a'Mhaim", "Classifica": "M,Mur", "Metres": 947.0, "Feet": 3107, "Grid Ref": "NH087077", "Xcoord": 208790, "Ycoord": 807771, "Latitude": 57.120962, "Longitude": -5.160047 }, "geometry": { "type": "Point", "coordinates": [ 208790.0, 807771.0 ] } },
{ "type": "Feature", "properties": { "Number": 708, "Name": "Creag nan Damh", "Classifica": "Ma,M,Mur", "Metres": 918.0, "Feet": 3012, "Grid Ref": "NG983112", "Xcoord": 198370, "Ycoord": 811201, "Latitude": 57.147263, "Longitude": -5.334597 }, "geometry": { "type": "Point", "coordinates": [ 198370.0, 811201.0 ] } },
{ "type": "Feature", "properties": { "Number": 730, "Name": "Sgurr na Ciche", "Classifica": "Ma,M,Mur", "Metres": 1040.0, "Feet": 3412, "Grid Ref": "NM902966", "Xcoord": 190223, "Ycoord": 796684, "Latitude": 57.013452, "Longitude": -5.456854 }, "geometry": { "type": "Point", "coordinates": [ 190223.0, 796684.0 ] } },
{ "type": "Feature", "properties": { "Number": 731, "Name": "Ladhar Bheinn", "Classifica": "Ma,M,Mur", "Metres": 1020.0, "Feet": 3346, "Grid Ref": "NG824039", "Xcoord": 182397, "Ycoord": 803983, "Latitude": 57.075262, "Longitude": -5.591794 }, "geometry": { "type": "Point", "coordinates": [ 182397.0, 803983.0 ] } },
{ "type": "Feature", "properties": { "Number": 732, "Name": "Garbh Chioch Mhor", "Classifica": "Ma,M,Mur", "Metres": 1013.0, "Feet": 3323, "Grid Ref": "NM909961", "Xcoord": 190956, "Ycoord": 796099, "Latitude": 57.008538, "Longitude": -5.44432 }, "geometry": { "type": "Point", "coordinates": [ 190956.0, 796099.0 ] } },
{ "type": "Feature", "properties": { "Number": 733, "Name": "Sgurr Mor", "Classifica": "Ma,M,Mur", "Metres": 1003.0, "Feet": 3291, "Grid Ref": "NM965980", "Xcoord": 196534, "Ycoord": 798039, "Latitude": 57.028428, "Longitude": -5.354204 }, "geometry": { "type": "Point", "coordinates": [ 196534.0, 798039.0 ] } },
{ "type": "Feature", "properties": { "Number": 736, "Name": "Sgurr nan Coireachan", "Classifica": "Ma,M,Mur", "Metres": 953.0, "Feet": 3127, "Grid Ref": "NM933958", "Xcoord": 193308, "Ycoord": 795827, "Latitude": 57.007158, "Longitude": -5.40544 }, "geometry": { "type": "Point", "coordinates": [ 193308.0, 795827.0 ] } },
{ "type": "Feature", "properties": { "Number": 739, "Name": "Luinne Bheinn", "Classifica": "Ma,M,Mur", "Metres": 939.0, "Feet": 3081, "Grid Ref": "NG869007", "Xcoord": 186984, "Ycoord": 800742, "Latitude": 57.048346, "Longitude": -5.513527 }, "geometry": { "type": "Point", "coordinates": [ 186984.0, 800742.0 ] } },
{ "type": "Feature", "properties": { "Number": 741, "Name": "Gairich", "Classifica": "Ma,M,Mur", "Metres": 919.0, "Feet": 3015, "Grid Ref": "NN025995", "Xcoord": 202589, "Ycoord": 799581, "Latitude": 57.044888, "Longitude": -5.255844 }, "geometry": { "type": "Point", "coordinates": [ 202589.0, 799581.0 ] } },
{ "type": "Feature", "properties": { "Number": 759, "Name": "Meall na Teanga", "Classifica": "Ma,M,Mur", "Metres": 918.0, "Feet": 3012, "Grid Ref": "NN220924", "Xcoord": 222024, "Ycoord": 792482, "Latitude": 56.989111, "Longitude": -4.930946 }, "geometry": { "type": "Point", "coordinates": [ 222024.0, 792482.0 ] } },
{ "type": "Feature", "properties": { "Number": 773, "Name": "Gulvain [Gaor Bheinn]", "Classifica": "Ma,M,Mur", "Metres": 987.0, "Feet": 3238, "Grid Ref": "NN002875", "Xcoord": 200267, "Ycoord": 787572, "Latitude": 56.936184, "Longitude": -5.284525 }, "geometry": { "type": "Point", "coordinates": [ 200267.0, 787572.0 ] } },
{ "type": "Feature", "properties": { "Number": 774, "Name": "Sgurr Thuilm", "Classifica": "Ma,M,Mur", "Metres": 963.0, "Feet": 3159, "Grid Ref": "NM939879", "Xcoord": 193904, "Ycoord": 787980, "Latitude": 56.937055, "Longitude": -5.38924 }, "geometry": { "type": "Point", "coordinates": [ 193904.0, 787980.0 ] } },
{ "type": "Feature", "properties": { "Number": 776, "Name": "Sgurr nan Coireachan", "Classifica": "Ma,M,Mur", "Metres": 956.0, "Feet": 3136, "Grid Ref": "NM902880", "Xcoord": 190289, "Ycoord": 788013, "Latitude": 56.935728, "Longitude": -5.448568 }, "geometry": { "type": "Point", "coordinates": [ 190289.0, 788013.0 ] } },
{ "type": "Feature", "properties": { "Number": 803, "Name": "Carn Eige [Carn Eighe]", "Classifica": "Ma,M,Mur,CoH", "Metres": 1183.0, "Feet": 3881, "Grid Ref": "NH123261", "Xcoord": 212357, "Ycoord": 826197, "Latitude": 57.287702, "Longitude": -5.115126 }, "geometry": { "type": "Point", "coordinates": [ 212357.0, 826197.0 ] } },
{ "type": "Feature", "properties": { "Number": 804, "Name": "Mam Sodhail", "Classifica": "Hu,M,Mur", "Metres": 1181.0, "Feet": 3875, "Grid Ref": "NH119253", "Xcoord": 211962, "Ycoord": 825351, "Latitude": 57.279951, "Longitude": -5.121026 }, "geometry": { "type": "Point", "coordinates": [ 211962.0, 825351.0 ] } },
{ "type": "Feature", "properties": { "Number": 805, "Name": "Sgurr nan Ceathreamhnan", "Classifica": "Ma,M,Mur", "Metres": 1151.0, "Feet": 3776, "Grid Ref": "NH057228", "Xcoord": 205702, "Ycoord": 822850, "Latitude": 57.254902, "Longitude": -5.222731 }, "geometry": { "type": "Point", "coordinates": [ 205702.0, 822850.0 ] } },
{ "type": "Feature", "properties": { "Number": 815, "Name": "Sgurr Fhuaran", "Classifica": "Ma,M,Mur", "Metres": 1067.0, "Feet": 3501, "Grid Ref": "NG978166", "Xcoord": 197847, "Ycoord": 816679, "Latitude": 57.196158, "Longitude": -5.347684 }, "geometry": { "type": "Point", "coordinates": [ 197847.0, 816679.0 ] } },
{ "type": "Feature", "properties": { "Number": 818, "Name": "Toll Creagach", "Classifica": "Ma,M,Mur", "Metres": 1054.0, "Feet": 3458, "Grid Ref": "NH194282", "Xcoord": 219401, "Ycoord": 828280, "Latitude": 57.309227, "Longitude": -4.999953 }, "geometry": { "type": "Point", "coordinates": [ 219401.0, 828280.0 ] } },
{ "type": "Feature", "properties": { "Number": 823, "Name": "Beinn Fhada", "Classifica": "Ma,M,Mur", "Metres": 1032.0, "Feet": 3386, "Grid Ref": "NH018192", "Xcoord": 201855, "Ycoord": 819253, "Latitude": 57.220993, "Longitude": -5.283518 }, "geometry": { "type": "Point", "coordinates": [ 201855.0, 819253.0 ] } },
{ "type": "Feature", "properties": { "Number": 825, "Name": "Sgurr na Ciste Duibhe", "Classifica": "Ma,M,Mur", "Metres": 1027.0, "Feet": 3369, "Grid Ref": "NG984149", "Xcoord": 198398, "Ycoord": 814952, "Latitude": 57.180914, "Longitude": -5.337167 }, "geometry": { "type": "Point", "coordinates": [ 198398.0, 814952.0 ] } },
{ "type": "Feature", "properties": { "Number": 827, "Name": "Sgurr na Carnach", "Classifica": "Hu,M,Mur", "Metres": 1002.0, "Feet": 3287, "Grid Ref": "NG977158", "Xcoord": 197714, "Ycoord": 815890, "Latitude": 57.189024, "Longitude": -5.34924 }, "geometry": { "type": "Point", "coordinates": [ 197714.0, 815890.0 ] } },
{ "type": "Feature", "properties": { "Number": 828, "Name": "Aonach Meadhoin", "Classifica": "Ma,M,Mur", "Metres": 1001.0, "Feet": 3284, "Grid Ref": "NH048137", "Xcoord": 204885, "Ycoord": 813766, "Latitude": 57.173082, "Longitude": -5.229121 }, "geometry": { "type": "Point", "coordinates": [ 204885.0, 813766.0 ] } },
{ "type": "Feature", "properties": { "Number": 839, "Name": "Saileag", "Classifica": "M,Mur,sHu", "Metres": 956.0, "Feet": 3136, "Grid Ref": "NH017148", "Xcoord": 201774, "Ycoord": 814827, "Latitude": 57.181264, "Longitude": -5.281331 }, "geometry": { "type": "Point", "coordinates": [ 201774.0, 814827.0 ] } },
{ "type": "Feature", "properties": { "Number": 862, "Name": "A'Chralaig", "Classifica": "Ma,M,Mur", "Metres": 1120.0, "Feet": 3675, "Grid Ref": "NH094148", "Xcoord": 209428, "Ycoord": 814798, "Latitude": 57.184247, "Longitude": -5.154892 }, "geometry": { "type": "Point", "coordinates": [ 209428.0, 814798.0 ] } },
{ "type": "Feature", "properties": { "Number": 863, "Name": "Sgurr nan Conbhairean", "Classifica": "Ma,M,Mur", "Metres": 1109.0, "Feet": 3638, "Grid Ref": "NH129138", "Xcoord": 212987, "Ycoord": 813895, "Latitude": 57.177613, "Longitude": -5.095423 }, "geometry": { "type": "Point", "coordinates": [ 212987.0, 813895.0 ] } },
{ "type": "Feature", "properties": { "Number": 864, "Name": "Mullach Fraoch-choire", "Classifica": "Ma,M,Mur", "Metres": 1102.0, "Feet": 3615, "Grid Ref": "NH094171", "Xcoord": 209489, "Ycoord": 817160, "Latitude": 57.205459, "Longitude": -5.155692 }, "geometry": { "type": "Point", "coordinates": [ 209489.0, 817160.0 ] } },
{ "type": "Feature", "properties": { "Number": 871, "Name": "Carn Ghluasaid", "Classifica": "M,Mur", "Metres": 957.0, "Feet": 3140, "Grid Ref": "NH145125", "Xcoord": 214575, "Ycoord": 812522, "Latitude": 57.16595, "Longitude": -5.068174 }, "geometry": { "type": "Point", "coordinates": [ 214575.0, 812522.0 ] } },
{ "type": "Feature", "properties": { "Number": 884, "Name": "Sgurr a'Choire Ghlais", "Classifica": "Ma,M,Mur", "Metres": 1083.0, "Feet": 3553, "Grid Ref": "NH258430", "Xcoord": 225882, "Ycoord": 843016, "Latitude": 57.443947, "Longitude": -4.902963 }, "geometry": { "type": "Point", "coordinates": [ 225882.0, 843016.0 ] } },
{ "type": "Feature", "properties": { "Number": 886, "Name": "Sgurr Fhuar-thuill", "Classifica": "Hu,M,Mur,sMa", "Metres": 1049.0, "Feet": 3442, "Grid Ref": "NH235437", "Xcoord": 223580, "Ycoord": 843754, "Latitude": 57.44968, "Longitude": -4.94178 }, "geometry": { "type": "Point", "coordinates": [ 223580.0, 843754.0 ] } },
{ "type": "Feature", "properties": { "Number": 894, "Name": "Sgurr na Ruaidhe", "Classifica": "Ma,M,Mur", "Metres": 993.0, "Feet": 3258, "Grid Ref": "NH289426", "Xcoord": 228900, "Ycoord": 842614, "Latitude": 57.441488, "Longitude": -4.852464 }, "geometry": { "type": "Point", "coordinates": [ 228900.0, 842614.0 ] } },
{ "type": "Feature", "properties": { "Number": 895, "Name": "Carn nan Gobhar", "Classifica": "Hu,M,Mur", "Metres": 992.0, "Feet": 3255, "Grid Ref": "NH273438", "Xcoord": 227303, "Ycoord": 843890, "Latitude": 57.452331, "Longitude": -4.879935 }, "geometry": { "type": "Point", "coordinates": [ 227303.0, 843890.0 ] } },
{ "type": "Feature", "properties": { "Number": 926, "Name": "Sgurr na Lapaich", "Classifica": "Ma,M,Mur", "Metres": 1150.0, "Feet": 3773, "Grid Ref": "NH160351", "Xcoord": 216102, "Ycoord": 835126, "Latitude": 57.369319, "Longitude": -5.059743 }, "geometry": { "type": "Point", "coordinates": [ 216102.0, 835126.0 ] } },
{ "type": "Feature", "properties": { "Number": 1239, "Name": "Sgurr Alasdair", "Classifica": "Ma,M,Mur", "Metres": 992.0, "Feet": 3255, "Grid Ref": "NG450207", "Xcoord": 145000, "Ycoord": 820786, "Latitude": 57.206615, "Longitude": -6.224179 }, "geometry": { "type": "Point", "coordinates": [ 145000.0, 820786.0 ] } },
{ "type": "Feature", "properties": { "Number": 1240, "Name": "Sgurr Dearg - Inaccessible Pinnacle", "Classifica": "Ma,M,Mur", "Metres": 986.0, "Feet": 3235, "Grid Ref": "NG444215", "Xcoord": 144404, "Ycoord": 821566, "Latitude": 57.21327, "Longitude": -6.234819 }, "geometry": { "type": "Point", "coordinates": [ 144404.0, 821566.0 ] } },
{ "type": "Feature", "properties": { "Number": 1243, "Name": "Sgurr a'Ghreadaidh", "Classifica": "Hu,M,Mur", "Metres": 972.0, "Feet": 3189, "Grid Ref": "NG445232", "Xcoord": 144500, "Ycoord": 823200, "Latitude": 57.227964, "Longitude": -6.234914 }, "geometry": { "type": "Point", "coordinates": [ 144500.0, 823200.0 ] } },
{ "type": "Feature", "properties": { "Number": 1245, "Name": "Sgurr na Banachdich", "Classifica": "Hu,M,Mur", "Metres": 965.0, "Feet": 3166, "Grid Ref": "NG440224", "Xcoord": 144045, "Ycoord": 822449, "Latitude": 57.22098, "Longitude": -6.241655 }, "geometry": { "type": "Point", "coordinates": [ 144045.0, 822449.0 ] } },
{ "type": "Feature", "properties": { "Number": 1246, "Name": "Sgurr nan Gillean", "Classifica": "Ma,M,Mur", "Metres": 964.0, "Feet": 3163, "Grid Ref": "NG471252", "Xcoord": 147100, "Ycoord": 825200, "Latitude": 57.247325, "Longitude": -6.194006 }, "geometry": { "type": "Point", "coordinates": [ 147100.0, 825200.0 ] } },
{ "type": "Feature", "properties": { "Number": 1247, "Name": "Bruach na Frithe", "Classifica": "Hu,M,Mur", "Metres": 958.0, "Feet": 3143, "Grid Ref": "NG460251", "Xcoord": 146084, "Ycoord": 825201, "Latitude": 57.24677, "Longitude": -6.210796 }, "geometry": { "type": "Point", "coordinates": [ 146084.0, 825201.0 ] } },
{ "type": "Feature", "properties": { "Number": 1250, "Name": "Sgurr Dubh Mor", "Classifica": "M,Mur", "Metres": 944.0, "Feet": 3097, "Grid Ref": "NG457205", "Xcoord": 145758, "Ycoord": 820547, "Latitude": 57.204894, "Longitude": -6.211421 }, "geometry": { "type": "Point", "coordinates": [ 145758.0, 820547.0 ] } },
{ "type": "Feature", "properties": { "Number": 1254, "Name": "Am Basteir", "Classifica": "M,Mur", "Metres": 934.0, "Feet": 3064, "Grid Ref": "NG465253", "Xcoord": 146561, "Ycoord": 825302, "Latitude": 57.247939, "Longitude": -6.203016 }, "geometry": { "type": "Point", "coordinates": [ 146561.0, 825302.0 ] } },
{ "type": "Feature", "properties": { "Number": 1255, "Name": "Bla Bheinn [Blaven] [Blabheinn]", "Classifica": "Ma,M,Mur", "Metres": 928.0, "Feet": 3045, "Grid Ref": "NG529217", "Xcoord": 152989, "Ycoord": 821747, "Latitude": 57.2196, "Longitude": -6.093231 }, "geometry": { "type": "Point", "coordinates": [ 152989.0, 821747.0 ] } },
{ "type": "Feature", "properties": { "Number": 1258, "Name": "Sgurr nan Eag", "Classifica": "Hu,M,Mur", "Metres": 924.0, "Feet": 3031, "Grid Ref": "NG457195", "Xcoord": 145708, "Ycoord": 819538, "Latitude": 57.195827, "Longitude": -6.211216 }, "geometry": { "type": "Point", "coordinates": [ 145708.0, 819538.0 ] } },
{ "type": "Feature", "properties": { "Number": 1259, "Name": "Sgurr a'Mhadaidh", "Classifica": "M,Mur", "Metres": 918.0, "Feet": 3012, "Grid Ref": "NG446235", "Xcoord": 144699, "Ycoord": 823509, "Latitude": 57.230841, "Longitude": -6.231944 }, "geometry": { "type": "Point", "coordinates": [ 144699.0, 823509.0 ] } },
{ "type": "Feature", "properties": { "Number": 1301, "Name": "Ben More", "Classifica": "Ma,M,Mur", "Metres": 966.0, "Feet": 3169, "Grid Ref": "NM525330", "Xcoord": 152575, "Ycoord": 733078, "Latitude": 56.424828, "Longitude": -6.014032 }, "geometry": { "type": "Point", "coordinates": [ 152575.0, 733078.0 ] } }
]
}
