{
"type": "FeatureCollection",
"crs": { "type": "name", "properties": { "name": "urn:ogc:def:crs:OGC:1.3:CRS84" } },
                                                                                
"features": [
{ "type": "Feature", "properties": { "Number": 347, "Name": "Aonach Beag", "Classifica": "M,Mur,sHu", "Metres": 1115.7, "Feet": 3660, "Grid Ref": "NN457741", "Xcoord": 245787, "Ycoord": 774189, "Latitude": 56.833489, "Longitude": -4.529158, "Viewable": 1466.08 }, "geometry": { "type": "Point", "coordinates": [ -4.529172705545435, 56.833502736108279 ] } },
{ "type": "Feature", "properties": { "Number": 348, "Name": "Beinn Eibhinn", "Classifica": "Hu,M,Mur", "Metres": 1103.2, "Feet": 3619, "Grid Ref": "NN449733", "Xcoord": 244965, "Ycoord": 773302, "Latitude": 56.825255, "Longitude": -4.542077, "Viewable": 608.6 }, "geometry": { "type": "Point", "coordinates": [ -4.542090575895859, 56.825268724361742 ] } },
{ "type": "Feature", "properties": { "Number": 351, "Name": "Chno Dearg", "Classifica": "Ma,M,Mur", "Metres": 1046.0, "Feet": 3432, "Grid Ref": "NN377741", "Xcoord": 237741, "Ycoord": 774115, "Latitude": 56.830086, "Longitude": -4.660831, "Viewable": 881.44 }, "geometry": { "type": "Point", "coordinates": [ -4.660842305740955, 56.830098983145518 ] } },
{ "type": "Feature", "properties": { "Number": 356, "Name": "Stob Coire Sgriodain", "Classifica": "M,Mur,sHu", "Metres": 979.0, "Feet": 3212, "Grid Ref": "NN356743", "Xcoord": 235669, "Ycoord": 774380, "Latitude": 56.831736, "Longitude": -4.694917, "Viewable": 653.38 }, "geometry": { "type": "Point", "coordinates": [ -4.694928388028243, 56.831748978559368 ] } },
{ "type": "Feature", "properties": { "Number": 758, "Name": "Sron a'Choire Ghairbh", "Classifica": "Ma,M,Mur", "Metres": 937.0, "Feet": 3074, "Grid Ref": "NN222945", "Xcoord": 222246, "Ycoord": 794562, "Latitude": 57.007857, "Longitude": -4.928764, "Viewable": 576.0 }, "geometry": { "type": "Point", "coordinates": [ -4.928772590803275, 57.007875388168287 ] } },
{ "type": "Feature", "properties": { "Number": 804, "Name": "Mam Sodhail", "Classifica": "Hu,M,Mur", "Metres": 1181.0, "Feet": 3875, "Grid Ref": "NH119253", "Xcoord": 211962, "Ycoord": 825351, "Latitude": 57.279951, "Longitude": -5.121026, "Viewable": 3011.5 }, "geometry": { "type": "Point", "coordinates": [ -5.121033309424234, 57.279972431026664 ] } },
{ "type": "Feature", "properties": { "Number": 826, "Name": "Beinn Fhionnlaidh", "Classifica": "Ma,M,Mur", "Metres": 1005.0, "Feet": 3297, "Grid Ref": "NH115282", "Xcoord": 211559, "Ycoord": 828273, "Latitude": 57.305995, "Longitude": -5.129927, "Viewable": 480.76 }, "geometry": { "type": "Point", "coordinates": [ -5.129934156931337, 57.306015001183439 ] } },
{ "type": "Feature", "properties": { "Number": 833, "Name": "Mullach na Dheiragain", "Classifica": "Hu,M,Mur,sMa", "Metres": 982.0, "Feet": 3222, "Grid Ref": "NH080259", "Xcoord": 208044, "Ycoord": 825917, "Latitude": 57.283399, "Longitude": -5.18635, "Viewable": 367.65 }, "geometry": { "type": "Point", "coordinates": [ -5.186355356294624, 57.283419846162566 ] } },
{ "type": "Feature", "properties": { "Number": 846, "Name": "A'Ghlas-bheinn", "Classifica": "Ma,M,Mur", "Metres": 918.0, "Feet": 3012, "Grid Ref": "NH008231", "Xcoord": 200823, "Ycoord": 823104, "Latitude": 57.255081, "Longitude": -5.30367, "Viewable": 213.34 }, "geometry": { "type": "Point", "coordinates": [ -5.303672923461921, 57.25510267510996 ] } },
{ "type": "Feature", "properties": { "Number": 862, "Name": "A'Chralaig", "Classifica": "Ma,M,Mur", "Metres": 1120.0, "Feet": 3675, "Grid Ref": "NH094148", "Xcoord": 209428, "Ycoord": 814798, "Latitude": 57.184247, "Longitude": -5.154892, "Viewable": 2466.1 }, "geometry": { "type": "Point", "coordinates": [ -5.154897389436341, 57.184270428988732 ] } },
{ "type": "Feature", "properties": { "Number": 864, "Name": "Mullach Fraoch-choire", "Classifica": "Ma,M,Mur", "Metres": 1102.0, "Feet": 3615, "Grid Ref": "NH094171", "Xcoord": 209489, "Ycoord": 817160, "Latitude": 57.205459, "Longitude": -5.155692, "Viewable": 912.72 }, "geometry": { "type": "Point", "coordinates": [ -5.155697925863062, 57.20548129632396 ] } },
{ "type": "Feature", "properties": { "Number": 885, "Name": "Sgurr a'Chaorachain", "Classifica": "Ma,M,Mur", "Metres": 1053.0, "Feet": 3455, "Grid Ref": "NH087447", "Xcoord": 208749, "Ycoord": 844737, "Latitude": 57.452492, "Longitude": -5.1893, "Viewable": 987.99 }, "geometry": { "type": "Point", "coordinates": [ -5.189306953608693, 57.452508903221116 ] } },
{ "type": "Feature", "properties": { "Number": 890, "Name": "Maoile Lunndaidh", "Classifica": "Ma,M,Mur", "Metres": 1005.0, "Feet": 3297, "Grid Ref": "NH135458", "Xcoord": 213518, "Ycoord": 845867, "Latitude": 57.464611, "Longitude": -5.110808, "Viewable": 794.99 }, "geometry": { "type": "Point", "coordinates": [ -5.110816984798627, 57.464628440928188 ] } },
{ "type": "Feature", "properties": { "Number": 896, "Name": "Lurg Mhor", "Classifica": "Ma,M,Mur", "Metres": 987.0, "Feet": 3238, "Grid Ref": "NH064404", "Xcoord": 206481, "Ycoord": 840451, "Latitude": 57.413091, "Longitude": -5.22365, "Viewable": 719.86 }, "geometry": { "type": "Point", "coordinates": [ -5.223655686828506, 57.413109377063648 ] } },
{ "type": "Feature", "properties": { "Number": 898, "Name": "Bidein a'Choire Sheasgaich", "Classifica": "Ma,M,Mur", "Metres": 945.0, "Feet": 3100, "Grid Ref": "NH049412", "Xcoord": 204908, "Ycoord": 841265, "Latitude": 57.419719, "Longitude": -5.25044, "Viewable": 178.11 }, "geometry": { "type": "Point", "coordinates": [ -5.25044499827944, 57.419737216985411 ] } },
{ "type": "Feature", "properties": { "Number": 926, "Name": "Sgurr na Lapaich", "Classifica": "Ma,M,Mur", "Metres": 1150.0, "Feet": 3773, "Grid Ref": "NH160351", "Xcoord": 216102, "Ycoord": 835126, "Latitude": 57.369319, "Longitude": -5.059743, "Viewable": 2551.19 }, "geometry": { "type": "Point", "coordinates": [ -5.05975181485052, 57.369338804802695 ] } },
{ "type": "Feature", "properties": { "Number": 927, "Name": "An Riabhachan", "Classifica": "Ma,M,Mur", "Metres": 1129.0, "Feet": 3704, "Grid Ref": "NH133344", "Xcoord": 213363, "Ycoord": 834483, "Latitude": 57.362438, "Longitude": -5.104728, "Viewable": 1005.62 }, "geometry": { "type": "Point", "coordinates": [ -5.104736295532149, 57.362457125191391 ] } },
{ "type": "Feature", "properties": { "Number": 936, "Name": "Carn nan Gobhar", "Classifica": "Ma,M,Mur", "Metres": 993.0, "Feet": 3258, "Grid Ref": "NH181343", "Xcoord": 218188, "Ycoord": 834362, "Latitude": 57.363304, "Longitude": -5.024544, "Viewable": 1464.98 }, "geometry": { "type": "Point", "coordinates": [ -5.024553927647769, 57.363323225569012 ] } },
{ "type": "Feature", "properties": { "Number": 953, "Name": "Liathach - Spidean a'Choire Leith", "Classifica": "Ma,M,Mur", "Metres": 1055.0, "Feet": 3461, "Grid Ref": "NG929579", "Xcoord": 192936, "Ycoord": 857969, "Latitude": 57.564189, "Longitude": -5.463575, "Viewable": 699.32 }, "geometry": { "type": "Point", "coordinates": [ -5.463577674939199, 57.564212637401894 ] } },
{ "type": "Feature", "properties": { "Number": 954, "Name": "Liathach - Mullach an Rathain", "Classifica": "Ma,M,Mur", "Metres": 1023.0, "Feet": 3356, "Grid Ref": "NG911576", "Xcoord": 191184, "Ycoord": 857691, "Latitude": 57.560891, "Longitude": -5.492566, "Viewable": 885.96 }, "geometry": { "type": "Point", "coordinates": [ -5.492568707951095, 57.560914304330034 ] } },
{ "type": "Feature", "properties": { "Number": 955, "Name": "Beinn Eighe - Ruadh-stac Mor", "Classifica": "Ma,M,Mur", "Metres": 1010.0, "Feet": 3314, "Grid Ref": "NG951611", "Xcoord": 195142, "Ycoord": 861151, "Latitude": 57.593726, "Longitude": -5.429453, "Viewable": 1029.43 }, "geometry": { "type": "Point", "coordinates": [ -5.4294570723097, 57.593748493508556 ] } },
{ "type": "Feature", "properties": { "Number": 956, "Name": "Beinn Eighe - Spidean Coire nan Clach", "Classifica": "Ma,M,Mur", "Metres": 993.0, "Feet": 3258, "Grid Ref": "NG966597", "Xcoord": 196615, "Ycoord": 859780, "Latitude": 57.582098, "Longitude": -5.403706, "Viewable": 625.99 }, "geometry": { "type": "Point", "coordinates": [ -5.403710261342403, 57.582121282610728 ] } },
{ "type": "Feature", "properties": { "Number": 957, "Name": "Beinn Alligin - Sgurr Mhor", "Classifica": "Ma,M,Mur", "Metres": 986.0, "Feet": 3235, "Grid Ref": "NG865612", "Xcoord": 186564, "Ycoord": 861270, "Latitude": 57.59082, "Longitude": -5.572781, "Viewable": 1225.83 }, "geometry": { "type": "Point", "coordinates": [ -5.572781393536327, 57.590842581938659 ] } },
{ "type": "Feature", "properties": { "Number": 968, "Name": "Beinn Alligin - Tom na Gruagaich", "Classifica": "Ma,M,Mur", "Metres": 922.0, "Feet": 3025, "Grid Ref": "NG859601", "Xcoord": 185958, "Ycoord": 860154, "Latitude": 57.580528, "Longitude": -5.581913, "Viewable": 1035.89 }, "geometry": { "type": "Point", "coordinates": [ -5.581913522095197, 57.580551049068475 ] } },
{ "type": "Feature", "properties": { "Number": 981, "Name": "Sgorr Ruadh", "Classifica": "Ma,M,Mur", "Metres": 962.0, "Feet": 3156, "Grid Ref": "NG959505", "Xcoord": 195906, "Ycoord": 850509, "Latitude": 57.498648, "Longitude": -5.407766, "Viewable": 786.81 }, "geometry": { "type": "Point", "coordinates": [ -5.407769274708741, 57.498672977691953 ] } },
{ "type": "Feature", "properties": { "Number": 982, "Name": "Maol Chean-dearg", "Classifica": "Ma,M,Mur", "Metres": 933.0, "Feet": 3061, "Grid Ref": "NG924499", "Xcoord": 192406, "Ycoord": 849911, "Latitude": 57.491697, "Longitude": -5.465549, "Viewable": 613.72 }, "geometry": { "type": "Point", "coordinates": [ -5.465551027918687, 57.491721609267501 ] } },
{ "type": "Feature", "properties": { "Number": 983, "Name": "Beinn Liath Mhor", "Classifica": "Ma,M,Mur", "Metres": 926.0, "Feet": 3038, "Grid Ref": "NG964519", "Xcoord": 196408, "Ycoord": 851980, "Latitude": 57.512064, "Longitude": -5.400633, "Viewable": 162.63 }, "geometry": { "type": "Point", "coordinates": [ -5.400636295699175, 57.512088747963865 ] } },
{ "type": "Feature", "properties": { "Number": 1003, "Name": "An Teallach - Bidein a'Ghlas Thuill", "Classifica": "Ma,M,Mur", "Metres": 1062.0, "Feet": 3484, "Grid Ref": "NH069843", "Xcoord": 206899, "Ycoord": 884372, "Latitude": 57.807153, "Longitude": -5.251721, "Viewable": 1629.76 }, "geometry": { "type": "Point", "coordinates": [ -5.251730197609828, 57.807171838301372 ] } },
{ "type": "Feature", "properties": { "Number": 1009, "Name": "Sgurr Ban", "Classifica": "Ma,M,Mur", "Metres": 989.0, "Feet": 3245, "Grid Ref": "NH055745", "Xcoord": 205579, "Ycoord": 874553, "Latitude": 57.718528, "Longitude": -5.265935, "Viewable": 1161.73 }, "geometry": { "type": "Point", "coordinates": [ -5.265943204964962, 57.718548920403421 ] } },
{ "type": "Feature", "properties": { "Number": 1043, "Name": "A'Chailleach", "Classifica": "Ma,M,Mur", "Metres": 997.0, "Feet": 3271, "Grid Ref": "NH136714", "Xcoord": 213620, "Ycoord": 871414, "Latitude": 57.693782, "Longitude": -5.12873, "Viewable": 1097.64 }, "geometry": { "type": "Point", "coordinates": [ -5.128740912993928, 57.693803270317147 ] } }
]
}
