{
"type": "FeatureCollection",
"crs": { "type": "name", "properties": { "name": "urn:ogc:def:crs:OGC:1.3:CRS84" } },
                                                                                
"features": [
{ "type": "Feature", "properties": { "Number": 1, "Name": "Ben Chonzie", "Classifica": "Ma,M,Mur", "Metres": 931.0, "Feet": 3054, "Grid Ref": "NN773308", "Xcoord": 277324, "Ycoord": 730857, "Latitude": 56.453851, "Longitude": -3.992057, "Viewable": 2111.33 }, "geometry": { "type": "Point", "coordinates": [ -3.99206200693323, 56.453856530406412 ] } },
{ "type": "Feature", "properties": { "Number": 17, "Name": "Ben Vorlich", "Classifica": "Ma,M,Mur", "Metres": 985.0, "Feet": 3232, "Grid Ref": "NN629189", "Xcoord": 262910, "Ycoord": 718915, "Latitude": 56.342671, "Longitude": -4.21948, "Viewable": 2666.0 }, "geometry": { "type": "Point", "coordinates": [ -4.219495635291023, 56.342677209723341 ] } },
{ "type": "Feature", "properties": { "Number": 18, "Name": "Stuc a'Chroin", "Classifica": "Ma,M,Mur", "Metres": 975.0, "Feet": 3199, "Grid Ref": "NN617174", "Xcoord": 261746, "Ycoord": 717466, "Latitude": 56.329324, "Longitude": -4.237534, "Viewable": 2772.99 }, "geometry": { "type": "Point", "coordinates": [ -4.237549383185885, 56.329330486973426 ] } },
{ "type": "Feature", "properties": { "Number": 26, "Name": "Ben More", "Classifica": "Ma,M,Mur,CoU,CoA", "Metres": 1174.0, "Feet": 3852, "Grid Ref": "NN432244", "Xcoord": 243275, "Ycoord": 724417, "Latitude": 56.385952, "Longitude": -4.540103, "Viewable": 5395.04 }, "geometry": { "type": "Point", "coordinates": [ -4.540113304326504, 56.385966153011587 ] } },
{ "type": "Feature", "properties": { "Number": 27, "Name": "Stob Binnein", "Classifica": "Ma,M,Mur", "Metres": 1165.0, "Feet": 3822, "Grid Ref": "NN434227", "Xcoord": 243481, "Ycoord": 722714, "Latitude": 56.370735, "Longitude": -4.535754, "Viewable": 5454.05 }, "geometry": { "type": "Point", "coordinates": [ -4.535764148329166, 56.3707494599198 ] } },
{ "type": "Feature", "properties": { "Number": 30, "Name": "Cruach Ardrain", "Classifica": "Ma,M,Mur", "Metres": 1046.0, "Feet": 3432, "Grid Ref": "NN409212", "Xcoord": 240927, "Ycoord": 721215, "Latitude": 56.356429, "Longitude": -4.576151, "Viewable": 1327.33 }, "geometry": { "type": "Point", "coordinates": [ -4.576160402591344, 56.356443613961282 ] } },
{ "type": "Feature", "properties": { "Number": 31, "Name": "An Caisteal", "Classifica": "Ma,M,Mur", "Metres": 995.0, "Feet": 3264, "Grid Ref": "NN378193", "Xcoord": 237873, "Ycoord": 719345, "Latitude": 56.338618, "Longitude": -4.62437, "Viewable": 1717.21 }, "geometry": { "type": "Point", "coordinates": [ -4.624377236134579, 56.338624251970657 ] } },
{ "type": "Feature", "properties": { "Number": 65, "Name": "Ben Lui [Beinn Laoigh]", "Classifica": "Ma,M,Mur", "Metres": 1130.0, "Feet": 3707, "Grid Ref": "NN266263", "Xcoord": 226635, "Ycoord": 726297, "Latitude": 56.397013, "Longitude": -4.81051, "Viewable": 3782.59 }, "geometry": { "type": "Point", "coordinates": [ -4.81053058075227, 56.39702582631709 ] } },
{ "type": "Feature", "properties": { "Number": 67, "Name": "Ben Oss", "Classifica": "Ma,M,Mur", "Metres": 1029.0, "Feet": 3376, "Grid Ref": "NN287253", "Xcoord": 228761, "Ycoord": 725347, "Latitude": 56.389263, "Longitude": -4.775488, "Viewable": 1445.66 }, "geometry": { "type": "Point", "coordinates": [ -4.775509457776855, 56.389276301083441 ] } },
{ "type": "Feature", "properties": { "Number": 68, "Name": "Beinn Ime", "Classifica": "Ma,M,Mur", "Metres": 1011.0, "Feet": 3317, "Grid Ref": "NN254084", "Xcoord": 225494, "Ycoord": 708491, "Latitude": 56.23682, "Longitude": -4.817175, "Viewable": 1774.61 }, "geometry": { "type": "Point", "coordinates": [ -4.817193927797842, 56.236827174716026 ] } },
{ "type": "Feature", "properties": { "Number": 71, "Name": "Ben Vorlich", "Classifica": "Ma,M,Mur,CoH", "Metres": 943.0, "Feet": 3094, "Grid Ref": "NN295124", "Xcoord": 229509, "Ycoord": 712475, "Latitude": 56.27403, "Longitude": -4.755047, "Viewable": 1094.11 }, "geometry": { "type": "Point", "coordinates": [ -4.755067535252079, 56.274036411876125 ] } },
{ "type": "Feature", "properties": { "Number": 76, "Name": "Ben Vane", "Classifica": "Ma,M,Mur", "Metres": 915.76, "Feet": 3004, "Grid Ref": "NN277098", "Xcoord": 227754, "Ycoord": 709843, "Latitude": 56.249777, "Longitude": -4.781638, "Viewable": 1686.11 }, "geometry": { "type": "Point", "coordinates": [ -4.781658370233979, 56.249784025496517 ] } },
{ "type": "Feature", "properties": { "Number": 103, "Name": "Schiehallion", "Classifica": "Ma,M,Mur", "Metres": 1083.0, "Feet": 3553, "Grid Ref": "NN713547", "Xcoord": 271393, "Ycoord": 754756, "Latitude": 56.666828, "Longitude": -4.100076, "Viewable": 1237.27 }, "geometry": { "type": "Point", "coordinates": [ -4.100081581565044, 56.666837133441902 ] } },
{ "type": "Feature", "properties": { "Number": 104, "Name": "Beinn a'Chreachain", "Classifica": "Ma,M,Mur", "Metres": 1081.0, "Feet": 3547, "Grid Ref": "NN373440", "Xcoord": 237389, "Ycoord": 744075, "Latitude": 56.560387, "Longitude": -4.647589, "Viewable": 1044.86 }, "geometry": { "type": "Point", "coordinates": [ -4.647598463275189, 56.560397108836888 ] } },
{ "type": "Feature", "properties": { "Number": 105, "Name": "Beinn Dorain", "Classifica": "Ma,M,Mur", "Metres": 1076.0, "Feet": 3530, "Grid Ref": "NN325378", "Xcoord": 232563, "Ycoord": 737875, "Latitude": 56.503053, "Longitude": -4.722024, "Viewable": 1045.8 }, "geometry": { "type": "Point", "coordinates": [ -4.722031289863984, 56.50306380306229 ] } },
{ "type": "Feature", "properties": { "Number": 107, "Name": "Carn Mairg", "Classifica": "Ma,M,Mur", "Metres": 1041.0, "Feet": 3415, "Grid Ref": "NN684512", "Xcoord": 268400, "Ycoord": 751200, "Latitude": 56.634069, "Longitude": -4.147057, "Viewable": 512.17 }, "geometry": { "type": "Point", "coordinates": [ -4.147063802322598, 56.634080576322447 ] } },
{ "type": "Feature", "properties": { "Number": 109, "Name": "Carn Gorm", "Classifica": "Ma,M,Mur", "Metres": 1029.0, "Feet": 3376, "Grid Ref": "NN635500", "Xcoord": 263500, "Ycoord": 750000, "Latitude": 56.621893, "Longitude": -4.226238, "Viewable": 619.48 }, "geometry": { "type": "Point", "coordinates": [ -4.226246002261775, 56.621905087704469 ] } },
{ "type": "Feature", "properties": { "Number": 112, "Name": "Beinn an Dothaidh", "Classifica": "Ma,M,Mur", "Metres": 1004.0, "Feet": 3294, "Grid Ref": "NN331408", "Xcoord": 233100, "Ycoord": 740800, "Latitude": 56.529489, "Longitude": -4.715181, "Viewable": 377.06 }, "geometry": { "type": "Point", "coordinates": [ -4.715195049676126, 56.529503044917327 ] } },
{ "type": "Feature", "properties": { "Number": 115, "Name": "Meall na Aighean", "Classifica": "Hu,M,Mur", "Metres": 981.0, "Feet": 3219, "Grid Ref": "NN694496", "Xcoord": 269400, "Ycoord": 749600, "Latitude": 56.619985, "Longitude": -4.129957, "Viewable": 426.25 }, "geometry": { "type": "Point", "coordinates": [ -4.129964132743359, 56.61999656717358 ] } },
{ "type": "Feature", "properties": { "Number": 118, "Name": "Meall Garbh", "Classifica": "Hu,M,Mur", "Metres": 968.0, "Feet": 3176, "Grid Ref": "NN647517", "Xcoord": 264700, "Ycoord": 751700, "Latitude": 56.637502, "Longitude": -4.207589, "Viewable": 95.88 }, "geometry": { "type": "Point", "coordinates": [ -4.207596570567766, 56.637514345100598 ] } },
{ "type": "Feature", "properties": { "Number": 120, "Name": "Stuchd an Lochain [Stuc an Lochain]", "Classifica": "Ma,M,Mur", "Metres": 960.0, "Feet": 3150, "Grid Ref": "NN483448", "Xcoord": 248303, "Ycoord": 744841, "Latitude": 56.570915, "Longitude": -4.470636, "Viewable": 193.83 }, "geometry": { "type": "Point", "coordinates": [ -4.470648660417904, 56.570925727534409 ] } },
{ "type": "Feature", "properties": { "Number": 122, "Name": "Beinn Mhanach", "Classifica": "Ma,M,Mur", "Metres": 953.0, "Feet": 3127, "Grid Ref": "NN373411", "Xcoord": 237369, "Ycoord": 741138, "Latitude": 56.534022, "Longitude": -4.646074, "Viewable": 462.03 }, "geometry": { "type": "Point", "coordinates": [ -4.646082759318204, 56.534032709240158 ] } },
{ "type": "Feature", "properties": { "Number": 123, "Name": "Meall Buidhe", "Classifica": "Ma,M,Mur", "Metres": 932.0, "Feet": 3058, "Grid Ref": "NN498499", "Xcoord": 249839, "Ycoord": 749949, "Latitude": 56.617258, "Longitude": -4.448626, "Viewable": 531.78 }, "geometry": { "type": "Point", "coordinates": [ -4.448639586008599, 56.617267129037465 ] } },
{ "type": "Feature", "properties": { "Number": 141, "Name": "Ben Lawers", "Classifica": "Ma,M,Mur,CoH,CoU,CoA", "Metres": 1214.0, "Feet": 3983, "Grid Ref": "NN635414", "Xcoord": 263551, "Ycoord": 741423, "Latitude": 56.544912, "Longitude": -4.220892, "Viewable": 5284.86 }, "geometry": { "type": "Point", "coordinates": [ -4.220893941012826, 56.544923728277958 ] } },
{ "type": "Feature", "properties": { "Number": 142, "Name": "An Stuc", "Classifica": "Ma=,Hu,M,Mur", "Metres": 1118.0, "Feet": 3668, "Grid Ref": "NN638430", "Xcoord": 263875, "Ycoord": 743089, "Latitude": 56.559962, "Longitude": -4.216501, "Viewable": 3238.06 }, "geometry": { "type": "Point", "coordinates": [ -4.216503123509484, 56.55997366235917 ] } },
{ "type": "Feature", "properties": { "Number": 145, "Name": "Beinn Heasgarnich [Beinn Sheasgarnaich]", "Classifica": "Ma,M,Mur", "Metres": 1078.0, "Feet": 3537, "Grid Ref": "NN413383", "Xcoord": 241381, "Ycoord": 738338, "Latitude": 56.510263, "Longitude": -4.579202, "Viewable": 1004.4 }, "geometry": { "type": "Point", "coordinates": [ -4.579212071225244, 56.51027446945659 ] } },
{ "type": "Feature", "properties": { "Number": 146, "Name": "Meall Corranaich", "Classifica": "Ma,M,Mur", "Metres": 1069.0, "Feet": 3507, "Grid Ref": "NN615410", "Xcoord": 261543, "Ycoord": 741036, "Latitude": 56.54085, "Longitude": -4.253317, "Viewable": 1037.77 }, "geometry": { "type": "Point", "coordinates": [ -4.253318415840341, 56.540862054936831 ] } },
{ "type": "Feature", "properties": { "Number": 148, "Name": "Creag Mhor", "Classifica": "Ma,M,Mur", "Metres": 1047.0, "Feet": 3435, "Grid Ref": "NN391361", "Xcoord": 239149, "Ycoord": 736111, "Latitude": 56.489518, "Longitude": -4.614054, "Viewable": 747.97 }, "geometry": { "type": "Point", "coordinates": [ -4.614064052174806, 56.489530160021879 ] } },
{ "type": "Feature", "properties": { "Number": 149, "Name": "Meall nan Tarmachan", "Classifica": "Ma,M,Mur", "Metres": 1044.0, "Feet": 3425, "Grid Ref": "NN585390", "Xcoord": 258517, "Ycoord": 739000, "Latitude": 56.521672, "Longitude": -4.30136, "Viewable": 506.59 }, "geometry": { "type": "Point", "coordinates": [ -4.301376374445602, 56.521684053076051 ] } },
{ "type": "Feature", "properties": { "Number": 150, "Name": "Meall Ghaordaidh", "Classifica": "Ma,M,Mur", "Metres": 1039.0, "Feet": 3409, "Grid Ref": "NN514397", "Xcoord": 251443, "Ycoord": 739704, "Latitude": 56.52581, "Longitude": -4.416638, "Viewable": 961.75 }, "geometry": { "type": "Point", "coordinates": [ -4.416652099640396, 56.525821187234897 ] } },
{ "type": "Feature", "properties": { "Number": 152, "Name": "Ben Challum [Beinn Challuim]", "Classifica": "Ma,M,Mur", "Metres": 1025.0, "Feet": 3363, "Grid Ref": "NN386322", "Xcoord": 238684, "Ycoord": 732233, "Latitude": 56.454555, "Longitude": -4.619199, "Viewable": 830.36 }, "geometry": { "type": "Point", "coordinates": [ -4.619208155609058, 56.454567612188477 ] } },
{ "type": "Feature", "properties": { "Number": 154, "Name": "Meall Greigh", "Classifica": "Ma,M,Mur", "Metres": 1001.0, "Feet": 3284, "Grid Ref": "NN674438", "Xcoord": 267401, "Ycoord": 743808, "Latitude": 56.567426, "Longitude": -4.159543, "Viewable": 702.0 }, "geometry": { "type": "Point", "coordinates": [ -4.159546000467555, 56.567437701653247 ] } },
{ "type": "Feature", "properties": { "Number": 158, "Name": "Meall Glas", "Classifica": "Ma,M,Mur", "Metres": 959.0, "Feet": 3146, "Grid Ref": "NN431321", "Xcoord": 243148, "Ycoord": 732193, "Latitude": 56.455703, "Longitude": -4.54682, "Viewable": 449.56 }, "geometry": { "type": "Point", "coordinates": [ -4.546830691522209, 56.455715147645982 ] } },
{ "type": "Feature", "properties": { "Number": 163, "Name": "Meall a'Choire Leith", "Classifica": "Ma,M,Mur", "Metres": 926.0, "Feet": 3038, "Grid Ref": "NN612439", "Xcoord": 261200, "Ycoord": 743900, "Latitude": 56.566459, "Longitude": -4.260415, "Viewable": 235.4 }, "geometry": { "type": "Point", "coordinates": [ -4.260424568714782, 56.56647061462904 ] } },
{ "type": "Feature", "properties": { "Number": 178, "Name": "Aonach Eagach - Sgorr nam Fiannaidh", "Classifica": "Ma,M,Mur", "Metres": 967.0, "Feet": 3173, "Grid Ref": "NN140583", "Xcoord": 214043, "Ycoord": 758307, "Latitude": 56.679396, "Longitude": -5.037144, "Viewable": 631.37 }, "geometry": { "type": "Point", "coordinates": [ -5.037163029883993, 56.679411393971861 ] } },
{ "type": "Feature", "properties": { "Number": 179, "Name": "Aonach Eagach - Meall Dearg", "Classifica": "Hu,M,Mur", "Metres": 953.0, "Feet": 3127, "Grid Ref": "NN161583", "Xcoord": 216128, "Ycoord": 758364, "Latitude": 56.680732, "Longitude": -5.003202, "Viewable": 551.01 }, "geometry": { "type": "Point", "coordinates": [ -5.003221597667999, 56.680747490816657 ] } },
{ "type": "Feature", "properties": { "Number": 191, "Name": "Bidean nam Bian", "Classifica": "Ma,M,Mur,CoH", "Metres": 1150.0, "Feet": 3773, "Grid Ref": "NN143542", "Xcoord": 214341, "Ycoord": 754208, "Latitude": 56.642741, "Longitude": -5.029333, "Viewable": 2093.69 }, "geometry": { "type": "Point", "coordinates": [ -5.029352296575269, 56.642757150427322 ] } },
{ "type": "Feature", "properties": { "Number": 194, "Name": "Stob Coire Sgreamhach", "Classifica": "Hu,M,Mur", "Metres": 1072.0, "Feet": 3517, "Grid Ref": "NN154536", "Xcoord": 215487, "Ycoord": 753664, "Latitude": 56.638314, "Longitude": -5.010284, "Viewable": 845.48 }, "geometry": { "type": "Point", "coordinates": [ -5.010303435041324, 56.638329838759503 ] } },
{ "type": "Feature", "properties": { "Number": 195, "Name": "Beinn a'Bheithir - Sgorr Dhearg", "Classifica": "Ma,M,Mur", "Metres": 1024.0, "Feet": 3360, "Grid Ref": "NN056558", "Xcoord": 205682, "Ycoord": 755846, "Latitude": 56.65392, "Longitude": -5.171543, "Viewable": 1009.01 }, "geometry": { "type": "Point", "coordinates": [ -5.171558924244988, 56.653936142474116 ] } },
{ "type": "Feature", "properties": { "Number": 196, "Name": "Buachaille Etive Mor - Stob Dearg", "Classifica": "Ma,M,Mur", "Metres": 1022.0, "Feet": 3353, "Grid Ref": "NN223543", "Xcoord": 222362, "Ycoord": 754320, "Latitude": 56.646858, "Longitude": -4.898794, "Viewable": 777.53 }, "geometry": { "type": "Point", "coordinates": [ -4.898816139709804, 56.646874627501717 ] } },
{ "type": "Feature", "properties": { "Number": 198, "Name": "Beinn a'Bheithir - Sgorr Dhonuill", "Classifica": "Ma,M,Mur", "Metres": 1001.0, "Feet": 3284, "Grid Ref": "NN040555", "Xcoord": 204057, "Ycoord": 755539, "Latitude": 56.650489, "Longitude": -5.197772, "Viewable": 862.62 }, "geometry": { "type": "Point", "coordinates": [ -5.197787973770389, 56.650504865166425 ] } },
{ "type": "Feature", "properties": { "Number": 199, "Name": "Sgor na h-Ulaidh", "Classifica": "Ma,M,Mur", "Metres": 994.0, "Feet": 3261, "Grid Ref": "NN111518", "Xcoord": 211116, "Ycoord": 751797, "Latitude": 56.619822, "Longitude": -5.080078, "Viewable": 575.79 }, "geometry": { "type": "Point", "coordinates": [ -5.080096307242775, 56.619838583393971 ] } },
{ "type": "Feature", "properties": { "Number": 202, "Name": "Buachaille Etive Beag - Stob Dubh", "Classifica": "Ma,M,Mur", "Metres": 958.0, "Feet": 3143, "Grid Ref": "NN179535", "Xcoord": 217906, "Ycoord": 753552, "Latitude": 56.638256, "Longitude": -4.97082, "Viewable": 264.64 }, "geometry": { "type": "Point", "coordinates": [ -4.9708402809518, 56.638272062668577 ] } },
{ "type": "Feature", "properties": { "Number": 203, "Name": "Buachaille Etive Mor - Stob na Broige", "Classifica": "Hu,M,Mur", "Metres": 956.0, "Feet": 3136, "Grid Ref": "NN190525", "Xcoord": 219070, "Ycoord": 752564, "Latitude": 56.629843, "Longitude": -4.951175, "Viewable": 569.02 }, "geometry": { "type": "Point", "coordinates": [ -4.951195988833401, 56.629859158153067 ] } },
{ "type": "Feature", "properties": { "Number": 207, "Name": "Beinn Sgulaird", "Classifica": "Ma,M,Mur", "Metres": 937.0, "Feet": 3074, "Grid Ref": "NN053460", "Xcoord": 205304, "Ycoord": 746089, "Latitude": 56.566241, "Longitude": -5.17035, "Viewable": 340.75 }, "geometry": { "type": "Point", "coordinates": [ -5.170365649008637, 56.566258800016826 ] } },
{ "type": "Feature", "properties": { "Number": 209, "Name": "Buachaille Etive Beag - Stob Coire Raineach", "Classifica": "Ma,M,Mur", "Metres": 925.0, "Feet": 3035, "Grid Ref": "NN191548", "Xcoord": 219132, "Ycoord": 754807, "Latitude": 56.649991, "Longitude": -4.951739, "Viewable": 459.04 }, "geometry": { "type": "Point", "coordinates": [ -4.951759351470444, 56.650006898533121 ] } },
{ "type": "Feature", "properties": { "Number": 232, "Name": "Ben Cruachan", "Classifica": "Ma,M,Mur,CoU,CoA", "Metres": 1126.0, "Feet": 3694, "Grid Ref": "NN069304", "Xcoord": 206965, "Ycoord": 730473, "Latitude": 56.42685, "Longitude": -5.131786, "Viewable": 3851.54 }, "geometry": { "type": "Point", "coordinates": [ -5.131801144890179, 56.426861734335596 ] } },
{ "type": "Feature", "properties": { "Number": 233, "Name": "Meall a'Bhuiridh", "Classifica": "Ma,M,Mur", "Metres": 1108.0, "Feet": 3635, "Grid Ref": "NN250503", "Xcoord": 225064, "Ycoord": 750351, "Latitude": 56.612262, "Longitude": -4.852114, "Viewable": 2067.61 }, "geometry": { "type": "Point", "coordinates": [ -4.85212015905547, 56.612280070453025 ] } },
{ "type": "Feature", "properties": { "Number": 235, "Name": "Creise", "Classifica": "Ma,M,Mur", "Metres": 1100.0, "Feet": 3609, "Grid Ref": "NN238506", "Xcoord": 223857, "Ycoord": 750650, "Latitude": 56.614494, "Longitude": -4.871942, "Viewable": 808.6 }, "geometry": { "type": "Point", "coordinates": [ -4.87196368041109, 56.61451074814989 ] } },
{ "type": "Feature", "properties": { "Number": 237, "Name": "Stob Ghabhar", "Classifica": "Ma,M,Mur", "Metres": 1090.0, "Feet": 3576, "Grid Ref": "NN230455", "Xcoord": 223016, "Ycoord": 745514, "Latitude": 56.568093, "Longitude": -4.882114, "Viewable": 554.06 }, "geometry": { "type": "Point", "coordinates": [ -4.882136027082328, 56.568111493494541 ] } },
{ "type": "Feature", "properties": { "Number": 238, "Name": "Ben Starav", "Classifica": "Ma,M,Mur", "Metres": 1078.0, "Feet": 3537, "Grid Ref": "NN125427", "Xcoord": 212573, "Ycoord": 742717, "Latitude": 56.538948, "Longitude": -5.049799, "Viewable": 1028.5 }, "geometry": { "type": "Point", "coordinates": [ -5.049816929267415, 56.538966371010453 ] } },
{ "type": "Feature", "properties": { "Number": 244, "Name": "Stob Diamh", "Classifica": "Hu,M,Mur", "Metres": 998.0, "Feet": 3274, "Grid Ref": "NN094308", "Xcoord": 209478, "Ycoord": 730852, "Latitude": 56.431271, "Longitude": -5.091379, "Viewable": 1354.9 }, "geometry": { "type": "Point", "coordinates": [ -5.091394615857054, 56.431282837656511 ] } },
{ "type": "Feature", "properties": { "Number": 245, "Name": "Glas Bheinn Mhor", "Classifica": "Ma,M,Mur", "Metres": 997.0, "Feet": 3271, "Grid Ref": "NN153429", "Xcoord": 215328, "Ycoord": 742982, "Latitude": 56.542416, "Longitude": -5.005251, "Viewable": 515.43 }, "geometry": { "type": "Point", "coordinates": [ -5.005269812082387, 56.5424344622635 ] } },
{ "type": "Feature", "properties": { "Number": 249, "Name": "Beinn Eunaich", "Classifica": "Ma,M,Mur", "Metres": 989.0, "Feet": 3245, "Grid Ref": "NN135328", "Xcoord": 213561, "Ycoord": 732799, "Latitude": 56.45037, "Longitude": -5.026656, "Viewable": 1141.35 }, "geometry": { "type": "Point", "coordinates": [ -5.026673153660358, 56.450381176917283 ] } },
{ "type": "Feature", "properties": { "Number": 254, "Name": "Beinn nan Aighenan", "Classifica": "Ma,M,Mur", "Metres": 960.0, "Feet": 3150, "Grid Ref": "NN148405", "Xcoord": 214852, "Ycoord": 740528, "Latitude": 56.520221, "Longitude": -5.011233, "Viewable": 595.73 }, "geometry": { "type": "Point", "coordinates": [ -5.011250872178819, 56.52023114844954 ] } },
{ "type": "Feature", "properties": { "Number": 255, "Name": "Stob a'Choire Odhair", "Classifica": "Ma,M,Mur", "Metres": 945.0, "Feet": 3100, "Grid Ref": "NN257459", "Xcoord": 225732, "Ycoord": 745982, "Latitude": 56.573309, "Longitude": -4.838285, "Viewable": 1287.03 }, "geometry": { "type": "Point", "coordinates": [ -4.838307959394458, 56.573326914702086 ] } },
{ "type": "Feature", "properties": { "Number": 278, "Name": "Ben Nevis", "Classifica": "Ma,M,Mur,CoH,CoU,CoA", "Metres": 1344.0, "Feet": 4409, "Grid Ref": "NN166712", "Xcoord": 216676, "Ycoord": 771283, "Latitude": 56.79685, "Longitude": -5.003508, "Viewable": 3454.84 }, "geometry": { "type": "Point", "coordinates": [ -5.003528959242606, 56.796862774329121 ] } },
{ "type": "Feature", "properties": { "Number": 279, "Name": "Aonach Beag", "Classifica": "Ma,M,Mur", "Metres": 1234.0, "Feet": 4049, "Grid Ref": "NN197715", "Xcoord": 219707, "Ycoord": 771503, "Latitude": 56.800007, "Longitude": -4.954122, "Viewable": 966.99 }, "geometry": { "type": "Point", "coordinates": [ -4.954127414019727, 56.800020587978764 ] } },
{ "type": "Feature", "properties": { "Number": 281, "Name": "Aonach Mor", "Classifica": "Hu,M,Mur", "Metres": 1221.0, "Feet": 4006, "Grid Ref": "NN193729", "Xcoord": 219304, "Ycoord": 772961, "Latitude": 56.812932, "Longitude": -4.961744, "Viewable": 2128.06 }, "geometry": { "type": "Point", "coordinates": [ -4.961749311088616, 56.812944718201692 ] } },
{ "type": "Feature", "properties": { "Number": 285, "Name": "Stob Choire Claurigh", "Classifica": "Ma,M,Mur", "Metres": 1177.0, "Feet": 3862, "Grid Ref": "NN262738", "Xcoord": 226196, "Ycoord": 773878, "Latitude": 56.823786, "Longitude": -4.849624, "Viewable": 2114.97 }, "geometry": { "type": "Point", "coordinates": [ -4.84963222209415, 56.823799001967252 ] } },
{ "type": "Feature", "properties": { "Number": 287, "Name": "Binnein Mor", "Classifica": "Ma,M,Mur", "Metres": 1130.0, "Feet": 3707, "Grid Ref": "NN212663", "Xcoord": 221200, "Ycoord": 766300, "Latitude": 56.7539, "Longitude": -4.926063, "Viewable": 606.93 }, "geometry": { "type": "Point", "coordinates": [ -4.926075871750523, 56.753916334241787 ] } },
{ "type": "Feature", "properties": { "Number": 289, "Name": "Stob Coire an Laoigh", "Classifica": "M,Mur", "Metres": 1116.0, "Feet": 3661, "Grid Ref": "NN239725", "Xcoord": 223983, "Ycoord": 772532, "Latitude": 56.810877, "Longitude": -4.884907, "Viewable": 1572.66 }, "geometry": { "type": "Point", "coordinates": [ -4.88491440814614, 56.810890002103996 ] } },
{ "type": "Feature", "properties": { "Number": 290, "Name": "Stob Coire Easain", "Classifica": "Ma,M,Mur", "Metres": 1115.0, "Feet": 3658, "Grid Ref": "NN308730", "Xcoord": 230800, "Ycoord": 773000, "Latitude": 56.817603, "Longitude": -4.773698, "Viewable": 467.85 }, "geometry": { "type": "Point", "coordinates": [ -4.773708437582187, 56.817619228504668 ] } },
{ "type": "Feature", "properties": { "Number": 292, "Name": "Stob a'Choire Mheadhoin", "Classifica": "Hu,M,Mur,sMa", "Metres": 1105.0, "Feet": 3625, "Grid Ref": "NN316736", "Xcoord": 231600, "Ycoord": 773600, "Latitude": 56.823277, "Longitude": -4.761005, "Viewable": 844.84 }, "geometry": { "type": "Point", "coordinates": [ -4.761015220555818, 56.823293465222648 ] } },
{ "type": "Feature", "properties": { "Number": 295, "Name": "Sgurr a'Mhaim", "Classifica": "Ma,M,Mur", "Metres": 1099.0, "Feet": 3606, "Grid Ref": "NN164667", "Xcoord": 216466, "Ycoord": 766730, "Latitude": 56.75592, "Longitude": -5.003674, "Viewable": 775.08 }, "geometry": { "type": "Point", "coordinates": [ -5.003694533482893, 56.755934227643827 ] } },
{ "type": "Feature", "properties": { "Number": 296, "Name": "Sgurr Choinnich Mor", "Classifica": "Ma,M,Mur", "Metres": 1094.0, "Feet": 3589, "Grid Ref": "NN227714", "Xcoord": 222772, "Ycoord": 771419, "Latitude": 56.800431, "Longitude": -4.903943, "Viewable": 786.54 }, "geometry": { "type": "Point", "coordinates": [ -4.903949863605304, 56.800444384930834 ] } },
{ "type": "Feature", "properties": { "Number": 301, "Name": "Na Gruagaichean", "Classifica": "M,Mur,sHu", "Metres": 1056.0, "Feet": 3465, "Grid Ref": "NN203652", "Xcoord": 220309, "Ycoord": 765202, "Latitude": 56.743708, "Longitude": -4.939852, "Viewable": 402.14 }, "geometry": { "type": "Point", "coordinates": [ -4.939857208257561, 56.743722750177909 ] } },
{ "type": "Feature", "properties": { "Number": 303, "Name": "Am Bodach", "Classifica": "Ma,M,Mur", "Metres": 1032.0, "Feet": 3386, "Grid Ref": "NN176650", "Xcoord": 217637, "Ycoord": 765096, "Latitude": 56.74172, "Longitude": -4.983386, "Viewable": 951.61 }, "geometry": { "type": "Point", "coordinates": [ -4.983406719563914, 56.741734570230378 ] } },
{ "type": "Feature", "properties": { "Number": 305, "Name": "Sgurr Eilde Mor", "Classifica": "Ma,M,Mur", "Metres": 1010.0, "Feet": 3314, "Grid Ref": "NN230657", "Xcoord": 223052, "Ycoord": 765792, "Latitude": 56.750051, "Longitude": -4.895471, "Viewable": 473.18 }, "geometry": { "type": "Point", "coordinates": [ -4.895477572987912, 56.750065201284677 ] } },
{ "type": "Feature", "properties": { "Number": 309, "Name": "Stob Ban", "Classifica": "Ma,M,Mur", "Metres": 999.0, "Feet": 3278, "Grid Ref": "NN147654", "Xcoord": 214775, "Ycoord": 765443, "Latitude": 56.743706, "Longitude": -5.03036, "Viewable": 603.66 }, "geometry": { "type": "Point", "coordinates": [ -5.030380075341562, 56.74371967663371 ] } },
{ "type": "Feature", "properties": { "Number": 314, "Name": "Stob Ban", "Classifica": "Ma,M,Mur", "Metres": 977.0, "Feet": 3205, "Grid Ref": "NN266723", "Xcoord": 226668, "Ycoord": 772394, "Latitude": 56.810647, "Longitude": -4.840892, "Viewable": 407.3 }, "geometry": { "type": "Point", "coordinates": [ -4.840900042240325, 56.810660129246294 ] } },
{ "type": "Feature", "properties": { "Number": 320, "Name": "Binnein Beag", "Classifica": "Ma,M,Mur", "Metres": 943.0, "Feet": 3094, "Grid Ref": "NN221677", "Xcoord": 222100, "Ycoord": 767700, "Latitude": 56.766805, "Longitude": -4.912337, "Viewable": 203.51 }, "geometry": { "type": "Point", "coordinates": [ -4.912350033435073, 56.766821418959147 ] } },
{ "type": "Feature", "properties": { "Number": 345, "Name": "Ben Alder", "Classifica": "Ma,M,Mur", "Metres": 1148.0, "Feet": 3766, "Grid Ref": "NN496718", "Xcoord": 249614, "Ycoord": 771854, "Latitude": 56.813786, "Longitude": -4.465122, "Viewable": 2082.27 }, "geometry": { "type": "Point", "coordinates": [ -4.465137117274049, 56.813800128859604 ] } },
{ "type": "Feature", "properties": { "Number": 346, "Name": "Geal-charn", "Classifica": "Ma,M,Mur", "Metres": 1132.0, "Feet": 3714, "Grid Ref": "NN469746", "Xcoord": 246992, "Ycoord": 774631, "Latitude": 56.837854, "Longitude": -4.509695, "Viewable": 1903.89 }, "geometry": { "type": "Point", "coordinates": [ -4.509709856998947, 56.837867963742397 ] } },
{ "type": "Feature", "properties": { "Number": 348, "Name": "Beinn Eibhinn", "Classifica": "Hu,M,Mur", "Metres": 1103.2, "Feet": 3619, "Grid Ref": "NN449733", "Xcoord": 244965, "Ycoord": 773302, "Latitude": 56.825255, "Longitude": -4.542077, "Viewable": 608.6 }, "geometry": { "type": "Point", "coordinates": [ -4.542090575895859, 56.825268724361742 ] } },
{ "type": "Feature", "properties": { "Number": 349, "Name": "Beinn a'Chlachair", "Classifica": "Ma,M,Mur", "Metres": 1087.0, "Feet": 3566, "Grid Ref": "NN471781", "Xcoord": 247122, "Ycoord": 778154, "Latitude": 56.869516, "Longitude": -4.509683, "Viewable": 405.57 }, "geometry": { "type": "Point", "coordinates": [ -4.509698424369988, 56.869529037504861 ] } },
{ "type": "Feature", "properties": { "Number": 350, "Name": "Geal Charn", "Classifica": "Ma,M,Mur", "Metres": 1049.0, "Feet": 3442, "Grid Ref": "NN504811", "Xcoord": 250432, "Ycoord": 781181, "Latitude": 56.897763, "Longitude": -4.457236, "Viewable": 318.32 }, "geometry": { "type": "Point", "coordinates": [ -4.457235922272134, 56.897775470682362 ] } },
{ "type": "Feature", "properties": { "Number": 351, "Name": "Chno Dearg", "Classifica": "Ma,M,Mur", "Metres": 1046.0, "Feet": 3432, "Grid Ref": "NN377741", "Xcoord": 237741, "Ycoord": 774115, "Latitude": 56.830086, "Longitude": -4.660831, "Viewable": 881.44 }, "geometry": { "type": "Point", "coordinates": [ -4.660842305740955, 56.830098983145518 ] } },
{ "type": "Feature", "properties": { "Number": 352, "Name": "Carn Dearg", "Classifica": "Ma,M,Mur", "Metres": 1034.0, "Feet": 3392, "Grid Ref": "NN504764", "Xcoord": 250417, "Ycoord": 776445, "Latitude": 56.855251, "Longitude": -4.454693, "Viewable": 294.08 }, "geometry": { "type": "Point", "coordinates": [ -4.454692929441177, 56.855264364855863 ] } },
{ "type": "Feature", "properties": { "Number": 354, "Name": "Beinn Bheoil", "Classifica": "Ma,M,Mur", "Metres": 1019.0, "Feet": 3343, "Grid Ref": "NN517717", "Xcoord": 251716, "Ycoord": 771723, "Latitude": 56.813285, "Longitude": -4.430663, "Viewable": 596.92 }, "geometry": { "type": "Point", "coordinates": [ -4.430662846884802, 56.81329941288255 ] } },
{ "type": "Feature", "properties": { "Number": 356, "Name": "Stob Coire Sgriodain", "Classifica": "M,Mur,sHu", "Metres": 979.0, "Feet": 3212, "Grid Ref": "NN356743", "Xcoord": 235669, "Ycoord": 774380, "Latitude": 56.831736, "Longitude": -4.694917, "Viewable": 653.38 }, "geometry": { "type": "Point", "coordinates": [ -4.694928388028243, 56.831748978559368 ] } },
{ "type": "Feature", "properties": { "Number": 361, "Name": "Sgor Gaibhre", "Classifica": "Ma,M,Mur", "Metres": 955.0, "Feet": 3133, "Grid Ref": "NN444674", "Xcoord": 244477, "Ycoord": 767447, "Latitude": 56.772544, "Longitude": -4.546498, "Viewable": 600.31 }, "geometry": { "type": "Point", "coordinates": [ -4.546511422189329, 56.772559295617498 ] } },
{ "type": "Feature", "properties": { "Number": 363, "Name": "Carn Dearg", "Classifica": "Ma,M,Mur", "Metres": 941.0, "Feet": 3087, "Grid Ref": "NN417661", "Xcoord": 241773, "Ycoord": 766142, "Latitude": 56.759922, "Longitude": -4.589888, "Viewable": 640.53 }, "geometry": { "type": "Point", "coordinates": [ -4.589900321158842, 56.759936999163656 ] } },
{ "type": "Feature", "properties": { "Number": 364, "Name": "Beinn na Lap", "Classifica": "Ma,M,Mur", "Metres": 935.0, "Feet": 3068, "Grid Ref": "NN376695", "Xcoord": 237616, "Ycoord": 769585, "Latitude": 56.78939, "Longitude": -4.659994, "Viewable": 432.6 }, "geometry": { "type": "Point", "coordinates": [ -4.660005162001085, 56.789404018260548 ] } },
{ "type": "Feature", "properties": { "Number": 383, "Name": "Beinn Udlamain", "Classifica": "Ma,M,Mur", "Metres": 1011.0, "Feet": 3317, "Grid Ref": "NN579739", "Xcoord": 257949, "Ycoord": 773977, "Latitude": 56.835463, "Longitude": -4.329912, "Viewable": 595.24 }, "geometry": { "type": "Point", "coordinates": [ -4.329914080025146, 56.835477368553079 ] } },
{ "type": "Feature", "properties": { "Number": 384, "Name": "Sgairneach Mhor", "Classifica": "Ma,M,Mur", "Metres": 991.0, "Feet": 3251, "Grid Ref": "NN598731", "Xcoord": 259882, "Ycoord": 773128, "Latitude": 56.828429, "Longitude": -4.297791, "Viewable": 777.91 }, "geometry": { "type": "Point", "coordinates": [ -4.297793226574294, 56.828443554831217 ] } },
{ "type": "Feature", "properties": { "Number": 386, "Name": "A'Mharconaich", "Classifica": "Hu,M,Mur", "Metres": 975.0, "Feet": 3199, "Grid Ref": "NN604762", "Xcoord": 260423, "Ycoord": 776292, "Latitude": 56.856993, "Longitude": -4.290668, "Viewable": 369.93 }, "geometry": { "type": "Point", "coordinates": [ -4.290670637329467, 56.857007277511059 ] } },
{ "type": "Feature", "properties": { "Number": 406, "Name": "Beinn Dearg", "Classifica": "Ma,M,Mur", "Metres": 1008.0, "Feet": 3307, "Grid Ref": "NN852777", "Xcoord": 285290, "Ycoord": 777785, "Latitude": 56.87721, "Longitude": -3.88381, "Viewable": 737.51 }, "geometry": { "type": "Point", "coordinates": [ -3.88380534041963, 56.877224771395241 ] } },
{ "type": "Feature", "properties": { "Number": 407, "Name": "An Sgarsoch", "Classifica": "Ma,M,Mur", "Metres": 1006.0, "Feet": 3301, "Grid Ref": "NN933836", "Xcoord": 293333, "Ycoord": 783666, "Latitude": 56.931937, "Longitude": -3.754384, "Viewable": 557.75 }, "geometry": { "type": "Point", "coordinates": [ -3.75438221530339, 56.931951034660415 ] } },
{ "type": "Feature", "properties": { "Number": 408, "Name": "Carn an Fhidhleir [Carn Ealar]", "Classifica": "Ma,M,Mur", "Metres": 994.0, "Feet": 3261, "Grid Ref": "NN904841", "Xcoord": 290470, "Ycoord": 784186, "Latitude": 56.935938, "Longitude": -3.801629, "Viewable": 549.26 }, "geometry": { "type": "Point", "coordinates": [ -3.801626261865756, 56.93595125911412 ] } },
{ "type": "Feature", "properties": { "Number": 409, "Name": "Carn a'Chlamain", "Classifica": "Ma,M,Mur", "Metres": 963.0, "Feet": 3159, "Grid Ref": "NN915758", "Xcoord": 291590, "Ycoord": 775807, "Latitude": 56.860965, "Longitude": -3.779651, "Viewable": 736.46 }, "geometry": { "type": "Point", "coordinates": [ -3.779647869429781, 56.860979812633659 ] } },
{ "type": "Feature", "properties": { "Number": 422, "Name": "Beinn a'Ghlo - Braigh Coire Chruinn-bhalgain", "Classifica": "Ma,M,Mur", "Metres": 1070.0, "Feet": 3510, "Grid Ref": "NN945724", "Xcoord": 294565, "Ycoord": 772411, "Latitude": 56.831156, "Longitude": -3.729475, "Viewable": 1692.16 }, "geometry": { "type": "Point", "coordinates": [ -3.729473194694906, 56.831171530904811 ] } },
{ "type": "Feature", "properties": { "Number": 425, "Name": "Beinn Iutharn Mhor", "Classifica": "Ma,M,Mur", "Metres": 1045.0, "Feet": 3428, "Grid Ref": "NO045792", "Xcoord": 304566, "Ycoord": 779280, "Latitude": 56.895003, "Longitude": -3.56823, "Viewable": 999.33 }, "geometry": { "type": "Point", "coordinates": [ -3.568231422071947, 56.89501814414416 ] } },
{ "type": "Feature", "properties": { "Number": 432, "Name": "Carn Bhac", "Classifica": "Ma,M,Mur", "Metres": 946.0, "Feet": 3104, "Grid Ref": "NO051832", "Xcoord": 305098, "Ycoord": 783255, "Latitude": 56.930809, "Longitude": -3.560989, "Viewable": 361.91 }, "geometry": { "type": "Point", "coordinates": [ -3.560991467184193, 56.930822972302352 ] } },
{ "type": "Feature", "properties": { "Number": 435, "Name": "The Cairnwell", "Classifica": "Hu,M,Mur", "Metres": 933.0, "Feet": 3061, "Grid Ref": "NO134773", "Xcoord": 313485, "Ycoord": 777375, "Latitude": 56.879646, "Longitude": -3.42122, "Viewable": 712.83 }, "geometry": { "type": "Point", "coordinates": [ -3.421224505647298, 56.879661507579669 ] } },
{ "type": "Feature", "properties": { "Number": 457, "Name": "Lochnagar - Cac Carn Beag", "Classifica": "Ma,M,Mur", "Metres": 1155.0, "Feet": 3789, "Grid Ref": "NO243861", "Xcoord": 324373, "Ycoord": 786139, "Latitude": 56.960263, "Longitude": -3.245244, "Viewable": 4178.17 }, "geometry": { "type": "Point", "coordinates": [ -3.245236420830211, 56.960277441300491 ] } },
{ "type": "Feature", "properties": { "Number": 459, "Name": "Carn a'Choire Bhoidheach", "Classifica": "M,Mur", "Metres": 1110.0, "Feet": 3642, "Grid Ref": "NO226845", "Xcoord": 322671, "Ycoord": 784557, "Latitude": 56.945773, "Longitude": -3.272724, "Viewable": 3021.53 }, "geometry": { "type": "Point", "coordinates": [ -3.272731923768839, 56.945787663282445 ] } },
{ "type": "Feature", "properties": { "Number": 461, "Name": "Glas Maol", "Classifica": "Ma,M,Mur,CoH,CoU", "Metres": 1068.0, "Feet": 3504, "Grid Ref": "NO166765", "Xcoord": 316699, "Ycoord": 776577, "Latitude": 56.873068, "Longitude": -3.368237, "Viewable": 1654.25 }, "geometry": { "type": "Point", "coordinates": [ -3.368242306779357, 56.873083554161347 ] } },
{ "type": "Feature", "properties": { "Number": 463, "Name": "Cairn of Claise", "Classifica": "Hu,M,Mur", "Metres": 1064.0, "Feet": 3491, "Grid Ref": "NO185788", "Xcoord": 318500, "Ycoord": 778800, "Latitude": 56.893357, "Longitude": -3.339419, "Viewable": 987.85 }, "geometry": { "type": "Point", "coordinates": [ -3.339418824778605, 56.893368274911772 ] } },
{ "type": "Feature", "properties": { "Number": 467, "Name": "Carn an Tuirc", "Classifica": "M,Mur", "Metres": 1019.0, "Feet": 3343, "Grid Ref": "NO174804", "Xcoord": 317400, "Ycoord": 780400, "Latitude": 56.907531, "Longitude": -3.357991, "Viewable": 165.14 }, "geometry": { "type": "Point", "coordinates": [ -3.35799075083474, 56.907542792050556 ] } },
{ "type": "Feature", "properties": { "Number": 468, "Name": "Cairn Bannoch", "Classifica": "M,Mur", "Metres": 1012.0, "Feet": 3320, "Grid Ref": "NO222825", "Xcoord": 322286, "Ycoord": 782554, "Latitude": 56.927719, "Longitude": -3.278435, "Viewable": 556.54 }, "geometry": { "type": "Point", "coordinates": [ -3.278442892067615, 56.927734013195526 ] } },
{ "type": "Feature", "properties": { "Number": 472, "Name": "Creag Leacach", "Classifica": "M,Mur", "Metres": 987.0, "Feet": 3238, "Grid Ref": "NO154745", "Xcoord": 315467, "Ycoord": 774549, "Latitude": 56.85464, "Longitude": -3.387768, "Viewable": 1466.22 }, "geometry": { "type": "Point", "coordinates": [ -3.387772742848489, 56.854647540038549 ] } },
{ "type": "Feature", "properties": { "Number": 483, "Name": "Driesh", "Classifica": "Hu,M,Mur", "Metres": 947.0, "Feet": 3107, "Grid Ref": "NO271735", "Xcoord": 327117, "Ycoord": 773589, "Latitude": 56.847994, "Longitude": -3.196522, "Viewable": 1682.44 }, "geometry": { "type": "Point", "coordinates": [ -3.196514597396369, 56.848001988544333 ] } },
{ "type": "Feature", "properties": { "Number": 486, "Name": "Mayar", "Classifica": "Hu,M,Mur", "Metres": 928.0, "Feet": 3045, "Grid Ref": "NO240737", "Xcoord": 324081, "Ycoord": 773749, "Latitude": 56.848936, "Longitude": -3.246316, "Viewable": 1541.99 }, "geometry": { "type": "Point", "coordinates": [ -3.246323559038592, 56.848952168235172 ] } },
{ "type": "Feature", "properties": { "Number": 518, "Name": "Ben Macdui [Beinn Macduibh]", "Classifica": "Ma,M,Mur,CoH,CoU,CoA", "Metres": 1309.0, "Feet": 4295, "Grid Ref": "NN988989", "Xcoord": 298899, "Ycoord": 798943, "Latitude": 57.070368, "Longitude": -3.669099, "Viewable": 4570.33 }, "geometry": { "type": "Point", "coordinates": [ -3.669099512465734, 57.070379220462421 ] } },
{ "type": "Feature", "properties": { "Number": 519, "Name": "Braeriach", "Classifica": "Ma,M,Mur", "Metres": 1296.0, "Feet": 4252, "Grid Ref": "NN953999", "Xcoord": 295315, "Ycoord": 799901, "Latitude": 57.078169, "Longitude": -3.728581, "Viewable": 3686.65 }, "geometry": { "type": "Point", "coordinates": [ -3.728580783883529, 57.078179977584583 ] } },
{ "type": "Feature", "properties": { "Number": 521, "Name": "Cairn Toul", "Classifica": "Ma,M,Mur", "Metres": 1291.0, "Feet": 4236, "Grid Ref": "NN963972", "Xcoord": 296329, "Ycoord": 797228, "Latitude": 57.054397, "Longitude": -3.710757, "Viewable": 2574.53 }, "geometry": { "type": "Point", "coordinates": [ -3.710756759669017, 57.054408366486456 ] } },
{ "type": "Feature", "properties": { "Number": 523, "Name": "Sgor an Lochain Uaine", "Classifica": "Hu,M,Mur", "Metres": 1258.0, "Feet": 4127, "Grid Ref": "NN954976", "Xcoord": 295429, "Ycoord": 797694, "Latitude": 57.058378, "Longitude": -3.725781, "Viewable": 1793.45 }, "geometry": { "type": "Point", "coordinates": [ -3.725780773743956, 57.058389151684217 ] } },
{ "type": "Feature", "properties": { "Number": 529, "Name": "Beinn a'Bhuird North Top", "Classifica": "Ma,M,Mur", "Metres": 1197.0, "Feet": 3927, "Grid Ref": "NJ092006", "Xcoord": 309231, "Ycoord": 800622, "Latitude": 57.087599, "Longitude": -3.499367, "Viewable": 3264.15 }, "geometry": { "type": "Point", "coordinates": [ -3.499371312370937, 57.087610385062767 ] } },
{ "type": "Feature", "properties": { "Number": 536, "Name": "Ben Avon - Leabaidh an Daimh Bhuidhe", "Classifica": "Ma,M,Mur", "Metres": 1171.0, "Feet": 3842, "Grid Ref": "NJ131018", "Xcoord": 313193, "Ycoord": 801848, "Latitude": 57.099374, "Longitude": -3.434439, "Viewable": 3365.96 }, "geometry": { "type": "Point", "coordinates": [ -3.434445164748285, 57.099385106798351 ] } },
{ "type": "Feature", "properties": { "Number": 538, "Name": "Beinn Bhrotain", "Classifica": "Ma,M,Mur", "Metres": 1157.0, "Feet": 3796, "Grid Ref": "NN954922", "Xcoord": 295412, "Ycoord": 792292, "Latitude": 57.009868, "Longitude": -3.723813, "Viewable": 1633.68 }, "geometry": { "type": "Point", "coordinates": [ -3.723812806956967, 57.00988020568748 ] } },
{ "type": "Feature", "properties": { "Number": 539, "Name": "Derry Cairngorm", "Classifica": "Hu,M,Mur,sMa", "Metres": 1155.0, "Feet": 3789, "Grid Ref": "NO017980", "Xcoord": 301734, "Ycoord": 798032, "Latitude": 57.062801, "Longitude": -3.622004, "Viewable": 1496.44 }, "geometry": { "type": "Point", "coordinates": [ -3.622006225533656, 57.062812871535137 ] } },
{ "type": "Feature", "properties": { "Number": 549, "Name": "Monadh Mor", "Classifica": "Hu,M,Mur", "Metres": 1113.0, "Feet": 3652, "Grid Ref": "NN938942", "Xcoord": 293864, "Ycoord": 794216, "Latitude": 57.02679, "Longitude": -3.750102, "Viewable": 1710.43 }, "geometry": { "type": "Point", "coordinates": [ -3.750101030355451, 57.026802294245719 ] } },
{ "type": "Feature", "properties": { "Number": 559, "Name": "Beinn a'Chaorainn", "Classifica": "Ma,M,Mur", "Metres": 1083.0, "Feet": 3553, "Grid Ref": "NJ045013", "Xcoord": 304514, "Ycoord": 801367, "Latitude": 57.093334, "Longitude": -3.577453, "Viewable": 263.79 }, "geometry": { "type": "Point", "coordinates": [ -3.577455844581287, 57.09334516161038 ] } },
{ "type": "Feature", "properties": { "Number": 567, "Name": "Carn a'Mhaim", "Classifica": "Ma,M,Mur", "Metres": 1037.0, "Feet": 3402, "Grid Ref": "NN994951", "Xcoord": 299458, "Ycoord": 795147, "Latitude": 57.036404, "Longitude": -3.658363, "Viewable": 282.34 }, "geometry": { "type": "Point", "coordinates": [ -3.658363655517496, 57.036415959793985 ] } },
{ "type": "Feature", "properties": { "Number": 571, "Name": "Mullach Clach a'Bhlair", "Classifica": "Hu,M,Mur", "Metres": 1019.0, "Feet": 3343, "Grid Ref": "NN882927", "Xcoord": 288285, "Ycoord": 792701, "Latitude": 57.01187, "Longitude": -3.841287, "Viewable": 678.2 }, "geometry": { "type": "Point", "coordinates": [ -3.841283450325847, 57.011881869137305 ] } },
{ "type": "Feature", "properties": { "Number": 624, "Name": "Geal Charn", "Classifica": "Hu,M,Mur", "Metres": 926.0, "Feet": 3038, "Grid Ref": "NN561987", "Xcoord": 256143, "Ycoord": 798769, "Latitude": 57.057427, "Longitude": -4.373589, "Viewable": 744.72 }, "geometry": { "type": "Point", "coordinates": [ -4.373592477792414, 57.057445526872527 ] } },
{ "type": "Feature", "properties": { "Number": 658, "Name": "Creag Meagaidh", "Classifica": "Ma,M,Mur", "Metres": 1128.0, "Feet": 3701, "Grid Ref": "NN418875", "Xcoord": 241840, "Ycoord": 787549, "Latitude": 56.952051, "Longitude": -4.602102, "Viewable": 1986.23 }, "geometry": { "type": "Point", "coordinates": [ -4.602116508723091, 56.952070584197493 ] } },
{ "type": "Feature", "properties": { "Number": 894, "Name": "Sgurr na Ruaidhe", "Classifica": "Ma,M,Mur", "Metres": 993.0, "Feet": 3258, "Grid Ref": "NH289426", "Xcoord": 228900, "Ycoord": 842614, "Latitude": 57.441488, "Longitude": -4.852464, "Viewable": 1705.41 }, "geometry": { "type": "Point", "coordinates": [ -4.852461095128953, 57.441506570677539 ] } }
]
}
