{
"type": "FeatureCollection",
"crs": { "type": "name", "properties": { "name": "urn:ogc:def:crs:OGC:1.3:CRS84" } },
                                                                                
"features": [
{ "type": "Feature", "properties": { "Number": 17, "Name": "Ben Vorlich", "Classifica": "Ma,M,Mur", "Metres": 985.0, "Feet": 3232, "Grid Ref": "NN629189", "Xcoord": 262910, "Ycoord": 718915, "Latitude": 56.342671, "Longitude": -4.21948, "Viewable": 2666.0 }, "geometry": { "type": "Point", "coordinates": [ -4.219495635291023, 56.342677209723341 ] } },
{ "type": "Feature", "properties": { "Number": 26, "Name": "Ben More", "Classifica": "Ma,M,Mur,CoU,CoA", "Metres": 1174.0, "Feet": 3852, "Grid Ref": "NN432244", "Xcoord": 243275, "Ycoord": 724417, "Latitude": 56.385952, "Longitude": -4.540103, "Viewable": 5395.04 }, "geometry": { "type": "Point", "coordinates": [ -4.540113304326504, 56.385966153011587 ] } },
{ "type": "Feature", "properties": { "Number": 27, "Name": "Stob Binnein", "Classifica": "Ma,M,Mur", "Metres": 1165.0, "Feet": 3822, "Grid Ref": "NN434227", "Xcoord": 243481, "Ycoord": 722714, "Latitude": 56.370735, "Longitude": -4.535754, "Viewable": 5454.05 }, "geometry": { "type": "Point", "coordinates": [ -4.535764148329166, 56.3707494599198 ] } },
{ "type": "Feature", "properties": { "Number": 30, "Name": "Cruach Ardrain", "Classifica": "Ma,M,Mur", "Metres": 1046.0, "Feet": 3432, "Grid Ref": "NN409212", "Xcoord": 240927, "Ycoord": 721215, "Latitude": 56.356429, "Longitude": -4.576151, "Viewable": 1327.33 }, "geometry": { "type": "Point", "coordinates": [ -4.576160402591344, 56.356443613961282 ] } },
{ "type": "Feature", "properties": { "Number": 31, "Name": "An Caisteal", "Classifica": "Ma,M,Mur", "Metres": 995.0, "Feet": 3264, "Grid Ref": "NN378193", "Xcoord": 237873, "Ycoord": 719345, "Latitude": 56.338618, "Longitude": -4.62437, "Viewable": 1717.21 }, "geometry": { "type": "Point", "coordinates": [ -4.624377236134579, 56.338624251970657 ] } },
{ "type": "Feature", "properties": { "Number": 35, "Name": "Beinn Tulaichean", "Classifica": "Hu,M,Mur", "Metres": 946.0, "Feet": 3104, "Grid Ref": "NN416196", "Xcoord": 241661, "Ycoord": 719606, "Latitude": 56.342243, "Longitude": -4.563316, "Viewable": 1241.92 }, "geometry": { "type": "Point", "coordinates": [ -4.563324746616534, 56.342248783089595 ] } },
{ "type": "Feature", "properties": { "Number": 65, "Name": "Ben Lui [Beinn Laoigh]", "Classifica": "Ma,M,Mur", "Metres": 1130.0, "Feet": 3707, "Grid Ref": "NN266263", "Xcoord": 226635, "Ycoord": 726297, "Latitude": 56.397013, "Longitude": -4.81051, "Viewable": 3782.59 }, "geometry": { "type": "Point", "coordinates": [ -4.81053058075227, 56.39702582631709 ] } },
{ "type": "Feature", "properties": { "Number": 67, "Name": "Ben Oss", "Classifica": "Ma,M,Mur", "Metres": 1029.0, "Feet": 3376, "Grid Ref": "NN287253", "Xcoord": 228761, "Ycoord": 725347, "Latitude": 56.389263, "Longitude": -4.775488, "Viewable": 1445.66 }, "geometry": { "type": "Point", "coordinates": [ -4.775509457776855, 56.389276301083441 ] } },
{ "type": "Feature", "properties": { "Number": 70, "Name": "Beinn Bhuidhe", "Classifica": "Ma,M,Mur", "Metres": 948.0, "Feet": 3110, "Grid Ref": "NN203187", "Xcoord": 220369, "Ycoord": 718722, "Latitude": 56.326704, "Longitude": -4.90671, "Viewable": 1380.77 }, "geometry": { "type": "Point", "coordinates": [ -4.906728470563254, 56.326718033585649 ] } },
{ "type": "Feature", "properties": { "Number": 75, "Name": "Beinn a'Chleibh", "Classifica": "Hu,M,Mur,sMa", "Metres": 916.3, "Feet": 3006, "Grid Ref": "NN250256", "Xcoord": 225054, "Ycoord": 725606, "Latitude": 56.390231, "Longitude": -4.835634, "Viewable": 674.28 }, "geometry": { "type": "Point", "coordinates": [ -4.835650055329889, 56.390242652383144 ] } },
{ "type": "Feature", "properties": { "Number": 76, "Name": "Ben Vane", "Classifica": "Ma,M,Mur", "Metres": 915.76, "Feet": 3004, "Grid Ref": "NN277098", "Xcoord": 227754, "Ycoord": 709843, "Latitude": 56.249777, "Longitude": -4.781638, "Viewable": 1686.11 }, "geometry": { "type": "Point", "coordinates": [ -4.781658370233979, 56.249784025496517 ] } },
{ "type": "Feature", "properties": { "Number": 103, "Name": "Schiehallion", "Classifica": "Ma,M,Mur", "Metres": 1083.0, "Feet": 3553, "Grid Ref": "NN713547", "Xcoord": 271393, "Ycoord": 754756, "Latitude": 56.666828, "Longitude": -4.100076, "Viewable": 1237.27 }, "geometry": { "type": "Point", "coordinates": [ -4.100081581565044, 56.666837133441902 ] } },
{ "type": "Feature", "properties": { "Number": 104, "Name": "Beinn a'Chreachain", "Classifica": "Ma,M,Mur", "Metres": 1081.0, "Feet": 3547, "Grid Ref": "NN373440", "Xcoord": 237389, "Ycoord": 744075, "Latitude": 56.560387, "Longitude": -4.647589, "Viewable": 1044.86 }, "geometry": { "type": "Point", "coordinates": [ -4.647598463275189, 56.560397108836888 ] } },
{ "type": "Feature", "properties": { "Number": 105, "Name": "Beinn Dorain", "Classifica": "Ma,M,Mur", "Metres": 1076.0, "Feet": 3530, "Grid Ref": "NN325378", "Xcoord": 232563, "Ycoord": 737875, "Latitude": 56.503053, "Longitude": -4.722024, "Viewable": 1045.8 }, "geometry": { "type": "Point", "coordinates": [ -4.722031289863984, 56.50306380306229 ] } },
{ "type": "Feature", "properties": { "Number": 107, "Name": "Carn Mairg", "Classifica": "Ma,M,Mur", "Metres": 1041.0, "Feet": 3415, "Grid Ref": "NN684512", "Xcoord": 268400, "Ycoord": 751200, "Latitude": 56.634069, "Longitude": -4.147057, "Viewable": 512.17 }, "geometry": { "type": "Point", "coordinates": [ -4.147063802322598, 56.634080576322447 ] } },
{ "type": "Feature", "properties": { "Number": 108, "Name": "Beinn Achaladair", "Classifica": "Ma,M,Mur", "Metres": 1038.0, "Feet": 3406, "Grid Ref": "NN346433", "Xcoord": 234600, "Ycoord": 743300, "Latitude": 56.552454, "Longitude": -4.692417, "Viewable": 406.94 }, "geometry": { "type": "Point", "coordinates": [ -4.692430335326931, 56.552468136667706 ] } },
{ "type": "Feature", "properties": { "Number": 112, "Name": "Beinn an Dothaidh", "Classifica": "Ma,M,Mur", "Metres": 1004.0, "Feet": 3294, "Grid Ref": "NN331408", "Xcoord": 233100, "Ycoord": 740800, "Latitude": 56.529489, "Longitude": -4.715181, "Viewable": 377.06 }, "geometry": { "type": "Point", "coordinates": [ -4.715195049676126, 56.529503044917327 ] } },
{ "type": "Feature", "properties": { "Number": 118, "Name": "Meall Garbh", "Classifica": "Hu,M,Mur", "Metres": 968.0, "Feet": 3176, "Grid Ref": "NN647517", "Xcoord": 264700, "Ycoord": 751700, "Latitude": 56.637502, "Longitude": -4.207589, "Viewable": 95.88 }, "geometry": { "type": "Point", "coordinates": [ -4.207596570567766, 56.637514345100598 ] } },
{ "type": "Feature", "properties": { "Number": 120, "Name": "Stuchd an Lochain [Stuc an Lochain]", "Classifica": "Ma,M,Mur", "Metres": 960.0, "Feet": 3150, "Grid Ref": "NN483448", "Xcoord": 248303, "Ycoord": 744841, "Latitude": 56.570915, "Longitude": -4.470636, "Viewable": 193.83 }, "geometry": { "type": "Point", "coordinates": [ -4.470648660417904, 56.570925727534409 ] } },
{ "type": "Feature", "properties": { "Number": 123, "Name": "Meall Buidhe", "Classifica": "Ma,M,Mur", "Metres": 932.0, "Feet": 3058, "Grid Ref": "NN498499", "Xcoord": 249839, "Ycoord": 749949, "Latitude": 56.617258, "Longitude": -4.448626, "Viewable": 531.78 }, "geometry": { "type": "Point", "coordinates": [ -4.448639586008599, 56.617267129037465 ] } },
{ "type": "Feature", "properties": { "Number": 141, "Name": "Ben Lawers", "Classifica": "Ma,M,Mur,CoH,CoU,CoA", "Metres": 1214.0, "Feet": 3983, "Grid Ref": "NN635414", "Xcoord": 263551, "Ycoord": 741423, "Latitude": 56.544912, "Longitude": -4.220892, "Viewable": 5284.86 }, "geometry": { "type": "Point", "coordinates": [ -4.220893941012826, 56.544923728277958 ] } },
{ "type": "Feature", "properties": { "Number": 142, "Name": "An Stuc", "Classifica": "Ma=,Hu,M,Mur", "Metres": 1118.0, "Feet": 3668, "Grid Ref": "NN638430", "Xcoord": 263875, "Ycoord": 743089, "Latitude": 56.559962, "Longitude": -4.216501, "Viewable": 3238.06 }, "geometry": { "type": "Point", "coordinates": [ -4.216503123509484, 56.55997366235917 ] } },
{ "type": "Feature", "properties": { "Number": 144, "Name": "Beinn Ghlas", "Classifica": "Hu,M,Mur", "Metres": 1103.0, "Feet": 3619, "Grid Ref": "NN625404", "Xcoord": 262529, "Ycoord": 740466, "Latitude": 56.536023, "Longitude": -4.236994, "Viewable": 3245.89 }, "geometry": { "type": "Point", "coordinates": [ -4.236995202318425, 56.536034708837889 ] } },
{ "type": "Feature", "properties": { "Number": 145, "Name": "Beinn Heasgarnich [Beinn Sheasgarnaich]", "Classifica": "Ma,M,Mur", "Metres": 1078.0, "Feet": 3537, "Grid Ref": "NN413383", "Xcoord": 241381, "Ycoord": 738338, "Latitude": 56.510263, "Longitude": -4.579202, "Viewable": 1004.4 }, "geometry": { "type": "Point", "coordinates": [ -4.579212071225244, 56.51027446945659 ] } },
{ "type": "Feature", "properties": { "Number": 146, "Name": "Meall Corranaich", "Classifica": "Ma,M,Mur", "Metres": 1069.0, "Feet": 3507, "Grid Ref": "NN615410", "Xcoord": 261543, "Ycoord": 741036, "Latitude": 56.54085, "Longitude": -4.253317, "Viewable": 1037.77 }, "geometry": { "type": "Point", "coordinates": [ -4.253318415840341, 56.540862054936831 ] } },
{ "type": "Feature", "properties": { "Number": 148, "Name": "Creag Mhor", "Classifica": "Ma,M,Mur", "Metres": 1047.0, "Feet": 3435, "Grid Ref": "NN391361", "Xcoord": 239149, "Ycoord": 736111, "Latitude": 56.489518, "Longitude": -4.614054, "Viewable": 747.97 }, "geometry": { "type": "Point", "coordinates": [ -4.614064052174806, 56.489530160021879 ] } },
{ "type": "Feature", "properties": { "Number": 149, "Name": "Meall nan Tarmachan", "Classifica": "Ma,M,Mur", "Metres": 1044.0, "Feet": 3425, "Grid Ref": "NN585390", "Xcoord": 258517, "Ycoord": 739000, "Latitude": 56.521672, "Longitude": -4.30136, "Viewable": 506.59 }, "geometry": { "type": "Point", "coordinates": [ -4.301376374445602, 56.521684053076051 ] } },
{ "type": "Feature", "properties": { "Number": 150, "Name": "Meall Ghaordaidh", "Classifica": "Ma,M,Mur", "Metres": 1039.0, "Feet": 3409, "Grid Ref": "NN514397", "Xcoord": 251443, "Ycoord": 739704, "Latitude": 56.52581, "Longitude": -4.416638, "Viewable": 961.75 }, "geometry": { "type": "Point", "coordinates": [ -4.416652099640396, 56.525821187234897 ] } },
{ "type": "Feature", "properties": { "Number": 152, "Name": "Ben Challum [Beinn Challuim]", "Classifica": "Ma,M,Mur", "Metres": 1025.0, "Feet": 3363, "Grid Ref": "NN386322", "Xcoord": 238684, "Ycoord": 732233, "Latitude": 56.454555, "Longitude": -4.619199, "Viewable": 830.36 }, "geometry": { "type": "Point", "coordinates": [ -4.619208155609058, 56.454567612188477 ] } },
{ "type": "Feature", "properties": { "Number": 163, "Name": "Meall a'Choire Leith", "Classifica": "Ma,M,Mur", "Metres": 926.0, "Feet": 3038, "Grid Ref": "NN612439", "Xcoord": 261200, "Ycoord": 743900, "Latitude": 56.566459, "Longitude": -4.260415, "Viewable": 235.4 }, "geometry": { "type": "Point", "coordinates": [ -4.260424568714782, 56.56647061462904 ] } },
{ "type": "Feature", "properties": { "Number": 178, "Name": "Aonach Eagach - Sgorr nam Fiannaidh", "Classifica": "Ma,M,Mur", "Metres": 967.0, "Feet": 3173, "Grid Ref": "NN140583", "Xcoord": 214043, "Ycoord": 758307, "Latitude": 56.679396, "Longitude": -5.037144, "Viewable": 631.37 }, "geometry": { "type": "Point", "coordinates": [ -5.037163029883993, 56.679411393971861 ] } },
{ "type": "Feature", "properties": { "Number": 179, "Name": "Aonach Eagach - Meall Dearg", "Classifica": "Hu,M,Mur", "Metres": 953.0, "Feet": 3127, "Grid Ref": "NN161583", "Xcoord": 216128, "Ycoord": 758364, "Latitude": 56.680732, "Longitude": -5.003202, "Viewable": 551.01 }, "geometry": { "type": "Point", "coordinates": [ -5.003221597667999, 56.680747490816657 ] } },
{ "type": "Feature", "properties": { "Number": 191, "Name": "Bidean nam Bian", "Classifica": "Ma,M,Mur,CoH", "Metres": 1150.0, "Feet": 3773, "Grid Ref": "NN143542", "Xcoord": 214341, "Ycoord": 754208, "Latitude": 56.642741, "Longitude": -5.029333, "Viewable": 2093.69 }, "geometry": { "type": "Point", "coordinates": [ -5.029352296575269, 56.642757150427322 ] } },
{ "type": "Feature", "properties": { "Number": 194, "Name": "Stob Coire Sgreamhach", "Classifica": "Hu,M,Mur", "Metres": 1072.0, "Feet": 3517, "Grid Ref": "NN154536", "Xcoord": 215487, "Ycoord": 753664, "Latitude": 56.638314, "Longitude": -5.010284, "Viewable": 845.48 }, "geometry": { "type": "Point", "coordinates": [ -5.010303435041324, 56.638329838759503 ] } },
{ "type": "Feature", "properties": { "Number": 196, "Name": "Buachaille Etive Mor - Stob Dearg", "Classifica": "Ma,M,Mur", "Metres": 1022.0, "Feet": 3353, "Grid Ref": "NN223543", "Xcoord": 222362, "Ycoord": 754320, "Latitude": 56.646858, "Longitude": -4.898794, "Viewable": 777.53 }, "geometry": { "type": "Point", "coordinates": [ -4.898816139709804, 56.646874627501717 ] } },
{ "type": "Feature", "properties": { "Number": 202, "Name": "Buachaille Etive Beag - Stob Dubh", "Classifica": "Ma,M,Mur", "Metres": 958.0, "Feet": 3143, "Grid Ref": "NN179535", "Xcoord": 217906, "Ycoord": 753552, "Latitude": 56.638256, "Longitude": -4.97082, "Viewable": 264.64 }, "geometry": { "type": "Point", "coordinates": [ -4.9708402809518, 56.638272062668577 ] } },
{ "type": "Feature", "properties": { "Number": 203, "Name": "Buachaille Etive Mor - Stob na Broige", "Classifica": "Hu,M,Mur", "Metres": 956.0, "Feet": 3136, "Grid Ref": "NN190525", "Xcoord": 219070, "Ycoord": 752564, "Latitude": 56.629843, "Longitude": -4.951175, "Viewable": 569.02 }, "geometry": { "type": "Point", "coordinates": [ -4.951195988833401, 56.629859158153067 ] } },
{ "type": "Feature", "properties": { "Number": 209, "Name": "Buachaille Etive Beag - Stob Coire Raineach", "Classifica": "Ma,M,Mur", "Metres": 925.0, "Feet": 3035, "Grid Ref": "NN191548", "Xcoord": 219132, "Ycoord": 754807, "Latitude": 56.649991, "Longitude": -4.951739, "Viewable": 459.04 }, "geometry": { "type": "Point", "coordinates": [ -4.951759351470444, 56.650006898533121 ] } },
{ "type": "Feature", "properties": { "Number": 232, "Name": "Ben Cruachan", "Classifica": "Ma,M,Mur,CoU,CoA", "Metres": 1126.0, "Feet": 3694, "Grid Ref": "NN069304", "Xcoord": 206965, "Ycoord": 730473, "Latitude": 56.42685, "Longitude": -5.131786, "Viewable": 3851.54 }, "geometry": { "type": "Point", "coordinates": [ -5.131801144890179, 56.426861734335596 ] } },
{ "type": "Feature", "properties": { "Number": 233, "Name": "Meall a'Bhuiridh", "Classifica": "Ma,M,Mur", "Metres": 1108.0, "Feet": 3635, "Grid Ref": "NN250503", "Xcoord": 225064, "Ycoord": 750351, "Latitude": 56.612262, "Longitude": -4.852114, "Viewable": 2067.61 }, "geometry": { "type": "Point", "coordinates": [ -4.85212015905547, 56.612280070453025 ] } },
{ "type": "Feature", "properties": { "Number": 235, "Name": "Creise", "Classifica": "Ma,M,Mur", "Metres": 1100.0, "Feet": 3609, "Grid Ref": "NN238506", "Xcoord": 223857, "Ycoord": 750650, "Latitude": 56.614494, "Longitude": -4.871942, "Viewable": 808.6 }, "geometry": { "type": "Point", "coordinates": [ -4.87196368041109, 56.61451074814989 ] } },
{ "type": "Feature", "properties": { "Number": 238, "Name": "Ben Starav", "Classifica": "Ma,M,Mur", "Metres": 1078.0, "Feet": 3537, "Grid Ref": "NN125427", "Xcoord": 212573, "Ycoord": 742717, "Latitude": 56.538948, "Longitude": -5.049799, "Viewable": 1028.5 }, "geometry": { "type": "Point", "coordinates": [ -5.049816929267415, 56.538966371010453 ] } },
{ "type": "Feature", "properties": { "Number": 241, "Name": "Stob Coir'an Albannaich", "Classifica": "Ma,M,Mur", "Metres": 1044.0, "Feet": 3425, "Grid Ref": "NN169443", "Xcoord": 216952, "Ycoord": 744307, "Latitude": 56.554939, "Longitude": -4.979811, "Viewable": 233.89 }, "geometry": { "type": "Point", "coordinates": [ -4.979830908310125, 56.554957416844658 ] } },
{ "type": "Feature", "properties": { "Number": 244, "Name": "Stob Diamh", "Classifica": "Hu,M,Mur", "Metres": 998.0, "Feet": 3274, "Grid Ref": "NN094308", "Xcoord": 209478, "Ycoord": 730852, "Latitude": 56.431271, "Longitude": -5.091379, "Viewable": 1354.9 }, "geometry": { "type": "Point", "coordinates": [ -5.091394615857054, 56.431282837656511 ] } },
{ "type": "Feature", "properties": { "Number": 249, "Name": "Beinn Eunaich", "Classifica": "Ma,M,Mur", "Metres": 989.0, "Feet": 3245, "Grid Ref": "NN135328", "Xcoord": 213561, "Ycoord": 732799, "Latitude": 56.45037, "Longitude": -5.026656, "Viewable": 1141.35 }, "geometry": { "type": "Point", "coordinates": [ -5.026673153660358, 56.450381176917283 ] } },
{ "type": "Feature", "properties": { "Number": 251, "Name": "Beinn a'Chochuill", "Classifica": "Ma,M,Mur", "Metres": 980.0, "Feet": 3215, "Grid Ref": "NN109328", "Xcoord": 210978, "Ycoord": 732847, "Latitude": 56.449772, "Longitude": -5.068535, "Viewable": 1021.65 }, "geometry": { "type": "Point", "coordinates": [ -5.068550989443159, 56.449783497157711 ] } },
{ "type": "Feature", "properties": { "Number": 255, "Name": "Stob a'Choire Odhair", "Classifica": "Ma,M,Mur", "Metres": 945.0, "Feet": 3100, "Grid Ref": "NN257459", "Xcoord": 225732, "Ycoord": 745982, "Latitude": 56.573309, "Longitude": -4.838285, "Viewable": 1287.03 }, "geometry": { "type": "Point", "coordinates": [ -4.838307959394458, 56.573326914702086 ] } },
{ "type": "Feature", "properties": { "Number": 258, "Name": "Meall nan Eun", "Classifica": "Ma,M,Mur", "Metres": 928.0, "Feet": 3045, "Grid Ref": "NN192449", "Xcoord": 219246, "Ycoord": 744904, "Latitude": 56.561184, "Longitude": -4.942959, "Viewable": 312.68 }, "geometry": { "type": "Point", "coordinates": [ -4.942979250813648, 56.561202149398611 ] } },
{ "type": "Feature", "properties": { "Number": 281, "Name": "Aonach Mor", "Classifica": "Hu,M,Mur", "Metres": 1221.0, "Feet": 4006, "Grid Ref": "NN193729", "Xcoord": 219304, "Ycoord": 772961, "Latitude": 56.812932, "Longitude": -4.961744, "Viewable": 2128.06 }, "geometry": { "type": "Point", "coordinates": [ -4.961749311088616, 56.812944718201692 ] } },
{ "type": "Feature", "properties": { "Number": 285, "Name": "Stob Choire Claurigh", "Classifica": "Ma,M,Mur", "Metres": 1177.0, "Feet": 3862, "Grid Ref": "NN262738", "Xcoord": 226196, "Ycoord": 773878, "Latitude": 56.823786, "Longitude": -4.849624, "Viewable": 2114.97 }, "geometry": { "type": "Point", "coordinates": [ -4.84963222209415, 56.823799001967252 ] } },
{ "type": "Feature", "properties": { "Number": 287, "Name": "Binnein Mor", "Classifica": "Ma,M,Mur", "Metres": 1130.0, "Feet": 3707, "Grid Ref": "NN212663", "Xcoord": 221200, "Ycoord": 766300, "Latitude": 56.7539, "Longitude": -4.926063, "Viewable": 606.93 }, "geometry": { "type": "Point", "coordinates": [ -4.926075871750523, 56.753916334241787 ] } },
{ "type": "Feature", "properties": { "Number": 290, "Name": "Stob Coire Easain", "Classifica": "Ma,M,Mur", "Metres": 1115.0, "Feet": 3658, "Grid Ref": "NN308730", "Xcoord": 230800, "Ycoord": 773000, "Latitude": 56.817603, "Longitude": -4.773698, "Viewable": 467.85 }, "geometry": { "type": "Point", "coordinates": [ -4.773708437582187, 56.817619228504668 ] } },
{ "type": "Feature", "properties": { "Number": 292, "Name": "Stob a'Choire Mheadhoin", "Classifica": "Hu,M,Mur,sMa", "Metres": 1105.0, "Feet": 3625, "Grid Ref": "NN316736", "Xcoord": 231600, "Ycoord": 773600, "Latitude": 56.823277, "Longitude": -4.761005, "Viewable": 844.84 }, "geometry": { "type": "Point", "coordinates": [ -4.761015220555818, 56.823293465222648 ] } },
{ "type": "Feature", "properties": { "Number": 295, "Name": "Sgurr a'Mhaim", "Classifica": "Ma,M,Mur", "Metres": 1099.0, "Feet": 3606, "Grid Ref": "NN164667", "Xcoord": 216466, "Ycoord": 766730, "Latitude": 56.75592, "Longitude": -5.003674, "Viewable": 775.08 }, "geometry": { "type": "Point", "coordinates": [ -5.003694533482893, 56.755934227643827 ] } },
{ "type": "Feature", "properties": { "Number": 303, "Name": "Am Bodach", "Classifica": "Ma,M,Mur", "Metres": 1032.0, "Feet": 3386, "Grid Ref": "NN176650", "Xcoord": 217637, "Ycoord": 765096, "Latitude": 56.74172, "Longitude": -4.983386, "Viewable": 951.61 }, "geometry": { "type": "Point", "coordinates": [ -4.983406719563914, 56.741734570230378 ] } },
{ "type": "Feature", "properties": { "Number": 305, "Name": "Sgurr Eilde Mor", "Classifica": "Ma,M,Mur", "Metres": 1010.0, "Feet": 3314, "Grid Ref": "NN230657", "Xcoord": 223052, "Ycoord": 765792, "Latitude": 56.750051, "Longitude": -4.895471, "Viewable": 473.18 }, "geometry": { "type": "Point", "coordinates": [ -4.895477572987912, 56.750065201284677 ] } },
{ "type": "Feature", "properties": { "Number": 309, "Name": "Stob Ban", "Classifica": "Ma,M,Mur", "Metres": 999.0, "Feet": 3278, "Grid Ref": "NN147654", "Xcoord": 214775, "Ycoord": 765443, "Latitude": 56.743706, "Longitude": -5.03036, "Viewable": 603.66 }, "geometry": { "type": "Point", "coordinates": [ -5.030380075341562, 56.74371967663371 ] } },
{ "type": "Feature", "properties": { "Number": 312, "Name": "An Gearanach", "Classifica": "Ma,M,Mur", "Metres": 982.0, "Feet": 3222, "Grid Ref": "NN187669", "Xcoord": 218771, "Ycoord": 766994, "Latitude": 56.759191, "Longitude": -4.966215, "Viewable": 273.1 }, "geometry": { "type": "Point", "coordinates": [ -4.966235985438726, 56.759204596865587 ] } },
{ "type": "Feature", "properties": { "Number": 313, "Name": "Stob Coire a'Chairn", "Classifica": "Hu,M,Mur", "Metres": 981.0, "Feet": 3219, "Grid Ref": "NN185660", "Xcoord": 218560, "Ycoord": 766067, "Latitude": 56.750792, "Longitude": -4.969004, "Viewable": 218.68 }, "geometry": { "type": "Point", "coordinates": [ -4.969025522855325, 56.750805917866565 ] } },
{ "type": "Feature", "properties": { "Number": 320, "Name": "Binnein Beag", "Classifica": "Ma,M,Mur", "Metres": 943.0, "Feet": 3094, "Grid Ref": "NN221677", "Xcoord": 222100, "Ycoord": 767700, "Latitude": 56.766805, "Longitude": -4.912337, "Viewable": 203.51 }, "geometry": { "type": "Point", "coordinates": [ -4.912350033435073, 56.766821418959147 ] } },
{ "type": "Feature", "properties": { "Number": 346, "Name": "Geal-charn", "Classifica": "Ma,M,Mur", "Metres": 1132.0, "Feet": 3714, "Grid Ref": "NN469746", "Xcoord": 246992, "Ycoord": 774631, "Latitude": 56.837854, "Longitude": -4.509695, "Viewable": 1903.89 }, "geometry": { "type": "Point", "coordinates": [ -4.509709856998947, 56.837867963742397 ] } },
{ "type": "Feature", "properties": { "Number": 356, "Name": "Stob Coire Sgriodain", "Classifica": "M,Mur,sHu", "Metres": 979.0, "Feet": 3212, "Grid Ref": "NN356743", "Xcoord": 235669, "Ycoord": 774380, "Latitude": 56.831736, "Longitude": -4.694917, "Viewable": 653.38 }, "geometry": { "type": "Point", "coordinates": [ -4.694928388028243, 56.831748978559368 ] } },
{ "type": "Feature", "properties": { "Number": 361, "Name": "Sgor Gaibhre", "Classifica": "Ma,M,Mur", "Metres": 955.0, "Feet": 3133, "Grid Ref": "NN444674", "Xcoord": 244477, "Ycoord": 767447, "Latitude": 56.772544, "Longitude": -4.546498, "Viewable": 600.31 }, "geometry": { "type": "Point", "coordinates": [ -4.546511422189329, 56.772559295617498 ] } },
{ "type": "Feature", "properties": { "Number": 363, "Name": "Carn Dearg", "Classifica": "Ma,M,Mur", "Metres": 941.0, "Feet": 3087, "Grid Ref": "NN417661", "Xcoord": 241773, "Ycoord": 766142, "Latitude": 56.759922, "Longitude": -4.589888, "Viewable": 640.53 }, "geometry": { "type": "Point", "coordinates": [ -4.589900321158842, 56.759936999163656 ] } },
{ "type": "Feature", "properties": { "Number": 367, "Name": "Creag Pitridh", "Classifica": "Hu,M,Mur", "Metres": 924.0, "Feet": 3031, "Grid Ref": "NN487814", "Xcoord": 248752, "Ycoord": 781459, "Latitude": 56.899713, "Longitude": -4.484955, "Viewable": 483.93 }, "geometry": { "type": "Point", "coordinates": [ -4.484954717338828, 56.899725369001409 ] } },
{ "type": "Feature", "properties": { "Number": 408, "Name": "Carn an Fhidhleir [Carn Ealar]", "Classifica": "Ma,M,Mur", "Metres": 994.0, "Feet": 3261, "Grid Ref": "NN904841", "Xcoord": 290470, "Ycoord": 784186, "Latitude": 56.935938, "Longitude": -3.801629, "Viewable": 549.26 }, "geometry": { "type": "Point", "coordinates": [ -3.801626261865756, 56.93595125911412 ] } },
{ "type": "Feature", "properties": { "Number": 518, "Name": "Ben Macdui [Beinn Macduibh]", "Classifica": "Ma,M,Mur,CoH,CoU,CoA", "Metres": 1309.0, "Feet": 4295, "Grid Ref": "NN988989", "Xcoord": 298899, "Ycoord": 798943, "Latitude": 57.070368, "Longitude": -3.669099, "Viewable": 4570.33 }, "geometry": { "type": "Point", "coordinates": [ -3.669099512465734, 57.070379220462421 ] } },
{ "type": "Feature", "properties": { "Number": 523, "Name": "Sgor an Lochain Uaine", "Classifica": "Hu,M,Mur", "Metres": 1258.0, "Feet": 4127, "Grid Ref": "NN954976", "Xcoord": 295429, "Ycoord": 797694, "Latitude": 57.058378, "Longitude": -3.725781, "Viewable": 1793.45 }, "geometry": { "type": "Point", "coordinates": [ -3.725780773743956, 57.058389151684217 ] } },
{ "type": "Feature", "properties": { "Number": 621, "Name": "Carn Dearg", "Classifica": "Ma,M,Mur", "Metres": 945.0, "Feet": 3100, "Grid Ref": "NH635024", "Xcoord": 263569, "Ycoord": 802399, "Latitude": 57.09227, "Longitude": -4.25323, "Viewable": 408.7 }, "geometry": { "type": "Point", "coordinates": [ -4.253235872154809, 57.092288130695664 ] } },
{ "type": "Feature", "properties": { "Number": 623, "Name": "A'Chailleach", "Classifica": "Hu,M,Mur", "Metres": 930.0, "Feet": 3051, "Grid Ref": "NH681041", "Xcoord": 268109, "Ycoord": 804177, "Latitude": 57.109554, "Longitude": -4.179301, "Viewable": 511.57 }, "geometry": { "type": "Point", "coordinates": [ -4.179309096305816, 57.109572461021109 ] } },
{ "type": "Feature", "properties": { "Number": 624, "Name": "Geal Charn", "Classifica": "Hu,M,Mur", "Metres": 926.0, "Feet": 3038, "Grid Ref": "NN561987", "Xcoord": 256143, "Ycoord": 798769, "Latitude": 57.057427, "Longitude": -4.373589, "Viewable": 744.72 }, "geometry": { "type": "Point", "coordinates": [ -4.373592477792414, 57.057445526872527 ] } },
{ "type": "Feature", "properties": { "Number": 626, "Name": "Carn Sgulain", "Classifica": "M,Mur", "Metres": 920.0, "Feet": 3018, "Grid Ref": "NH682058", "Xcoord": 268299, "Ycoord": 805814, "Latitude": 57.124304, "Longitude": -4.177029, "Viewable": 751.7 }, "geometry": { "type": "Point", "coordinates": [ -4.177036814437611, 57.124321566980129 ] } },
{ "type": "Feature", "properties": { "Number": 658, "Name": "Creag Meagaidh", "Classifica": "Ma,M,Mur", "Metres": 1128.0, "Feet": 3701, "Grid Ref": "NN418875", "Xcoord": 241840, "Ycoord": 787549, "Latitude": 56.952051, "Longitude": -4.602102, "Viewable": 1986.23 }, "geometry": { "type": "Point", "coordinates": [ -4.602116508723091, 56.952070584197493 ] } },
{ "type": "Feature", "properties": { "Number": 668, "Name": "Carn Liath", "Classifica": "M,Mur", "Metres": 1006.0, "Feet": 3301, "Grid Ref": "NN472903", "Xcoord": 247200, "Ycoord": 790300, "Latitude": 56.978546, "Longitude": -4.515741, "Viewable": 389.74 }, "geometry": { "type": "Point", "coordinates": [ -4.515749107151332, 56.978561325611771 ] } },
{ "type": "Feature", "properties": { "Number": 675, "Name": "Beinn Teallach", "Classifica": "Ma,M,Mur,xC", "Metres": 914.6, "Feet": 3001, "Grid Ref": "NN361859", "Xcoord": 236136, "Ycoord": 785973, "Latitude": 56.935928, "Longitude": -4.69476, "Viewable": 217.8 }, "geometry": { "type": "Point", "coordinates": [ -4.694765725113984, 56.935943366948379 ] } },
{ "type": "Feature", "properties": { "Number": 683, "Name": "Gleouraich", "Classifica": "Ma,M,Mur", "Metres": 1035.0, "Feet": 3396, "Grid Ref": "NH039053", "Xcoord": 203944, "Ycoord": 805344, "Latitude": 57.097154, "Longitude": -5.238051, "Viewable": 782.44 }, "geometry": { "type": "Point", "coordinates": [ -5.23805329423944, 57.097169590440942 ] } },
{ "type": "Feature", "properties": { "Number": 684, "Name": "Sgurr a'Mhaoraich", "Classifica": "Ma,M,Mur", "Metres": 1027.0, "Feet": 3369, "Grid Ref": "NG983065", "Xcoord": 198392, "Ycoord": 806549, "Latitude": 57.105562, "Longitude": -5.330483, "Viewable": 745.69 }, "geometry": { "type": "Point", "coordinates": [ -5.330500235468167, 57.105577138489807 ] } },
{ "type": "Feature", "properties": { "Number": 685, "Name": "Aonach air Chrith", "Classifica": "Ma,M,Mur", "Metres": 1021.0, "Feet": 3350, "Grid Ref": "NH051083", "Xcoord": 205107, "Ycoord": 808345, "Latitude": 57.124564, "Longitude": -5.221224, "Viewable": 445.47 }, "geometry": { "type": "Point", "coordinates": [ -5.221226714062365, 57.124579193134139 ] } },
{ "type": "Feature", "properties": { "Number": 687, "Name": "Sgurr an Doire Leathain", "Classifica": "Ma,M,Mur", "Metres": 1010.0, "Feet": 3314, "Grid Ref": "NH015098", "Xcoord": 201524, "Ycoord": 809888, "Latitude": 57.136861, "Longitude": -5.28153, "Viewable": 193.85 }, "geometry": { "type": "Point", "coordinates": [ -5.281533107642182, 57.136884301410014 ] } },
{ "type": "Feature", "properties": { "Number": 688, "Name": "The Saddle", "Classifica": "Ma,M,Mur", "Metres": 1010.0, "Feet": 3314, "Grid Ref": "NG936131", "Xcoord": 193611, "Ycoord": 813122, "Latitude": 57.162375, "Longitude": -5.414697, "Viewable": 575.44 }, "geometry": { "type": "Point", "coordinates": [ -5.414713543894793, 57.162397895829351 ] } },
{ "type": "Feature", "properties": { "Number": 691, "Name": "Spidean Mialach", "Classifica": "Ma,M,Mur", "Metres": 996.0, "Feet": 3268, "Grid Ref": "NH065043", "Xcoord": 206591, "Ycoord": 804307, "Latitude": 57.088973, "Longitude": -5.193631, "Viewable": 751.29 }, "geometry": { "type": "Point", "coordinates": [ -5.193634747772929, 57.088988785001312 ] } },
{ "type": "Feature", "properties": { "Number": 692, "Name": "Druim Shionnach", "Classifica": "Hu,M,Mur", "Metres": 987.0, "Feet": 3238, "Grid Ref": "NH074084", "Xcoord": 207440, "Ycoord": 808483, "Latitude": 57.126785, "Longitude": -5.182857, "Viewable": 543.56 }, "geometry": { "type": "Point", "coordinates": [ -5.182860362688416, 57.12680015973276 ] } },
{ "type": "Feature", "properties": { "Number": 693, "Name": "Maol Chinn-dearg", "Classifica": "Hu,M,Mur", "Metres": 981.0, "Feet": 3219, "Grid Ref": "NH032087", "Xcoord": 203221, "Ycoord": 808766, "Latitude": 57.127537, "Longitude": -5.252655, "Viewable": 417.67 }, "geometry": { "type": "Point", "coordinates": [ -5.252657604725616, 57.127551502326554 ] } },
{ "type": "Feature", "properties": { "Number": 695, "Name": "Beinn Sgritheall", "Classifica": "Ma,M,Mur", "Metres": 974.0, "Feet": 3196, "Grid Ref": "NG835126", "Xcoord": 183590, "Ycoord": 812677, "Latitude": 57.153772, "Longitude": -5.579673, "Viewable": 651.73 }, "geometry": { "type": "Point", "coordinates": [ -5.579686501272197, 57.153794087152811 ] } },
{ "type": "Feature", "properties": { "Number": 700, "Name": "Creag a'Mhaim", "Classifica": "M,Mur", "Metres": 947.0, "Feet": 3107, "Grid Ref": "NH087077", "Xcoord": 208790, "Ycoord": 807771, "Latitude": 57.120962, "Longitude": -5.160047, "Viewable": 596.92 }, "geometry": { "type": "Point", "coordinates": [ -5.160051627464256, 57.120977554519065 ] } },
{ "type": "Feature", "properties": { "Number": 730, "Name": "Sgurr na Ciche", "Classifica": "Ma,M,Mur", "Metres": 1040.0, "Feet": 3412, "Grid Ref": "NM902966", "Xcoord": 190223, "Ycoord": 796684, "Latitude": 57.013452, "Longitude": -5.456854, "Viewable": 784.54 }, "geometry": { "type": "Point", "coordinates": [ -5.456867943712037, 57.013468069171836 ] } },
{ "type": "Feature", "properties": { "Number": 731, "Name": "Ladhar Bheinn", "Classifica": "Ma,M,Mur", "Metres": 1020.0, "Feet": 3346, "Grid Ref": "NG824039", "Xcoord": 182397, "Ycoord": 803983, "Latitude": 57.075262, "Longitude": -5.591794, "Viewable": 604.9 }, "geometry": { "type": "Point", "coordinates": [ -5.59180641096839, 57.075285515061069 ] } },
{ "type": "Feature", "properties": { "Number": 732, "Name": "Garbh Chioch Mhor", "Classifica": "Ma,M,Mur", "Metres": 1013.0, "Feet": 3323, "Grid Ref": "NM909961", "Xcoord": 190956, "Ycoord": 796099, "Latitude": 57.008538, "Longitude": -5.44432, "Viewable": 668.34 }, "geometry": { "type": "Point", "coordinates": [ -5.444334042425736, 57.008554876811409 ] } },
{ "type": "Feature", "properties": { "Number": 733, "Name": "Sgurr Mor", "Classifica": "Ma,M,Mur", "Metres": 1003.0, "Feet": 3291, "Grid Ref": "NM965980", "Xcoord": 196534, "Ycoord": 798039, "Latitude": 57.028428, "Longitude": -5.354204, "Viewable": 835.14 }, "geometry": { "type": "Point", "coordinates": [ -5.354220067571761, 57.028444089839631 ] } },
{ "type": "Feature", "properties": { "Number": 736, "Name": "Sgurr nan Coireachan", "Classifica": "Ma,M,Mur", "Metres": 953.0, "Feet": 3127, "Grid Ref": "NM933958", "Xcoord": 193308, "Ycoord": 795827, "Latitude": 57.007158, "Longitude": -5.40544, "Viewable": 486.25 }, "geometry": { "type": "Point", "coordinates": [ -5.405454425030401, 57.007174573810467 ] } },
{ "type": "Feature", "properties": { "Number": 739, "Name": "Luinne Bheinn", "Classifica": "Ma,M,Mur", "Metres": 939.0, "Feet": 3081, "Grid Ref": "NG869007", "Xcoord": 186984, "Ycoord": 800742, "Latitude": 57.048346, "Longitude": -5.513527, "Viewable": 721.34 }, "geometry": { "type": "Point", "coordinates": [ -5.513540504832743, 57.048370256974245 ] } },
{ "type": "Feature", "properties": { "Number": 741, "Name": "Gairich", "Classifica": "Ma,M,Mur", "Metres": 919.0, "Feet": 3015, "Grid Ref": "NN025995", "Xcoord": 202589, "Ycoord": 799581, "Latitude": 57.044888, "Longitude": -5.255844, "Viewable": 461.5 }, "geometry": { "type": "Point", "coordinates": [ -5.255845764915696, 57.044904334909674 ] } },
{ "type": "Feature", "properties": { "Number": 758, "Name": "Sron a'Choire Ghairbh", "Classifica": "Ma,M,Mur", "Metres": 937.0, "Feet": 3074, "Grid Ref": "NN222945", "Xcoord": 222246, "Ycoord": 794562, "Latitude": 57.007857, "Longitude": -4.928764, "Viewable": 576.0 }, "geometry": { "type": "Point", "coordinates": [ -4.928772590803275, 57.007875388168287 ] } },
{ "type": "Feature", "properties": { "Number": 759, "Name": "Meall na Teanga", "Classifica": "Ma,M,Mur", "Metres": 918.0, "Feet": 3012, "Grid Ref": "NN220924", "Xcoord": 222024, "Ycoord": 792482, "Latitude": 56.989111, "Longitude": -4.930946, "Viewable": 384.22 }, "geometry": { "type": "Point", "coordinates": [ -4.930954225081162, 56.98912923124923 ] } },
{ "type": "Feature", "properties": { "Number": 773, "Name": "Gulvain [Gaor Bheinn]", "Classifica": "Ma,M,Mur", "Metres": 987.0, "Feet": 3238, "Grid Ref": "NN002875", "Xcoord": 200267, "Ycoord": 787572, "Latitude": 56.936184, "Longitude": -5.284525, "Viewable": 866.62 }, "geometry": { "type": "Point", "coordinates": [ -5.284541540899108, 56.93620256284256 ] } },
{ "type": "Feature", "properties": { "Number": 774, "Name": "Sgurr Thuilm", "Classifica": "Ma,M,Mur", "Metres": 963.0, "Feet": 3159, "Grid Ref": "NM939879", "Xcoord": 193904, "Ycoord": 787980, "Latitude": 56.937055, "Longitude": -5.38924, "Viewable": 637.61 }, "geometry": { "type": "Point", "coordinates": [ -5.389254862406088, 56.937072930374448 ] } },
{ "type": "Feature", "properties": { "Number": 776, "Name": "Sgurr nan Coireachan", "Classifica": "Ma,M,Mur", "Metres": 956.0, "Feet": 3136, "Grid Ref": "NM902880", "Xcoord": 190289, "Ycoord": 788013, "Latitude": 56.935728, "Longitude": -5.448568, "Viewable": 804.3 }, "geometry": { "type": "Point", "coordinates": [ -5.448581354506793, 56.935745677922213 ] } },
{ "type": "Feature", "properties": { "Number": 803, "Name": "Carn Eige [Carn Eighe]", "Classifica": "Ma,M,Mur,CoH", "Metres": 1183.0, "Feet": 3881, "Grid Ref": "NH123261", "Xcoord": 212357, "Ycoord": 826197, "Latitude": 57.287702, "Longitude": -5.115126, "Viewable": 2895.56 }, "geometry": { "type": "Point", "coordinates": [ -5.115133233590298, 57.28772302799166 ] } },
{ "type": "Feature", "properties": { "Number": 804, "Name": "Mam Sodhail", "Classifica": "Hu,M,Mur", "Metres": 1181.0, "Feet": 3875, "Grid Ref": "NH119253", "Xcoord": 211962, "Ycoord": 825351, "Latitude": 57.279951, "Longitude": -5.121026, "Viewable": 3011.5 }, "geometry": { "type": "Point", "coordinates": [ -5.121033309424234, 57.279972431026664 ] } },
{ "type": "Feature", "properties": { "Number": 805, "Name": "Sgurr nan Ceathreamhnan", "Classifica": "Ma,M,Mur", "Metres": 1151.0, "Feet": 3776, "Grid Ref": "NH057228", "Xcoord": 205702, "Ycoord": 822850, "Latitude": 57.254902, "Longitude": -5.222731, "Viewable": 1704.29 }, "geometry": { "type": "Point", "coordinates": [ -5.222735447767367, 57.254923228088394 ] } },
{ "type": "Feature", "properties": { "Number": 815, "Name": "Sgurr Fhuaran", "Classifica": "Ma,M,Mur", "Metres": 1067.0, "Feet": 3501, "Grid Ref": "NG978166", "Xcoord": 197847, "Ycoord": 816679, "Latitude": 57.196158, "Longitude": -5.347684, "Viewable": 578.1 }, "geometry": { "type": "Point", "coordinates": [ -5.347685883393633, 57.1961807850534 ] } },
{ "type": "Feature", "properties": { "Number": 818, "Name": "Toll Creagach", "Classifica": "Ma,M,Mur", "Metres": 1054.0, "Feet": 3458, "Grid Ref": "NH194282", "Xcoord": 219401, "Ycoord": 828280, "Latitude": 57.309227, "Longitude": -4.999953, "Viewable": 1278.57 }, "geometry": { "type": "Point", "coordinates": [ -4.99996269918986, 57.309247837009487 ] } },
{ "type": "Feature", "properties": { "Number": 821, "Name": "Sgurr a'Bhealaich Dheirg", "Classifica": "Ma,M,Mur", "Metres": 1036.0, "Feet": 3399, "Grid Ref": "NH035143", "Xcoord": 203517, "Ycoord": 814362, "Latitude": 57.177843, "Longitude": -5.252178, "Viewable": 217.64 }, "geometry": { "type": "Point", "coordinates": [ -5.252182029466973, 57.177866092133748 ] } },
{ "type": "Feature", "properties": { "Number": 823, "Name": "Beinn Fhada", "Classifica": "Ma,M,Mur", "Metres": 1032.0, "Feet": 3386, "Grid Ref": "NH018192", "Xcoord": 201855, "Ycoord": 819253, "Latitude": 57.220993, "Longitude": -5.283518, "Viewable": 640.08 }, "geometry": { "type": "Point", "coordinates": [ -5.28352152427922, 57.221014710554655 ] } },
{ "type": "Feature", "properties": { "Number": 825, "Name": "Sgurr na Ciste Duibhe", "Classifica": "Ma,M,Mur", "Metres": 1027.0, "Feet": 3369, "Grid Ref": "NG984149", "Xcoord": 198398, "Ycoord": 814952, "Latitude": 57.180914, "Longitude": -5.337167, "Viewable": 697.45 }, "geometry": { "type": "Point", "coordinates": [ -5.337185016470358, 57.18093619951275 ] } },
{ "type": "Feature", "properties": { "Number": 828, "Name": "Aonach Meadhoin", "Classifica": "Ma,M,Mur", "Metres": 1001.0, "Feet": 3284, "Grid Ref": "NH048137", "Xcoord": 204885, "Ycoord": 813766, "Latitude": 57.173082, "Longitude": -5.229121, "Viewable": 409.02 }, "geometry": { "type": "Point", "coordinates": [ -5.229124703663191, 57.173104622020162 ] } },
{ "type": "Feature", "properties": { "Number": 834, "Name": "Ciste Dhubh", "Classifica": "Ma,M,Mur", "Metres": 979.0, "Feet": 3212, "Grid Ref": "NH062166", "Xcoord": 206238, "Ycoord": 816619, "Latitude": 57.199244, "Longitude": -5.209, "Viewable": 144.54 }, "geometry": { "type": "Point", "coordinates": [ -5.20900410939186, 57.199266152669345 ] } },
{ "type": "Feature", "properties": { "Number": 846, "Name": "A'Ghlas-bheinn", "Classifica": "Ma,M,Mur", "Metres": 918.0, "Feet": 3012, "Grid Ref": "NH008231", "Xcoord": 200823, "Ycoord": 823104, "Latitude": 57.255081, "Longitude": -5.30367, "Viewable": 213.34 }, "geometry": { "type": "Point", "coordinates": [ -5.303672923461921, 57.25510267510996 ] } },
{ "type": "Feature", "properties": { "Number": 862, "Name": "A'Chralaig", "Classifica": "Ma,M,Mur", "Metres": 1120.0, "Feet": 3675, "Grid Ref": "NH094148", "Xcoord": 209428, "Ycoord": 814798, "Latitude": 57.184247, "Longitude": -5.154892, "Viewable": 2466.1 }, "geometry": { "type": "Point", "coordinates": [ -5.154897389436341, 57.184270428988732 ] } },
{ "type": "Feature", "properties": { "Number": 863, "Name": "Sgurr nan Conbhairean", "Classifica": "Ma,M,Mur", "Metres": 1109.0, "Feet": 3638, "Grid Ref": "NH129138", "Xcoord": 212987, "Ycoord": 813895, "Latitude": 57.177613, "Longitude": -5.095423, "Viewable": 2040.27 }, "geometry": { "type": "Point", "coordinates": [ -5.095429910164079, 57.177635755371234 ] } },
{ "type": "Feature", "properties": { "Number": 864, "Name": "Mullach Fraoch-choire", "Classifica": "Ma,M,Mur", "Metres": 1102.0, "Feet": 3615, "Grid Ref": "NH094171", "Xcoord": 209489, "Ycoord": 817160, "Latitude": 57.205459, "Longitude": -5.155692, "Viewable": 912.72 }, "geometry": { "type": "Point", "coordinates": [ -5.155697925863062, 57.20548129632396 ] } },
{ "type": "Feature", "properties": { "Number": 867, "Name": "Sail Chaorainn [Sail Chaoruinn]", "Classifica": "M,Mur", "Metres": 1002.0, "Feet": 3287, "Grid Ref": "NH133154", "Xcoord": 213320, "Ycoord": 815462, "Latitude": 57.191804, "Longitude": -5.091098, "Viewable": 620.41 }, "geometry": { "type": "Point", "coordinates": [ -5.091104825833557, 57.191827190307038 ] } },
{ "type": "Feature", "properties": { "Number": 871, "Name": "Carn Ghluasaid", "Classifica": "M,Mur", "Metres": 957.0, "Feet": 3140, "Grid Ref": "NH145125", "Xcoord": 214575, "Ycoord": 812522, "Latitude": 57.16595, "Longitude": -5.068174, "Viewable": 762.16 }, "geometry": { "type": "Point", "coordinates": [ -5.068180892739016, 57.165964472433288 ] } },
{ "type": "Feature", "properties": { "Number": 884, "Name": "Sgurr a'Choire Ghlais", "Classifica": "Ma,M,Mur", "Metres": 1083.0, "Feet": 3553, "Grid Ref": "NH258430", "Xcoord": 225882, "Ycoord": 843016, "Latitude": 57.443947, "Longitude": -4.902963, "Viewable": 2122.31 }, "geometry": { "type": "Point", "coordinates": [ -4.902958898057218, 57.443965771145983 ] } },
{ "type": "Feature", "properties": { "Number": 886, "Name": "Sgurr Fhuar-thuill", "Classifica": "Hu,M,Mur,sMa", "Metres": 1049.0, "Feet": 3442, "Grid Ref": "NH235437", "Xcoord": 223580, "Ycoord": 843754, "Latitude": 57.44968, "Longitude": -4.94178, "Viewable": 1640.2 }, "geometry": { "type": "Point", "coordinates": [ -4.941791476472146, 57.449697611129437 ] } },
{ "type": "Feature", "properties": { "Number": 894, "Name": "Sgurr na Ruaidhe", "Classifica": "Ma,M,Mur", "Metres": 993.0, "Feet": 3258, "Grid Ref": "NH289426", "Xcoord": 228900, "Ycoord": 842614, "Latitude": 57.441488, "Longitude": -4.852464, "Viewable": 1705.41 }, "geometry": { "type": "Point", "coordinates": [ -4.852461095128953, 57.441506570677539 ] } },
{ "type": "Feature", "properties": { "Number": 895, "Name": "Carn nan Gobhar", "Classifica": "Hu,M,Mur", "Metres": 992.0, "Feet": 3255, "Grid Ref": "NH273438", "Xcoord": 227303, "Ycoord": 843890, "Latitude": 57.452331, "Longitude": -4.879935, "Viewable": 2461.46 }, "geometry": { "type": "Point", "coordinates": [ -4.879931902065454, 57.452349317361076 ] } },
{ "type": "Feature", "properties": { "Number": 926, "Name": "Sgurr na Lapaich", "Classifica": "Ma,M,Mur", "Metres": 1150.0, "Feet": 3773, "Grid Ref": "NH160351", "Xcoord": 216102, "Ycoord": 835126, "Latitude": 57.369319, "Longitude": -5.059743, "Viewable": 2551.19 }, "geometry": { "type": "Point", "coordinates": [ -5.05975181485052, 57.369338804802695 ] } },
{ "type": "Feature", "properties": { "Number": 927, "Name": "An Riabhachan", "Classifica": "Ma,M,Mur", "Metres": 1129.0, "Feet": 3704, "Grid Ref": "NH133344", "Xcoord": 213363, "Ycoord": 834483, "Latitude": 57.362438, "Longitude": -5.104728, "Viewable": 1005.62 }, "geometry": { "type": "Point", "coordinates": [ -5.104736295532149, 57.362457125191391 ] } },
{ "type": "Feature", "properties": { "Number": 1066, "Name": "Am Faochagach", "Classifica": "Ma,M,Mur", "Metres": 953.0, "Feet": 3127, "Grid Ref": "NH303793", "Xcoord": 230361, "Ycoord": 879372, "Latitude": 57.771801, "Longitude": -4.853899, "Viewable": 1092.05 }, "geometry": { "type": "Point", "coordinates": [ -4.853899102655233, 57.771821792047341 ] } },
{ "type": "Feature", "properties": { "Number": 1088, "Name": "Ben Wyvis - Glas Leathad Mor", "Classifica": "Ma,M,Mur", "Metres": 1046.0, "Feet": 3432, "Grid Ref": "NH462683", "Xcoord": 246295, "Ycoord": 868377, "Latitude": 57.678895, "Longitude": -4.579282, "Viewable": 3059.04 }, "geometry": { "type": "Point", "coordinates": [ -4.579285998528604, 57.678909576503514 ] } }
]
}
