{
"type": "FeatureCollection",
"crs": { "type": "name", "properties": { "name": "urn:ogc:def:crs:OGC:1.3:CRS84" } },
                                                                                
"features": [
{ "type": "Feature", "properties": { "Number": 1, "Name": "Ben Chonzie", "Classifica": "Ma,M,Mur", "Metres": 931.0, "Feet": 3054, "Grid Ref": "NN773308", "Xcoord": 277324, "Ycoord": 730857, "Latitude": 56.453851, "Longitude": -3.992057, "Viewable": 2111.33 }, "geometry": { "type": "Point", "coordinates": [ -3.99206200693323, 56.453856530406412 ] } },
{ "type": "Feature", "properties": { "Number": 17, "Name": "Ben Vorlich", "Classifica": "Ma,M,Mur", "Metres": 985.0, "Feet": 3232, "Grid Ref": "NN629189", "Xcoord": 262910, "Ycoord": 718915, "Latitude": 56.342671, "Longitude": -4.21948, "Viewable": 2666.0 }, "geometry": { "type": "Point", "coordinates": [ -4.219495635291023, 56.342677209723341 ] } },
{ "type": "Feature", "properties": { "Number": 18, "Name": "Stuc a'Chroin", "Classifica": "Ma,M,Mur", "Metres": 975.0, "Feet": 3199, "Grid Ref": "NN617174", "Xcoord": 261746, "Ycoord": 717466, "Latitude": 56.329324, "Longitude": -4.237534, "Viewable": 2772.99 }, "geometry": { "type": "Point", "coordinates": [ -4.237549383185885, 56.329330486973426 ] } },
{ "type": "Feature", "properties": { "Number": 104, "Name": "Beinn a'Chreachain", "Classifica": "Ma,M,Mur", "Metres": 1081.0, "Feet": 3547, "Grid Ref": "NN373440", "Xcoord": 237389, "Ycoord": 744075, "Latitude": 56.560387, "Longitude": -4.647589, "Viewable": 1044.86 }, "geometry": { "type": "Point", "coordinates": [ -4.647598463275189, 56.560397108836888 ] } },
{ "type": "Feature", "properties": { "Number": 108, "Name": "Beinn Achaladair", "Classifica": "Ma,M,Mur", "Metres": 1038.0, "Feet": 3406, "Grid Ref": "NN346433", "Xcoord": 234600, "Ycoord": 743300, "Latitude": 56.552454, "Longitude": -4.692417, "Viewable": 406.94 }, "geometry": { "type": "Point", "coordinates": [ -4.692430335326931, 56.552468136667706 ] } },
{ "type": "Feature", "properties": { "Number": 123, "Name": "Meall Buidhe", "Classifica": "Ma,M,Mur", "Metres": 932.0, "Feet": 3058, "Grid Ref": "NN498499", "Xcoord": 249839, "Ycoord": 749949, "Latitude": 56.617258, "Longitude": -4.448626, "Viewable": 531.78 }, "geometry": { "type": "Point", "coordinates": [ -4.448639586008599, 56.617267129037465 ] } },
{ "type": "Feature", "properties": { "Number": 178, "Name": "Aonach Eagach - Sgorr nam Fiannaidh", "Classifica": "Ma,M,Mur", "Metres": 967.0, "Feet": 3173, "Grid Ref": "NN140583", "Xcoord": 214043, "Ycoord": 758307, "Latitude": 56.679396, "Longitude": -5.037144, "Viewable": 631.37 }, "geometry": { "type": "Point", "coordinates": [ -5.037163029883993, 56.679411393971861 ] } },
{ "type": "Feature", "properties": { "Number": 179, "Name": "Aonach Eagach - Meall Dearg", "Classifica": "Hu,M,Mur", "Metres": 953.0, "Feet": 3127, "Grid Ref": "NN161583", "Xcoord": 216128, "Ycoord": 758364, "Latitude": 56.680732, "Longitude": -5.003202, "Viewable": 551.01 }, "geometry": { "type": "Point", "coordinates": [ -5.003221597667999, 56.680747490816657 ] } },
{ "type": "Feature", "properties": { "Number": 191, "Name": "Bidean nam Bian", "Classifica": "Ma,M,Mur,CoH", "Metres": 1150.0, "Feet": 3773, "Grid Ref": "NN143542", "Xcoord": 214341, "Ycoord": 754208, "Latitude": 56.642741, "Longitude": -5.029333, "Viewable": 2093.69 }, "geometry": { "type": "Point", "coordinates": [ -5.029352296575269, 56.642757150427322 ] } },
{ "type": "Feature", "properties": { "Number": 194, "Name": "Stob Coire Sgreamhach", "Classifica": "Hu,M,Mur", "Metres": 1072.0, "Feet": 3517, "Grid Ref": "NN154536", "Xcoord": 215487, "Ycoord": 753664, "Latitude": 56.638314, "Longitude": -5.010284, "Viewable": 845.48 }, "geometry": { "type": "Point", "coordinates": [ -5.010303435041324, 56.638329838759503 ] } },
{ "type": "Feature", "properties": { "Number": 195, "Name": "Beinn a'Bheithir - Sgorr Dhearg", "Classifica": "Ma,M,Mur", "Metres": 1024.0, "Feet": 3360, "Grid Ref": "NN056558", "Xcoord": 205682, "Ycoord": 755846, "Latitude": 56.65392, "Longitude": -5.171543, "Viewable": 1009.01 }, "geometry": { "type": "Point", "coordinates": [ -5.171558924244988, 56.653936142474116 ] } },
{ "type": "Feature", "properties": { "Number": 196, "Name": "Buachaille Etive Mor - Stob Dearg", "Classifica": "Ma,M,Mur", "Metres": 1022.0, "Feet": 3353, "Grid Ref": "NN223543", "Xcoord": 222362, "Ycoord": 754320, "Latitude": 56.646858, "Longitude": -4.898794, "Viewable": 777.53 }, "geometry": { "type": "Point", "coordinates": [ -4.898816139709804, 56.646874627501717 ] } },
{ "type": "Feature", "properties": { "Number": 199, "Name": "Sgor na h-Ulaidh", "Classifica": "Ma,M,Mur", "Metres": 994.0, "Feet": 3261, "Grid Ref": "NN111518", "Xcoord": 211116, "Ycoord": 751797, "Latitude": 56.619822, "Longitude": -5.080078, "Viewable": 575.79 }, "geometry": { "type": "Point", "coordinates": [ -5.080096307242775, 56.619838583393971 ] } },
{ "type": "Feature", "properties": { "Number": 201, "Name": "Beinn Fhionnlaidh", "Classifica": "Ma,M,Mur", "Metres": 959.0, "Feet": 3146, "Grid Ref": "NN095497", "Xcoord": 209498, "Ycoord": 749773, "Latitude": 56.60101, "Longitude": -5.104914, "Viewable": 735.31 }, "geometry": { "type": "Point", "coordinates": [ -5.104931589549937, 56.601027095744641 ] } },
{ "type": "Feature", "properties": { "Number": 202, "Name": "Buachaille Etive Beag - Stob Dubh", "Classifica": "Ma,M,Mur", "Metres": 958.0, "Feet": 3143, "Grid Ref": "NN179535", "Xcoord": 217906, "Ycoord": 753552, "Latitude": 56.638256, "Longitude": -4.97082, "Viewable": 264.64 }, "geometry": { "type": "Point", "coordinates": [ -4.9708402809518, 56.638272062668577 ] } },
{ "type": "Feature", "properties": { "Number": 203, "Name": "Buachaille Etive Mor - Stob na Broige", "Classifica": "Hu,M,Mur", "Metres": 956.0, "Feet": 3136, "Grid Ref": "NN190525", "Xcoord": 219070, "Ycoord": 752564, "Latitude": 56.629843, "Longitude": -4.951175, "Viewable": 569.02 }, "geometry": { "type": "Point", "coordinates": [ -4.951195988833401, 56.629859158153067 ] } },
{ "type": "Feature", "properties": { "Number": 209, "Name": "Buachaille Etive Beag - Stob Coire Raineach", "Classifica": "Ma,M,Mur", "Metres": 925.0, "Feet": 3035, "Grid Ref": "NN191548", "Xcoord": 219132, "Ycoord": 754807, "Latitude": 56.649991, "Longitude": -4.951739, "Viewable": 459.04 }, "geometry": { "type": "Point", "coordinates": [ -4.951759351470444, 56.650006898533121 ] } },
{ "type": "Feature", "properties": { "Number": 232, "Name": "Ben Cruachan", "Classifica": "Ma,M,Mur,CoU,CoA", "Metres": 1126.0, "Feet": 3694, "Grid Ref": "NN069304", "Xcoord": 206965, "Ycoord": 730473, "Latitude": 56.42685, "Longitude": -5.131786, "Viewable": 3851.54 }, "geometry": { "type": "Point", "coordinates": [ -5.131801144890179, 56.426861734335596 ] } },
{ "type": "Feature", "properties": { "Number": 233, "Name": "Meall a'Bhuiridh", "Classifica": "Ma,M,Mur", "Metres": 1108.0, "Feet": 3635, "Grid Ref": "NN250503", "Xcoord": 225064, "Ycoord": 750351, "Latitude": 56.612262, "Longitude": -4.852114, "Viewable": 2067.61 }, "geometry": { "type": "Point", "coordinates": [ -4.85212015905547, 56.612280070453025 ] } },
{ "type": "Feature", "properties": { "Number": 235, "Name": "Creise", "Classifica": "Ma,M,Mur", "Metres": 1100.0, "Feet": 3609, "Grid Ref": "NN238506", "Xcoord": 223857, "Ycoord": 750650, "Latitude": 56.614494, "Longitude": -4.871942, "Viewable": 808.6 }, "geometry": { "type": "Point", "coordinates": [ -4.87196368041109, 56.61451074814989 ] } },
{ "type": "Feature", "properties": { "Number": 237, "Name": "Stob Ghabhar", "Classifica": "Ma,M,Mur", "Metres": 1090.0, "Feet": 3576, "Grid Ref": "NN230455", "Xcoord": 223016, "Ycoord": 745514, "Latitude": 56.568093, "Longitude": -4.882114, "Viewable": 554.06 }, "geometry": { "type": "Point", "coordinates": [ -4.882136027082328, 56.568111493494541 ] } },
{ "type": "Feature", "properties": { "Number": 238, "Name": "Ben Starav", "Classifica": "Ma,M,Mur", "Metres": 1078.0, "Feet": 3537, "Grid Ref": "NN125427", "Xcoord": 212573, "Ycoord": 742717, "Latitude": 56.538948, "Longitude": -5.049799, "Viewable": 1028.5 }, "geometry": { "type": "Point", "coordinates": [ -5.049816929267415, 56.538966371010453 ] } },
{ "type": "Feature", "properties": { "Number": 241, "Name": "Stob Coir'an Albannaich", "Classifica": "Ma,M,Mur", "Metres": 1044.0, "Feet": 3425, "Grid Ref": "NN169443", "Xcoord": 216952, "Ycoord": 744307, "Latitude": 56.554939, "Longitude": -4.979811, "Viewable": 233.89 }, "geometry": { "type": "Point", "coordinates": [ -4.979830908310125, 56.554957416844658 ] } },
{ "type": "Feature", "properties": { "Number": 244, "Name": "Stob Diamh", "Classifica": "Hu,M,Mur", "Metres": 998.0, "Feet": 3274, "Grid Ref": "NN094308", "Xcoord": 209478, "Ycoord": 730852, "Latitude": 56.431271, "Longitude": -5.091379, "Viewable": 1354.9 }, "geometry": { "type": "Point", "coordinates": [ -5.091394615857054, 56.431282837656511 ] } },
{ "type": "Feature", "properties": { "Number": 251, "Name": "Beinn a'Chochuill", "Classifica": "Ma,M,Mur", "Metres": 980.0, "Feet": 3215, "Grid Ref": "NN109328", "Xcoord": 210978, "Ycoord": 732847, "Latitude": 56.449772, "Longitude": -5.068535, "Viewable": 1021.65 }, "geometry": { "type": "Point", "coordinates": [ -5.068550989443159, 56.449783497157711 ] } },
{ "type": "Feature", "properties": { "Number": 254, "Name": "Beinn nan Aighenan", "Classifica": "Ma,M,Mur", "Metres": 960.0, "Feet": 3150, "Grid Ref": "NN148405", "Xcoord": 214852, "Ycoord": 740528, "Latitude": 56.520221, "Longitude": -5.011233, "Viewable": 595.73 }, "geometry": { "type": "Point", "coordinates": [ -5.011250872178819, 56.52023114844954 ] } },
{ "type": "Feature", "properties": { "Number": 255, "Name": "Stob a'Choire Odhair", "Classifica": "Ma,M,Mur", "Metres": 945.0, "Feet": 3100, "Grid Ref": "NN257459", "Xcoord": 225732, "Ycoord": 745982, "Latitude": 56.573309, "Longitude": -4.838285, "Viewable": 1287.03 }, "geometry": { "type": "Point", "coordinates": [ -4.838307959394458, 56.573326914702086 ] } },
{ "type": "Feature", "properties": { "Number": 278, "Name": "Ben Nevis", "Classifica": "Ma,M,Mur,CoH,CoU,CoA", "Metres": 1344.0, "Feet": 4409, "Grid Ref": "NN166712", "Xcoord": 216676, "Ycoord": 771283, "Latitude": 56.79685, "Longitude": -5.003508, "Viewable": 3454.84 }, "geometry": { "type": "Point", "coordinates": [ -5.003528959242606, 56.796862774329121 ] } },
{ "type": "Feature", "properties": { "Number": 279, "Name": "Aonach Beag", "Classifica": "Ma,M,Mur", "Metres": 1234.0, "Feet": 4049, "Grid Ref": "NN197715", "Xcoord": 219707, "Ycoord": 771503, "Latitude": 56.800007, "Longitude": -4.954122, "Viewable": 966.99 }, "geometry": { "type": "Point", "coordinates": [ -4.954127414019727, 56.800020587978764 ] } },
{ "type": "Feature", "properties": { "Number": 281, "Name": "Aonach Mor", "Classifica": "Hu,M,Mur", "Metres": 1221.0, "Feet": 4006, "Grid Ref": "NN193729", "Xcoord": 219304, "Ycoord": 772961, "Latitude": 56.812932, "Longitude": -4.961744, "Viewable": 2128.06 }, "geometry": { "type": "Point", "coordinates": [ -4.961749311088616, 56.812944718201692 ] } },
{ "type": "Feature", "properties": { "Number": 282, "Name": "Carn Mor Dearg", "Classifica": "Ma,M,Mur", "Metres": 1220.0, "Feet": 4003, "Grid Ref": "NN177721", "Xcoord": 217749, "Ycoord": 772171, "Latitude": 56.805237, "Longitude": -4.986615, "Viewable": 1247.66 }, "geometry": { "type": "Point", "coordinates": [ -4.986619736971463, 56.80525070755079 ] } },
{ "type": "Feature", "properties": { "Number": 285, "Name": "Stob Choire Claurigh", "Classifica": "Ma,M,Mur", "Metres": 1177.0, "Feet": 3862, "Grid Ref": "NN262738", "Xcoord": 226196, "Ycoord": 773878, "Latitude": 56.823786, "Longitude": -4.849624, "Viewable": 2114.97 }, "geometry": { "type": "Point", "coordinates": [ -4.84963222209415, 56.823799001967252 ] } },
{ "type": "Feature", "properties": { "Number": 287, "Name": "Binnein Mor", "Classifica": "Ma,M,Mur", "Metres": 1130.0, "Feet": 3707, "Grid Ref": "NN212663", "Xcoord": 221200, "Ycoord": 766300, "Latitude": 56.7539, "Longitude": -4.926063, "Viewable": 606.93 }, "geometry": { "type": "Point", "coordinates": [ -4.926075871750523, 56.753916334241787 ] } },
{ "type": "Feature", "properties": { "Number": 289, "Name": "Stob Coire an Laoigh", "Classifica": "M,Mur", "Metres": 1116.0, "Feet": 3661, "Grid Ref": "NN239725", "Xcoord": 223983, "Ycoord": 772532, "Latitude": 56.810877, "Longitude": -4.884907, "Viewable": 1572.66 }, "geometry": { "type": "Point", "coordinates": [ -4.88491440814614, 56.810890002103996 ] } },
{ "type": "Feature", "properties": { "Number": 290, "Name": "Stob Coire Easain", "Classifica": "Ma,M,Mur", "Metres": 1115.0, "Feet": 3658, "Grid Ref": "NN308730", "Xcoord": 230800, "Ycoord": 773000, "Latitude": 56.817603, "Longitude": -4.773698, "Viewable": 467.85 }, "geometry": { "type": "Point", "coordinates": [ -4.773708437582187, 56.817619228504668 ] } },
{ "type": "Feature", "properties": { "Number": 292, "Name": "Stob a'Choire Mheadhoin", "Classifica": "Hu,M,Mur,sMa", "Metres": 1105.0, "Feet": 3625, "Grid Ref": "NN316736", "Xcoord": 231600, "Ycoord": 773600, "Latitude": 56.823277, "Longitude": -4.761005, "Viewable": 844.84 }, "geometry": { "type": "Point", "coordinates": [ -4.761015220555818, 56.823293465222648 ] } },
{ "type": "Feature", "properties": { "Number": 295, "Name": "Sgurr a'Mhaim", "Classifica": "Ma,M,Mur", "Metres": 1099.0, "Feet": 3606, "Grid Ref": "NN164667", "Xcoord": 216466, "Ycoord": 766730, "Latitude": 56.75592, "Longitude": -5.003674, "Viewable": 775.08 }, "geometry": { "type": "Point", "coordinates": [ -5.003694533482893, 56.755934227643827 ] } },
{ "type": "Feature", "properties": { "Number": 301, "Name": "Na Gruagaichean", "Classifica": "M,Mur,sHu", "Metres": 1056.0, "Feet": 3465, "Grid Ref": "NN203652", "Xcoord": 220309, "Ycoord": 765202, "Latitude": 56.743708, "Longitude": -4.939852, "Viewable": 402.14 }, "geometry": { "type": "Point", "coordinates": [ -4.939857208257561, 56.743722750177909 ] } },
{ "type": "Feature", "properties": { "Number": 303, "Name": "Am Bodach", "Classifica": "Ma,M,Mur", "Metres": 1032.0, "Feet": 3386, "Grid Ref": "NN176650", "Xcoord": 217637, "Ycoord": 765096, "Latitude": 56.74172, "Longitude": -4.983386, "Viewable": 951.61 }, "geometry": { "type": "Point", "coordinates": [ -4.983406719563914, 56.741734570230378 ] } },
{ "type": "Feature", "properties": { "Number": 305, "Name": "Sgurr Eilde Mor", "Classifica": "Ma,M,Mur", "Metres": 1010.0, "Feet": 3314, "Grid Ref": "NN230657", "Xcoord": 223052, "Ycoord": 765792, "Latitude": 56.750051, "Longitude": -4.895471, "Viewable": 473.18 }, "geometry": { "type": "Point", "coordinates": [ -4.895477572987912, 56.750065201284677 ] } },
{ "type": "Feature", "properties": { "Number": 312, "Name": "An Gearanach", "Classifica": "Ma,M,Mur", "Metres": 982.0, "Feet": 3222, "Grid Ref": "NN187669", "Xcoord": 218771, "Ycoord": 766994, "Latitude": 56.759191, "Longitude": -4.966215, "Viewable": 273.1 }, "geometry": { "type": "Point", "coordinates": [ -4.966235985438726, 56.759204596865587 ] } },
{ "type": "Feature", "properties": { "Number": 320, "Name": "Binnein Beag", "Classifica": "Ma,M,Mur", "Metres": 943.0, "Feet": 3094, "Grid Ref": "NN221677", "Xcoord": 222100, "Ycoord": 767700, "Latitude": 56.766805, "Longitude": -4.912337, "Viewable": 203.51 }, "geometry": { "type": "Point", "coordinates": [ -4.912350033435073, 56.766821418959147 ] } },
{ "type": "Feature", "properties": { "Number": 345, "Name": "Ben Alder", "Classifica": "Ma,M,Mur", "Metres": 1148.0, "Feet": 3766, "Grid Ref": "NN496718", "Xcoord": 249614, "Ycoord": 771854, "Latitude": 56.813786, "Longitude": -4.465122, "Viewable": 2082.27 }, "geometry": { "type": "Point", "coordinates": [ -4.465137117274049, 56.813800128859604 ] } },
{ "type": "Feature", "properties": { "Number": 346, "Name": "Geal-charn", "Classifica": "Ma,M,Mur", "Metres": 1132.0, "Feet": 3714, "Grid Ref": "NN469746", "Xcoord": 246992, "Ycoord": 774631, "Latitude": 56.837854, "Longitude": -4.509695, "Viewable": 1903.89 }, "geometry": { "type": "Point", "coordinates": [ -4.509709856998947, 56.837867963742397 ] } },
{ "type": "Feature", "properties": { "Number": 347, "Name": "Aonach Beag", "Classifica": "M,Mur,sHu", "Metres": 1115.7, "Feet": 3660, "Grid Ref": "NN457741", "Xcoord": 245787, "Ycoord": 774189, "Latitude": 56.833489, "Longitude": -4.529158, "Viewable": 1466.08 }, "geometry": { "type": "Point", "coordinates": [ -4.529172705545435, 56.833502736108279 ] } },
{ "type": "Feature", "properties": { "Number": 348, "Name": "Beinn Eibhinn", "Classifica": "Hu,M,Mur", "Metres": 1103.2, "Feet": 3619, "Grid Ref": "NN449733", "Xcoord": 244965, "Ycoord": 773302, "Latitude": 56.825255, "Longitude": -4.542077, "Viewable": 608.6 }, "geometry": { "type": "Point", "coordinates": [ -4.542090575895859, 56.825268724361742 ] } },
{ "type": "Feature", "properties": { "Number": 349, "Name": "Beinn a'Chlachair", "Classifica": "Ma,M,Mur", "Metres": 1087.0, "Feet": 3566, "Grid Ref": "NN471781", "Xcoord": 247122, "Ycoord": 778154, "Latitude": 56.869516, "Longitude": -4.509683, "Viewable": 405.57 }, "geometry": { "type": "Point", "coordinates": [ -4.509698424369988, 56.869529037504861 ] } },
{ "type": "Feature", "properties": { "Number": 350, "Name": "Geal Charn", "Classifica": "Ma,M,Mur", "Metres": 1049.0, "Feet": 3442, "Grid Ref": "NN504811", "Xcoord": 250432, "Ycoord": 781181, "Latitude": 56.897763, "Longitude": -4.457236, "Viewable": 318.32 }, "geometry": { "type": "Point", "coordinates": [ -4.457235922272134, 56.897775470682362 ] } },
{ "type": "Feature", "properties": { "Number": 352, "Name": "Carn Dearg", "Classifica": "Ma,M,Mur", "Metres": 1034.0, "Feet": 3392, "Grid Ref": "NN504764", "Xcoord": 250417, "Ycoord": 776445, "Latitude": 56.855251, "Longitude": -4.454693, "Viewable": 294.08 }, "geometry": { "type": "Point", "coordinates": [ -4.454692929441177, 56.855264364855863 ] } },
{ "type": "Feature", "properties": { "Number": 354, "Name": "Beinn Bheoil", "Classifica": "Ma,M,Mur", "Metres": 1019.0, "Feet": 3343, "Grid Ref": "NN517717", "Xcoord": 251716, "Ycoord": 771723, "Latitude": 56.813285, "Longitude": -4.430663, "Viewable": 596.92 }, "geometry": { "type": "Point", "coordinates": [ -4.430662846884802, 56.81329941288255 ] } },
{ "type": "Feature", "properties": { "Number": 361, "Name": "Sgor Gaibhre", "Classifica": "Ma,M,Mur", "Metres": 955.0, "Feet": 3133, "Grid Ref": "NN444674", "Xcoord": 244477, "Ycoord": 767447, "Latitude": 56.772544, "Longitude": -4.546498, "Viewable": 600.31 }, "geometry": { "type": "Point", "coordinates": [ -4.546511422189329, 56.772559295617498 ] } },
{ "type": "Feature", "properties": { "Number": 363, "Name": "Carn Dearg", "Classifica": "Ma,M,Mur", "Metres": 941.0, "Feet": 3087, "Grid Ref": "NN417661", "Xcoord": 241773, "Ycoord": 766142, "Latitude": 56.759922, "Longitude": -4.589888, "Viewable": 640.53 }, "geometry": { "type": "Point", "coordinates": [ -4.589900321158842, 56.759936999163656 ] } },
{ "type": "Feature", "properties": { "Number": 383, "Name": "Beinn Udlamain", "Classifica": "Ma,M,Mur", "Metres": 1011.0, "Feet": 3317, "Grid Ref": "NN579739", "Xcoord": 257949, "Ycoord": 773977, "Latitude": 56.835463, "Longitude": -4.329912, "Viewable": 595.24 }, "geometry": { "type": "Point", "coordinates": [ -4.329914080025146, 56.835477368553079 ] } },
{ "type": "Feature", "properties": { "Number": 384, "Name": "Sgairneach Mhor", "Classifica": "Ma,M,Mur", "Metres": 991.0, "Feet": 3251, "Grid Ref": "NN598731", "Xcoord": 259882, "Ycoord": 773128, "Latitude": 56.828429, "Longitude": -4.297791, "Viewable": 777.91 }, "geometry": { "type": "Point", "coordinates": [ -4.297793226574294, 56.828443554831217 ] } },
{ "type": "Feature", "properties": { "Number": 386, "Name": "A'Mharconaich", "Classifica": "Hu,M,Mur", "Metres": 975.0, "Feet": 3199, "Grid Ref": "NN604762", "Xcoord": 260423, "Ycoord": 776292, "Latitude": 56.856993, "Longitude": -4.290668, "Viewable": 369.93 }, "geometry": { "type": "Point", "coordinates": [ -4.290670637329467, 56.857007277511059 ] } },
{ "type": "Feature", "properties": { "Number": 388, "Name": "Meall Chuaich", "Classifica": "Ma,M,Mur", "Metres": 951.0, "Feet": 3120, "Grid Ref": "NN716878", "Xcoord": 271646, "Ycoord": 787832, "Latitude": 56.963832, "Longitude": -4.1126, "Viewable": 672.97 }, "geometry": { "type": "Point", "coordinates": [ -4.112607676588073, 56.963843983786262 ] } },
{ "type": "Feature", "properties": { "Number": 389, "Name": "Carn na Caim", "Classifica": "Ma,M,Mur", "Metres": 941.0, "Feet": 3087, "Grid Ref": "NN677821", "Xcoord": 267701, "Ycoord": 782150, "Latitude": 56.911712, "Longitude": -4.17446, "Viewable": 417.55 }, "geometry": { "type": "Point", "coordinates": [ -4.174465370868574, 56.911725517432373 ] } },
{ "type": "Feature", "properties": { "Number": 390, "Name": "A'Bhuidheanach Bheag", "Classifica": "Hu,M,Mur", "Metres": 936.0, "Feet": 3071, "Grid Ref": "NN660776", "Xcoord": 266069, "Ycoord": 777601, "Latitude": 56.870407, "Longitude": -4.19884, "Viewable": 427.06 }, "geometry": { "type": "Point", "coordinates": [ -4.198845463349222, 56.870421291907455 ] } },
{ "type": "Feature", "properties": { "Number": 392, "Name": "Geal-charn", "Classifica": "Ma,M,Mur", "Metres": 917.1, "Feet": 3009, "Grid Ref": "NN596782", "Xcoord": 259644, "Ycoord": 778261, "Latitude": 56.874434, "Longitude": -4.304511, "Viewable": 262.07 }, "geometry": { "type": "Point", "coordinates": [ -4.30452180119771, 56.8744464316784 ] } },
{ "type": "Feature", "properties": { "Number": 406, "Name": "Beinn Dearg", "Classifica": "Ma,M,Mur", "Metres": 1008.0, "Feet": 3307, "Grid Ref": "NN852777", "Xcoord": 285290, "Ycoord": 777785, "Latitude": 56.87721, "Longitude": -3.88381, "Viewable": 737.51 }, "geometry": { "type": "Point", "coordinates": [ -3.88380534041963, 56.877224771395241 ] } },
{ "type": "Feature", "properties": { "Number": 407, "Name": "An Sgarsoch", "Classifica": "Ma,M,Mur", "Metres": 1006.0, "Feet": 3301, "Grid Ref": "NN933836", "Xcoord": 293333, "Ycoord": 783666, "Latitude": 56.931937, "Longitude": -3.754384, "Viewable": 557.75 }, "geometry": { "type": "Point", "coordinates": [ -3.75438221530339, 56.931951034660415 ] } },
{ "type": "Feature", "properties": { "Number": 408, "Name": "Carn an Fhidhleir [Carn Ealar]", "Classifica": "Ma,M,Mur", "Metres": 994.0, "Feet": 3261, "Grid Ref": "NN904841", "Xcoord": 290470, "Ycoord": 784186, "Latitude": 56.935938, "Longitude": -3.801629, "Viewable": 549.26 }, "geometry": { "type": "Point", "coordinates": [ -3.801626261865756, 56.93595125911412 ] } },
{ "type": "Feature", "properties": { "Number": 409, "Name": "Carn a'Chlamain", "Classifica": "Ma,M,Mur", "Metres": 963.0, "Feet": 3159, "Grid Ref": "NN915758", "Xcoord": 291590, "Ycoord": 775807, "Latitude": 56.860965, "Longitude": -3.779651, "Viewable": 736.46 }, "geometry": { "type": "Point", "coordinates": [ -3.779647869429781, 56.860979812633659 ] } },
{ "type": "Feature", "properties": { "Number": 421, "Name": "Beinn a'Ghlo - Carn nan Gabhar", "Classifica": "Ma,M,Mur", "Metres": 1121.0, "Feet": 3678, "Grid Ref": "NN971733", "Xcoord": 297118, "Ycoord": 773314, "Latitude": 56.839837, "Longitude": -3.688022, "Viewable": 3436.57 }, "geometry": { "type": "Point", "coordinates": [ -3.688020790055512, 56.839852557144795 ] } },
{ "type": "Feature", "properties": { "Number": 425, "Name": "Beinn Iutharn Mhor", "Classifica": "Ma,M,Mur", "Metres": 1045.0, "Feet": 3428, "Grid Ref": "NO045792", "Xcoord": 304566, "Ycoord": 779280, "Latitude": 56.895003, "Longitude": -3.56823, "Viewable": 999.33 }, "geometry": { "type": "Point", "coordinates": [ -3.568231422071947, 56.89501814414416 ] } },
{ "type": "Feature", "properties": { "Number": 426, "Name": "Carn an Righ", "Classifica": "Ma,M,Mur", "Metres": 1029.0, "Feet": 3376, "Grid Ref": "NO028772", "Xcoord": 302871, "Ycoord": 777266, "Latitude": 56.876565, "Longitude": -3.595272, "Viewable": 1126.49 }, "geometry": { "type": "Point", "coordinates": [ -3.595272772876817, 56.876580400801124 ] } },
{ "type": "Feature", "properties": { "Number": 432, "Name": "Carn Bhac", "Classifica": "Ma,M,Mur", "Metres": 946.0, "Feet": 3104, "Grid Ref": "NO051832", "Xcoord": 305098, "Ycoord": 783255, "Latitude": 56.930809, "Longitude": -3.560989, "Viewable": 361.91 }, "geometry": { "type": "Point", "coordinates": [ -3.560991467184193, 56.930822972302352 ] } },
{ "type": "Feature", "properties": { "Number": 433, "Name": "An Socach", "Classifica": "Ma,M,Mur", "Metres": 944.0, "Feet": 3097, "Grid Ref": "NO079799", "Xcoord": 307900, "Ycoord": 779900, "Latitude": 56.901249, "Longitude": -3.513748, "Viewable": 241.22 }, "geometry": { "type": "Point", "coordinates": [ -3.513749058662352, 56.901260643588287 ] } },
{ "type": "Feature", "properties": { "Number": 457, "Name": "Lochnagar - Cac Carn Beag", "Classifica": "Ma,M,Mur", "Metres": 1155.0, "Feet": 3789, "Grid Ref": "NO243861", "Xcoord": 324373, "Ycoord": 786139, "Latitude": 56.960263, "Longitude": -3.245244, "Viewable": 4178.17 }, "geometry": { "type": "Point", "coordinates": [ -3.245236420830211, 56.960277441300491 ] } },
{ "type": "Feature", "properties": { "Number": 459, "Name": "Carn a'Choire Bhoidheach", "Classifica": "M,Mur", "Metres": 1110.0, "Feet": 3642, "Grid Ref": "NO226845", "Xcoord": 322671, "Ycoord": 784557, "Latitude": 56.945773, "Longitude": -3.272724, "Viewable": 3021.53 }, "geometry": { "type": "Point", "coordinates": [ -3.272731923768839, 56.945787663282445 ] } },
{ "type": "Feature", "properties": { "Number": 461, "Name": "Glas Maol", "Classifica": "Ma,M,Mur,CoH,CoU", "Metres": 1068.0, "Feet": 3504, "Grid Ref": "NO166765", "Xcoord": 316699, "Ycoord": 776577, "Latitude": 56.873068, "Longitude": -3.368237, "Viewable": 1654.25 }, "geometry": { "type": "Point", "coordinates": [ -3.368242306779357, 56.873083554161347 ] } },
{ "type": "Feature", "properties": { "Number": 463, "Name": "Cairn of Claise", "Classifica": "Hu,M,Mur", "Metres": 1064.0, "Feet": 3491, "Grid Ref": "NO185788", "Xcoord": 318500, "Ycoord": 778800, "Latitude": 56.893357, "Longitude": -3.339419, "Viewable": 987.85 }, "geometry": { "type": "Point", "coordinates": [ -3.339418824778605, 56.893368274911772 ] } },
{ "type": "Feature", "properties": { "Number": 467, "Name": "Carn an Tuirc", "Classifica": "M,Mur", "Metres": 1019.0, "Feet": 3343, "Grid Ref": "NO174804", "Xcoord": 317400, "Ycoord": 780400, "Latitude": 56.907531, "Longitude": -3.357991, "Viewable": 165.14 }, "geometry": { "type": "Point", "coordinates": [ -3.35799075083474, 56.907542792050556 ] } },
{ "type": "Feature", "properties": { "Number": 468, "Name": "Cairn Bannoch", "Classifica": "M,Mur", "Metres": 1012.0, "Feet": 3320, "Grid Ref": "NO222825", "Xcoord": 322286, "Ycoord": 782554, "Latitude": 56.927719, "Longitude": -3.278435, "Viewable": 556.54 }, "geometry": { "type": "Point", "coordinates": [ -3.278442892067615, 56.927734013195526 ] } },
{ "type": "Feature", "properties": { "Number": 470, "Name": "Broad Cairn", "Classifica": "M,Mur", "Metres": 998.0, "Feet": 3274, "Grid Ref": "NO240815", "Xcoord": 324055, "Ycoord": 781569, "Latitude": 56.919166, "Longitude": -3.249083, "Viewable": 597.62 }, "geometry": { "type": "Point", "coordinates": [ -3.249091009378762, 56.919181335827261 ] } },
{ "type": "Feature", "properties": { "Number": 472, "Name": "Creag Leacach", "Classifica": "M,Mur", "Metres": 987.0, "Feet": 3238, "Grid Ref": "NO154745", "Xcoord": 315467, "Ycoord": 774549, "Latitude": 56.85464, "Longitude": -3.387768, "Viewable": 1466.22 }, "geometry": { "type": "Point", "coordinates": [ -3.387772742848489, 56.854647540038549 ] } },
{ "type": "Feature", "properties": { "Number": 480, "Name": "Tom Buidhe", "Classifica": "M,Mur", "Metres": 957.0, "Feet": 3140, "Grid Ref": "NO213787", "Xcoord": 321367, "Ycoord": 778773, "Latitude": 56.893606, "Longitude": -3.292356, "Viewable": 722.94 }, "geometry": { "type": "Point", "coordinates": [ -3.292363409623434, 56.893621327638492 ] } },
{ "type": "Feature", "properties": { "Number": 486, "Name": "Mayar", "Classifica": "Hu,M,Mur", "Metres": 928.0, "Feet": 3045, "Grid Ref": "NO240737", "Xcoord": 324081, "Ycoord": 773749, "Latitude": 56.848936, "Longitude": -3.246316, "Viewable": 1541.99 }, "geometry": { "type": "Point", "coordinates": [ -3.246323559038592, 56.848952168235172 ] } },
{ "type": "Feature", "properties": { "Number": 518, "Name": "Ben Macdui [Beinn Macduibh]", "Classifica": "Ma,M,Mur,CoH,CoU,CoA", "Metres": 1309.0, "Feet": 4295, "Grid Ref": "NN988989", "Xcoord": 298899, "Ycoord": 798943, "Latitude": 57.070368, "Longitude": -3.669099, "Viewable": 4570.33 }, "geometry": { "type": "Point", "coordinates": [ -3.669099512465734, 57.070379220462421 ] } },
{ "type": "Feature", "properties": { "Number": 519, "Name": "Braeriach", "Classifica": "Ma,M,Mur", "Metres": 1296.0, "Feet": 4252, "Grid Ref": "NN953999", "Xcoord": 295315, "Ycoord": 799901, "Latitude": 57.078169, "Longitude": -3.728581, "Viewable": 3686.65 }, "geometry": { "type": "Point", "coordinates": [ -3.728580783883529, 57.078179977584583 ] } },
{ "type": "Feature", "properties": { "Number": 523, "Name": "Sgor an Lochain Uaine", "Classifica": "Hu,M,Mur", "Metres": 1258.0, "Feet": 4127, "Grid Ref": "NN954976", "Xcoord": 295429, "Ycoord": 797694, "Latitude": 57.058378, "Longitude": -3.725781, "Viewable": 1793.45 }, "geometry": { "type": "Point", "coordinates": [ -3.725780773743956, 57.058389151684217 ] } },
{ "type": "Feature", "properties": { "Number": 525, "Name": "Cairn Gorm", "Classifica": "Hu,M,Mur,sMa", "Metres": 1244.0, "Feet": 4081, "Grid Ref": "NJ005040", "Xcoord": 300519, "Ycoord": 804067, "Latitude": 57.116732, "Longitude": -3.644428, "Viewable": 4038.33 }, "geometry": { "type": "Point", "coordinates": [ -3.644429601408166, 57.116742590420714 ] } },
{ "type": "Feature", "properties": { "Number": 529, "Name": "Beinn a'Bhuird North Top", "Classifica": "Ma,M,Mur", "Metres": 1197.0, "Feet": 3927, "Grid Ref": "NJ092006", "Xcoord": 309231, "Ycoord": 800622, "Latitude": 57.087599, "Longitude": -3.499367, "Viewable": 3264.15 }, "geometry": { "type": "Point", "coordinates": [ -3.499371312370937, 57.087610385062767 ] } },
{ "type": "Feature", "properties": { "Number": 531, "Name": "Beinn Mheadhoin", "Classifica": "Ma,M,Mur", "Metres": 1182.0, "Feet": 3878, "Grid Ref": "NJ024016", "Xcoord": 302458, "Ycoord": 801694, "Latitude": 57.095839, "Longitude": -3.611497, "Viewable": 1344.42 }, "geometry": { "type": "Point", "coordinates": [ -3.611498719165926, 57.09584995725838 ] } },
{ "type": "Feature", "properties": { "Number": 536, "Name": "Ben Avon - Leabaidh an Daimh Bhuidhe", "Classifica": "Ma,M,Mur", "Metres": 1171.0, "Feet": 3842, "Grid Ref": "NJ131018", "Xcoord": 313193, "Ycoord": 801848, "Latitude": 57.099374, "Longitude": -3.434439, "Viewable": 3365.96 }, "geometry": { "type": "Point", "coordinates": [ -3.434445164748285, 57.099385106798351 ] } },
{ "type": "Feature", "properties": { "Number": 538, "Name": "Beinn Bhrotain", "Classifica": "Ma,M,Mur", "Metres": 1157.0, "Feet": 3796, "Grid Ref": "NN954922", "Xcoord": 295412, "Ycoord": 792292, "Latitude": 57.009868, "Longitude": -3.723813, "Viewable": 1633.68 }, "geometry": { "type": "Point", "coordinates": [ -3.723812806956967, 57.00988020568748 ] } },
{ "type": "Feature", "properties": { "Number": 539, "Name": "Derry Cairngorm", "Classifica": "Hu,M,Mur,sMa", "Metres": 1155.0, "Feet": 3789, "Grid Ref": "NO017980", "Xcoord": 301734, "Ycoord": 798032, "Latitude": 57.062801, "Longitude": -3.622004, "Viewable": 1496.44 }, "geometry": { "type": "Point", "coordinates": [ -3.622006225533656, 57.062812871535137 ] } },
{ "type": "Feature", "properties": { "Number": 548, "Name": "Sgor Gaoith", "Classifica": "Ma,M,Mur", "Metres": 1118.0, "Feet": 3668, "Grid Ref": "NN903989", "Xcoord": 290300, "Ycoord": 798960, "Latitude": 57.068552, "Longitude": -3.810856, "Viewable": 341.46 }, "geometry": { "type": "Point", "coordinates": [ -3.810853645886215, 57.06856294466786 ] } },
{ "type": "Feature", "properties": { "Number": 549, "Name": "Monadh Mor", "Classifica": "Hu,M,Mur", "Metres": 1113.0, "Feet": 3652, "Grid Ref": "NN938942", "Xcoord": 293864, "Ycoord": 794216, "Latitude": 57.02679, "Longitude": -3.750102, "Viewable": 1710.43 }, "geometry": { "type": "Point", "coordinates": [ -3.750101030355451, 57.026802294245719 ] } },
{ "type": "Feature", "properties": { "Number": 557, "Name": "Bynack More", "Classifica": "Ma,M,Mur", "Metres": 1090.0, "Feet": 3576, "Grid Ref": "NJ041063", "Xcoord": 304189, "Ycoord": 806330, "Latitude": 57.137833, "Longitude": -3.584716, "Viewable": 1506.4 }, "geometry": { "type": "Point", "coordinates": [ -3.584719420558073, 57.137843413846134 ] } },
{ "type": "Feature", "properties": { "Number": 559, "Name": "Beinn a'Chaorainn", "Classifica": "Ma,M,Mur", "Metres": 1083.0, "Feet": 3553, "Grid Ref": "NJ045013", "Xcoord": 304514, "Ycoord": 801367, "Latitude": 57.093334, "Longitude": -3.577453, "Viewable": 263.79 }, "geometry": { "type": "Point", "coordinates": [ -3.577455844581287, 57.09334516161038 ] } },
{ "type": "Feature", "properties": { "Number": 567, "Name": "Carn a'Mhaim", "Classifica": "Ma,M,Mur", "Metres": 1037.0, "Feet": 3402, "Grid Ref": "NN994951", "Xcoord": 299458, "Ycoord": 795147, "Latitude": 57.036404, "Longitude": -3.658363, "Viewable": 282.34 }, "geometry": { "type": "Point", "coordinates": [ -3.658363655517496, 57.036415959793985 ] } },
{ "type": "Feature", "properties": { "Number": 571, "Name": "Mullach Clach a'Bhlair", "Classifica": "Hu,M,Mur", "Metres": 1019.0, "Feet": 3343, "Grid Ref": "NN882927", "Xcoord": 288285, "Ycoord": 792701, "Latitude": 57.01187, "Longitude": -3.841287, "Viewable": 678.2 }, "geometry": { "type": "Point", "coordinates": [ -3.841283450325847, 57.011881869137305 ] } },
{ "type": "Feature", "properties": { "Number": 575, "Name": "The Devil's Point", "Classifica": "M,Mur", "Metres": 1004.0, "Feet": 3294, "Grid Ref": "NN976951", "Xcoord": 297610, "Ycoord": 795116, "Latitude": 57.035719, "Longitude": -3.688787, "Viewable": 138.94 }, "geometry": { "type": "Point", "coordinates": [ -3.688787517148704, 57.035730755214139 ] } },
{ "type": "Feature", "properties": { "Number": 587, "Name": "Beinn Bhreac", "Classifica": "M,Mur", "Metres": 931.0, "Feet": 3054, "Grid Ref": "NO058970", "Xcoord": 305869, "Ycoord": 797074, "Latitude": 57.055063, "Longitude": -3.553488, "Viewable": 211.88 }, "geometry": { "type": "Point", "coordinates": [ -3.553491066496706, 57.055074226353696 ] } },
{ "type": "Feature", "properties": { "Number": 621, "Name": "Carn Dearg", "Classifica": "Ma,M,Mur", "Metres": 945.0, "Feet": 3100, "Grid Ref": "NH635024", "Xcoord": 263569, "Ycoord": 802399, "Latitude": 57.09227, "Longitude": -4.25323, "Viewable": 408.7 }, "geometry": { "type": "Point", "coordinates": [ -4.253235872154809, 57.092288130695664 ] } },
{ "type": "Feature", "properties": { "Number": 623, "Name": "A'Chailleach", "Classifica": "Hu,M,Mur", "Metres": 930.0, "Feet": 3051, "Grid Ref": "NH681041", "Xcoord": 268109, "Ycoord": 804177, "Latitude": 57.109554, "Longitude": -4.179301, "Viewable": 511.57 }, "geometry": { "type": "Point", "coordinates": [ -4.179309096305816, 57.109572461021109 ] } },
{ "type": "Feature", "properties": { "Number": 624, "Name": "Geal Charn", "Classifica": "Hu,M,Mur", "Metres": 926.0, "Feet": 3038, "Grid Ref": "NN561987", "Xcoord": 256143, "Ycoord": 798769, "Latitude": 57.057427, "Longitude": -4.373589, "Viewable": 744.72 }, "geometry": { "type": "Point", "coordinates": [ -4.373592477792414, 57.057445526872527 ] } },
{ "type": "Feature", "properties": { "Number": 626, "Name": "Carn Sgulain", "Classifica": "M,Mur", "Metres": 920.0, "Feet": 3018, "Grid Ref": "NH682058", "Xcoord": 268299, "Ycoord": 805814, "Latitude": 57.124304, "Longitude": -4.177029, "Viewable": 751.7 }, "geometry": { "type": "Point", "coordinates": [ -4.177036814437611, 57.124321566980129 ] } },
{ "type": "Feature", "properties": { "Number": 658, "Name": "Creag Meagaidh", "Classifica": "Ma,M,Mur", "Metres": 1128.0, "Feet": 3701, "Grid Ref": "NN418875", "Xcoord": 241840, "Ycoord": 787549, "Latitude": 56.952051, "Longitude": -4.602102, "Viewable": 1986.23 }, "geometry": { "type": "Point", "coordinates": [ -4.602116508723091, 56.952070584197493 ] } },
{ "type": "Feature", "properties": { "Number": 662, "Name": "Stob Poite Coire Ardair", "Classifica": "Hu,M,Mur", "Metres": 1054.0, "Feet": 3458, "Grid Ref": "NN428888", "Xcoord": 242800, "Ycoord": 788800, "Latitude": 56.963609, "Longitude": -4.58712, "Viewable": 136.16 }, "geometry": { "type": "Point", "coordinates": [ -4.587128639432613, 56.963624433276401 ] } },
{ "type": "Feature", "properties": { "Number": 663, "Name": "Beinn a'Chaorainn", "Classifica": "Ma,M,Mur", "Metres": 1052.0, "Feet": 3451, "Grid Ref": "NN386850", "Xcoord": 238606, "Ycoord": 785062, "Latitude": 56.928625, "Longitude": -4.653627, "Viewable": 154.92 }, "geometry": { "type": "Point", "coordinates": [ -4.65363965782816, 56.928636139923711 ] } },
{ "type": "Feature", "properties": { "Number": 668, "Name": "Carn Liath", "Classifica": "M,Mur", "Metres": 1006.0, "Feet": 3301, "Grid Ref": "NN472903", "Xcoord": 247200, "Ycoord": 790300, "Latitude": 56.978546, "Longitude": -4.515741, "Viewable": 389.74 }, "geometry": { "type": "Point", "coordinates": [ -4.515749107151332, 56.978561325611771 ] } },
{ "type": "Feature", "properties": { "Number": 683, "Name": "Gleouraich", "Classifica": "Ma,M,Mur", "Metres": 1035.0, "Feet": 3396, "Grid Ref": "NH039053", "Xcoord": 203944, "Ycoord": 805344, "Latitude": 57.097154, "Longitude": -5.238051, "Viewable": 782.44 }, "geometry": { "type": "Point", "coordinates": [ -5.23805329423944, 57.097169590440942 ] } },
{ "type": "Feature", "properties": { "Number": 684, "Name": "Sgurr a'Mhaoraich", "Classifica": "Ma,M,Mur", "Metres": 1027.0, "Feet": 3369, "Grid Ref": "NG983065", "Xcoord": 198392, "Ycoord": 806549, "Latitude": 57.105562, "Longitude": -5.330483, "Viewable": 745.69 }, "geometry": { "type": "Point", "coordinates": [ -5.330500235468167, 57.105577138489807 ] } },
{ "type": "Feature", "properties": { "Number": 685, "Name": "Aonach air Chrith", "Classifica": "Ma,M,Mur", "Metres": 1021.0, "Feet": 3350, "Grid Ref": "NH051083", "Xcoord": 205107, "Ycoord": 808345, "Latitude": 57.124564, "Longitude": -5.221224, "Viewable": 445.47 }, "geometry": { "type": "Point", "coordinates": [ -5.221226714062365, 57.124579193134139 ] } },
{ "type": "Feature", "properties": { "Number": 687, "Name": "Sgurr an Doire Leathain", "Classifica": "Ma,M,Mur", "Metres": 1010.0, "Feet": 3314, "Grid Ref": "NH015098", "Xcoord": 201524, "Ycoord": 809888, "Latitude": 57.136861, "Longitude": -5.28153, "Viewable": 193.85 }, "geometry": { "type": "Point", "coordinates": [ -5.281533107642182, 57.136884301410014 ] } },
{ "type": "Feature", "properties": { "Number": 688, "Name": "The Saddle", "Classifica": "Ma,M,Mur", "Metres": 1010.0, "Feet": 3314, "Grid Ref": "NG936131", "Xcoord": 193611, "Ycoord": 813122, "Latitude": 57.162375, "Longitude": -5.414697, "Viewable": 575.44 }, "geometry": { "type": "Point", "coordinates": [ -5.414713543894793, 57.162397895829351 ] } },
{ "type": "Feature", "properties": { "Number": 690, "Name": "Sgurr an Lochain", "Classifica": "Hu,M,Mur", "Metres": 1004.0, "Feet": 3294, "Grid Ref": "NH005104", "Xcoord": 200580, "Ycoord": 810421, "Latitude": 57.141232, "Longitude": -5.297527, "Viewable": 628.6 }, "geometry": { "type": "Point", "coordinates": [ -5.29752930314419, 57.141255588766676 ] } },
{ "type": "Feature", "properties": { "Number": 691, "Name": "Spidean Mialach", "Classifica": "Ma,M,Mur", "Metres": 996.0, "Feet": 3268, "Grid Ref": "NH065043", "Xcoord": 206591, "Ycoord": 804307, "Latitude": 57.088973, "Longitude": -5.193631, "Viewable": 751.29 }, "geometry": { "type": "Point", "coordinates": [ -5.193634747772929, 57.088988785001312 ] } },
{ "type": "Feature", "properties": { "Number": 692, "Name": "Druim Shionnach", "Classifica": "Hu,M,Mur", "Metres": 987.0, "Feet": 3238, "Grid Ref": "NH074084", "Xcoord": 207440, "Ycoord": 808483, "Latitude": 57.126785, "Longitude": -5.182857, "Viewable": 543.56 }, "geometry": { "type": "Point", "coordinates": [ -5.182860362688416, 57.12680015973276 ] } },
{ "type": "Feature", "properties": { "Number": 693, "Name": "Maol Chinn-dearg", "Classifica": "Hu,M,Mur", "Metres": 981.0, "Feet": 3219, "Grid Ref": "NH032087", "Xcoord": 203221, "Ycoord": 808766, "Latitude": 57.127537, "Longitude": -5.252655, "Viewable": 417.67 }, "geometry": { "type": "Point", "coordinates": [ -5.252657604725616, 57.127551502326554 ] } },
{ "type": "Feature", "properties": { "Number": 695, "Name": "Beinn Sgritheall", "Classifica": "Ma,M,Mur", "Metres": 974.0, "Feet": 3196, "Grid Ref": "NG835126", "Xcoord": 183590, "Ycoord": 812677, "Latitude": 57.153772, "Longitude": -5.579673, "Viewable": 651.73 }, "geometry": { "type": "Point", "coordinates": [ -5.579686501272197, 57.153794087152811 ] } },
{ "type": "Feature", "properties": { "Number": 700, "Name": "Creag a'Mhaim", "Classifica": "M,Mur", "Metres": 947.0, "Feet": 3107, "Grid Ref": "NH087077", "Xcoord": 208790, "Ycoord": 807771, "Latitude": 57.120962, "Longitude": -5.160047, "Viewable": 596.92 }, "geometry": { "type": "Point", "coordinates": [ -5.160051627464256, 57.120977554519065 ] } },
{ "type": "Feature", "properties": { "Number": 701, "Name": "Sgurr na Sgine", "Classifica": "Ma,M,Mur", "Metres": 946.0, "Feet": 3104, "Grid Ref": "NG946113", "Xcoord": 194617, "Ycoord": 811368, "Latitude": 57.147098, "Longitude": -5.39665, "Viewable": 102.14 }, "geometry": { "type": "Point", "coordinates": [ -5.396666966178255, 57.147120621384502 ] } },
{ "type": "Feature", "properties": { "Number": 730, "Name": "Sgurr na Ciche", "Classifica": "Ma,M,Mur", "Metres": 1040.0, "Feet": 3412, "Grid Ref": "NM902966", "Xcoord": 190223, "Ycoord": 796684, "Latitude": 57.013452, "Longitude": -5.456854, "Viewable": 784.54 }, "geometry": { "type": "Point", "coordinates": [ -5.456867943712037, 57.013468069171836 ] } },
{ "type": "Feature", "properties": { "Number": 732, "Name": "Garbh Chioch Mhor", "Classifica": "Ma,M,Mur", "Metres": 1013.0, "Feet": 3323, "Grid Ref": "NM909961", "Xcoord": 190956, "Ycoord": 796099, "Latitude": 57.008538, "Longitude": -5.44432, "Viewable": 668.34 }, "geometry": { "type": "Point", "coordinates": [ -5.444334042425736, 57.008554876811409 ] } },
{ "type": "Feature", "properties": { "Number": 737, "Name": "Meall Buidhe", "Classifica": "Ma,M,Mur", "Metres": 946.0, "Feet": 3104, "Grid Ref": "NM849989", "Xcoord": 184901, "Ycoord": 798977, "Latitude": 57.031553, "Longitude": -5.546285, "Viewable": 1011.9 }, "geometry": { "type": "Point", "coordinates": [ -5.546297750605468, 57.031578343192763 ] } },
{ "type": "Feature", "properties": { "Number": 773, "Name": "Gulvain [Gaor Bheinn]", "Classifica": "Ma,M,Mur", "Metres": 987.0, "Feet": 3238, "Grid Ref": "NN002875", "Xcoord": 200267, "Ycoord": 787572, "Latitude": 56.936184, "Longitude": -5.284525, "Viewable": 866.62 }, "geometry": { "type": "Point", "coordinates": [ -5.284541540899108, 56.93620256284256 ] } },
{ "type": "Feature", "properties": { "Number": 774, "Name": "Sgurr Thuilm", "Classifica": "Ma,M,Mur", "Metres": 963.0, "Feet": 3159, "Grid Ref": "NM939879", "Xcoord": 193904, "Ycoord": 787980, "Latitude": 56.937055, "Longitude": -5.38924, "Viewable": 637.61 }, "geometry": { "type": "Point", "coordinates": [ -5.389254862406088, 56.937072930374448 ] } },
{ "type": "Feature", "properties": { "Number": 776, "Name": "Sgurr nan Coireachan", "Classifica": "Ma,M,Mur", "Metres": 956.0, "Feet": 3136, "Grid Ref": "NM902880", "Xcoord": 190289, "Ycoord": 788013, "Latitude": 56.935728, "Longitude": -5.448568, "Viewable": 804.3 }, "geometry": { "type": "Point", "coordinates": [ -5.448581354506793, 56.935745677922213 ] } },
{ "type": "Feature", "properties": { "Number": 803, "Name": "Carn Eige [Carn Eighe]", "Classifica": "Ma,M,Mur,CoH", "Metres": 1183.0, "Feet": 3881, "Grid Ref": "NH123261", "Xcoord": 212357, "Ycoord": 826197, "Latitude": 57.287702, "Longitude": -5.115126, "Viewable": 2895.56 }, "geometry": { "type": "Point", "coordinates": [ -5.115133233590298, 57.28772302799166 ] } },
{ "type": "Feature", "properties": { "Number": 804, "Name": "Mam Sodhail", "Classifica": "Hu,M,Mur", "Metres": 1181.0, "Feet": 3875, "Grid Ref": "NH119253", "Xcoord": 211962, "Ycoord": 825351, "Latitude": 57.279951, "Longitude": -5.121026, "Viewable": 3011.5 }, "geometry": { "type": "Point", "coordinates": [ -5.121033309424234, 57.279972431026664 ] } },
{ "type": "Feature", "properties": { "Number": 805, "Name": "Sgurr nan Ceathreamhnan", "Classifica": "Ma,M,Mur", "Metres": 1151.0, "Feet": 3776, "Grid Ref": "NH057228", "Xcoord": 205702, "Ycoord": 822850, "Latitude": 57.254902, "Longitude": -5.222731, "Viewable": 1704.29 }, "geometry": { "type": "Point", "coordinates": [ -5.222735447767367, 57.254923228088394 ] } },
{ "type": "Feature", "properties": { "Number": 810, "Name": "Tom a'Choinich", "Classifica": "Hu,M,Mur,sMa", "Metres": 1112.0, "Feet": 3648, "Grid Ref": "NH164273", "Xcoord": 216403, "Ycoord": 827335, "Latitude": 57.299554, "Longitude": -5.048945, "Viewable": 1682.74 }, "geometry": { "type": "Point", "coordinates": [ -5.048953904304225, 57.299575067005392 ] } },
{ "type": "Feature", "properties": { "Number": 815, "Name": "Sgurr Fhuaran", "Classifica": "Ma,M,Mur", "Metres": 1067.0, "Feet": 3501, "Grid Ref": "NG978166", "Xcoord": 197847, "Ycoord": 816679, "Latitude": 57.196158, "Longitude": -5.347684, "Viewable": 578.1 }, "geometry": { "type": "Point", "coordinates": [ -5.347685883393633, 57.1961807850534 ] } },
{ "type": "Feature", "properties": { "Number": 818, "Name": "Toll Creagach", "Classifica": "Ma,M,Mur", "Metres": 1054.0, "Feet": 3458, "Grid Ref": "NH194282", "Xcoord": 219401, "Ycoord": 828280, "Latitude": 57.309227, "Longitude": -4.999953, "Viewable": 1278.57 }, "geometry": { "type": "Point", "coordinates": [ -4.99996269918986, 57.309247837009487 ] } },
{ "type": "Feature", "properties": { "Number": 825, "Name": "Sgurr na Ciste Duibhe", "Classifica": "Ma,M,Mur", "Metres": 1027.0, "Feet": 3369, "Grid Ref": "NG984149", "Xcoord": 198398, "Ycoord": 814952, "Latitude": 57.180914, "Longitude": -5.337167, "Viewable": 697.45 }, "geometry": { "type": "Point", "coordinates": [ -5.337185016470358, 57.18093619951275 ] } },
{ "type": "Feature", "properties": { "Number": 827, "Name": "Sgurr na Carnach", "Classifica": "Hu,M,Mur", "Metres": 1002.0, "Feet": 3287, "Grid Ref": "NG977158", "Xcoord": 197714, "Ycoord": 815890, "Latitude": 57.189024, "Longitude": -5.34924, "Viewable": 126.99 }, "geometry": { "type": "Point", "coordinates": [ -5.349241856687399, 57.189046695346953 ] } },
{ "type": "Feature", "properties": { "Number": 828, "Name": "Aonach Meadhoin", "Classifica": "Ma,M,Mur", "Metres": 1001.0, "Feet": 3284, "Grid Ref": "NH048137", "Xcoord": 204885, "Ycoord": 813766, "Latitude": 57.173082, "Longitude": -5.229121, "Viewable": 409.02 }, "geometry": { "type": "Point", "coordinates": [ -5.229124703663191, 57.173104622020162 ] } },
{ "type": "Feature", "properties": { "Number": 845, "Name": "An Socach", "Classifica": "Hu,M,Mur", "Metres": 921.0, "Feet": 3022, "Grid Ref": "NH088230", "Xcoord": 208817, "Ycoord": 822998, "Latitude": 57.257542, "Longitude": -5.171294, "Viewable": 114.43 }, "geometry": { "type": "Point", "coordinates": [ -5.171299571326306, 57.257563279021575 ] } },
{ "type": "Feature", "properties": { "Number": 846, "Name": "A'Ghlas-bheinn", "Classifica": "Ma,M,Mur", "Metres": 918.0, "Feet": 3012, "Grid Ref": "NH008231", "Xcoord": 200823, "Ycoord": 823104, "Latitude": 57.255081, "Longitude": -5.30367, "Viewable": 213.34 }, "geometry": { "type": "Point", "coordinates": [ -5.303672923461921, 57.25510267510996 ] } },
{ "type": "Feature", "properties": { "Number": 862, "Name": "A'Chralaig", "Classifica": "Ma,M,Mur", "Metres": 1120.0, "Feet": 3675, "Grid Ref": "NH094148", "Xcoord": 209428, "Ycoord": 814798, "Latitude": 57.184247, "Longitude": -5.154892, "Viewable": 2466.1 }, "geometry": { "type": "Point", "coordinates": [ -5.154897389436341, 57.184270428988732 ] } },
{ "type": "Feature", "properties": { "Number": 863, "Name": "Sgurr nan Conbhairean", "Classifica": "Ma,M,Mur", "Metres": 1109.0, "Feet": 3638, "Grid Ref": "NH129138", "Xcoord": 212987, "Ycoord": 813895, "Latitude": 57.177613, "Longitude": -5.095423, "Viewable": 2040.27 }, "geometry": { "type": "Point", "coordinates": [ -5.095429910164079, 57.177635755371234 ] } },
{ "type": "Feature", "properties": { "Number": 864, "Name": "Mullach Fraoch-choire", "Classifica": "Ma,M,Mur", "Metres": 1102.0, "Feet": 3615, "Grid Ref": "NH094171", "Xcoord": 209489, "Ycoord": 817160, "Latitude": 57.205459, "Longitude": -5.155692, "Viewable": 912.72 }, "geometry": { "type": "Point", "coordinates": [ -5.155697925863062, 57.20548129632396 ] } },
{ "type": "Feature", "properties": { "Number": 867, "Name": "Sail Chaorainn [Sail Chaoruinn]", "Classifica": "M,Mur", "Metres": 1002.0, "Feet": 3287, "Grid Ref": "NH133154", "Xcoord": 213320, "Ycoord": 815462, "Latitude": 57.191804, "Longitude": -5.091098, "Viewable": 620.41 }, "geometry": { "type": "Point", "coordinates": [ -5.091104825833557, 57.191827190307038 ] } },
{ "type": "Feature", "properties": { "Number": 871, "Name": "Carn Ghluasaid", "Classifica": "M,Mur", "Metres": 957.0, "Feet": 3140, "Grid Ref": "NH145125", "Xcoord": 214575, "Ycoord": 812522, "Latitude": 57.16595, "Longitude": -5.068174, "Viewable": 762.16 }, "geometry": { "type": "Point", "coordinates": [ -5.068180892739016, 57.165964472433288 ] } },
{ "type": "Feature", "properties": { "Number": 884, "Name": "Sgurr a'Choire Ghlais", "Classifica": "Ma,M,Mur", "Metres": 1083.0, "Feet": 3553, "Grid Ref": "NH258430", "Xcoord": 225882, "Ycoord": 843016, "Latitude": 57.443947, "Longitude": -4.902963, "Viewable": 2122.31 }, "geometry": { "type": "Point", "coordinates": [ -4.902958898057218, 57.443965771145983 ] } },
{ "type": "Feature", "properties": { "Number": 885, "Name": "Sgurr a'Chaorachain", "Classifica": "Ma,M,Mur", "Metres": 1053.0, "Feet": 3455, "Grid Ref": "NH087447", "Xcoord": 208749, "Ycoord": 844737, "Latitude": 57.452492, "Longitude": -5.1893, "Viewable": 987.99 }, "geometry": { "type": "Point", "coordinates": [ -5.189306953608693, 57.452508903221116 ] } },
{ "type": "Feature", "properties": { "Number": 886, "Name": "Sgurr Fhuar-thuill", "Classifica": "Hu,M,Mur,sMa", "Metres": 1049.0, "Feet": 3442, "Grid Ref": "NH235437", "Xcoord": 223580, "Ycoord": 843754, "Latitude": 57.44968, "Longitude": -4.94178, "Viewable": 1640.2 }, "geometry": { "type": "Point", "coordinates": [ -4.941791476472146, 57.449697611129437 ] } },
{ "type": "Feature", "properties": { "Number": 890, "Name": "Maoile Lunndaidh", "Classifica": "Ma,M,Mur", "Metres": 1005.0, "Feet": 3297, "Grid Ref": "NH135458", "Xcoord": 213518, "Ycoord": 845867, "Latitude": 57.464611, "Longitude": -5.110808, "Viewable": 794.99 }, "geometry": { "type": "Point", "coordinates": [ -5.110816984798627, 57.464628440928188 ] } },
{ "type": "Feature", "properties": { "Number": 894, "Name": "Sgurr na Ruaidhe", "Classifica": "Ma,M,Mur", "Metres": 993.0, "Feet": 3258, "Grid Ref": "NH289426", "Xcoord": 228900, "Ycoord": 842614, "Latitude": 57.441488, "Longitude": -4.852464, "Viewable": 1705.41 }, "geometry": { "type": "Point", "coordinates": [ -4.852461095128953, 57.441506570677539 ] } },
{ "type": "Feature", "properties": { "Number": 895, "Name": "Carn nan Gobhar", "Classifica": "Hu,M,Mur", "Metres": 992.0, "Feet": 3255, "Grid Ref": "NH273438", "Xcoord": 227303, "Ycoord": 843890, "Latitude": 57.452331, "Longitude": -4.879935, "Viewable": 2461.46 }, "geometry": { "type": "Point", "coordinates": [ -4.879931902065454, 57.452349317361076 ] } },
{ "type": "Feature", "properties": { "Number": 899, "Name": "Moruisg", "Classifica": "Ma,M,Mur", "Metres": 928.0, "Feet": 3045, "Grid Ref": "NH101499", "Xcoord": 210113, "Ycoord": 849938, "Latitude": 57.499703, "Longitude": -5.170646, "Viewable": 504.86 }, "geometry": { "type": "Point", "coordinates": [ -5.170654627569195, 57.499728199126288 ] } },
{ "type": "Feature", "properties": { "Number": 926, "Name": "Sgurr na Lapaich", "Classifica": "Ma,M,Mur", "Metres": 1150.0, "Feet": 3773, "Grid Ref": "NH160351", "Xcoord": 216102, "Ycoord": 835126, "Latitude": 57.369319, "Longitude": -5.059743, "Viewable": 2551.19 }, "geometry": { "type": "Point", "coordinates": [ -5.05975181485052, 57.369338804802695 ] } },
{ "type": "Feature", "properties": { "Number": 927, "Name": "An Riabhachan", "Classifica": "Ma,M,Mur", "Metres": 1129.0, "Feet": 3704, "Grid Ref": "NH133344", "Xcoord": 213363, "Ycoord": 834483, "Latitude": 57.362438, "Longitude": -5.104728, "Viewable": 1005.62 }, "geometry": { "type": "Point", "coordinates": [ -5.104736295532149, 57.362457125191391 ] } },
{ "type": "Feature", "properties": { "Number": 931, "Name": "An Socach", "Classifica": "Ma,M,Mur", "Metres": 1069.0, "Feet": 3507, "Grid Ref": "NH100332", "Xcoord": 210061, "Ycoord": 833274, "Latitude": 57.350229, "Longitude": -5.158603, "Viewable": 265.51 }, "geometry": { "type": "Point", "coordinates": [ -5.158609670850295, 57.35024870196326 ] } },
{ "type": "Feature", "properties": { "Number": 936, "Name": "Carn nan Gobhar", "Classifica": "Ma,M,Mur", "Metres": 993.0, "Feet": 3258, "Grid Ref": "NH181343", "Xcoord": 218188, "Ycoord": 834362, "Latitude": 57.363304, "Longitude": -5.024544, "Viewable": 1464.98 }, "geometry": { "type": "Point", "coordinates": [ -5.024553927647769, 57.363323225569012 ] } },
{ "type": "Feature", "properties": { "Number": 954, "Name": "Liathach - Mullach an Rathain", "Classifica": "Ma,M,Mur", "Metres": 1023.0, "Feet": 3356, "Grid Ref": "NG911576", "Xcoord": 191184, "Ycoord": 857691, "Latitude": 57.560891, "Longitude": -5.492566, "Viewable": 885.96 }, "geometry": { "type": "Point", "coordinates": [ -5.492568707951095, 57.560914304330034 ] } },
{ "type": "Feature", "properties": { "Number": 955, "Name": "Beinn Eighe - Ruadh-stac Mor", "Classifica": "Ma,M,Mur", "Metres": 1010.0, "Feet": 3314, "Grid Ref": "NG951611", "Xcoord": 195142, "Ycoord": 861151, "Latitude": 57.593726, "Longitude": -5.429453, "Viewable": 1029.43 }, "geometry": { "type": "Point", "coordinates": [ -5.4294570723097, 57.593748493508556 ] } },
{ "type": "Feature", "properties": { "Number": 957, "Name": "Beinn Alligin - Sgurr Mhor", "Classifica": "Ma,M,Mur", "Metres": 986.0, "Feet": 3235, "Grid Ref": "NG865612", "Xcoord": 186564, "Ycoord": 861270, "Latitude": 57.59082, "Longitude": -5.572781, "Viewable": 1225.83 }, "geometry": { "type": "Point", "coordinates": [ -5.572781393536327, 57.590842581938659 ] } },
{ "type": "Feature", "properties": { "Number": 968, "Name": "Beinn Alligin - Tom na Gruagaich", "Classifica": "Ma,M,Mur", "Metres": 922.0, "Feet": 3025, "Grid Ref": "NG859601", "Xcoord": 185958, "Ycoord": 860154, "Latitude": 57.580528, "Longitude": -5.581913, "Viewable": 1035.89 }, "geometry": { "type": "Point", "coordinates": [ -5.581913522095197, 57.580551049068475 ] } },
{ "type": "Feature", "properties": { "Number": 983, "Name": "Beinn Liath Mhor", "Classifica": "Ma,M,Mur", "Metres": 926.0, "Feet": 3038, "Grid Ref": "NG964519", "Xcoord": 196408, "Ycoord": 851980, "Latitude": 57.512064, "Longitude": -5.400633, "Viewable": 162.63 }, "geometry": { "type": "Point", "coordinates": [ -5.400636295699175, 57.512088747963865 ] } },
{ "type": "Feature", "properties": { "Number": 1003, "Name": "An Teallach - Bidein a'Ghlas Thuill", "Classifica": "Ma,M,Mur", "Metres": 1062.0, "Feet": 3484, "Grid Ref": "NH069843", "Xcoord": 206899, "Ycoord": 884372, "Latitude": 57.807153, "Longitude": -5.251721, "Viewable": 1629.76 }, "geometry": { "type": "Point", "coordinates": [ -5.251730197609828, 57.807171838301372 ] } },
{ "type": "Feature", "properties": { "Number": 1004, "Name": "An Teallach - Sgurr Fiona", "Classifica": "Hu,M,Mur,sMa", "Metres": 1060.0, "Feet": 3478, "Grid Ref": "NH064836", "Xcoord": 206407, "Ycoord": 883678, "Latitude": 57.800717, "Longitude": -5.259425, "Viewable": 399.64 }, "geometry": { "type": "Point", "coordinates": [ -5.259433755465578, 57.80073595909947 ] } },
{ "type": "Feature", "properties": { "Number": 1007, "Name": "Mullach Coire Mhic Fhearchair", "Classifica": "Ma,M,Mur", "Metres": 1018.0, "Feet": 3340, "Grid Ref": "NH052735", "Xcoord": 205202, "Ycoord": 873506, "Latitude": 57.708976, "Longitude": -5.271405, "Viewable": 1072.93 }, "geometry": { "type": "Point", "coordinates": [ -5.271413220520044, 57.708996630453591 ] } },
{ "type": "Feature", "properties": { "Number": 1009, "Name": "Sgurr Ban", "Classifica": "Ma,M,Mur", "Metres": 989.0, "Feet": 3245, "Grid Ref": "NH055745", "Xcoord": 205579, "Ycoord": 874553, "Latitude": 57.718528, "Longitude": -5.265935, "Viewable": 1161.73 }, "geometry": { "type": "Point", "coordinates": [ -5.265943204964962, 57.718548920403421 ] } },
{ "type": "Feature", "properties": { "Number": 1014, "Name": "A'Mhaighdean", "Classifica": "Ma,M,Mur", "Metres": 967.0, "Feet": 3173, "Grid Ref": "NH007749", "Xcoord": 200773, "Ycoord": 874917, "Latitude": 57.719688, "Longitude": -5.346774, "Viewable": 1137.96 }, "geometry": { "type": "Point", "coordinates": [ -5.346780781494364, 57.719707900285158 ] } },
{ "type": "Feature", "properties": { "Number": 1019, "Name": "Beinn Tarsuinn", "Classifica": "Ma,M,Mur", "Metres": 937.0, "Feet": 3074, "Grid Ref": "NH039728", "Xcoord": 203962, "Ycoord": 872800, "Latitude": 57.702106, "Longitude": -5.291605, "Viewable": 771.65 }, "geometry": { "type": "Point", "coordinates": [ -5.291612790443371, 57.702126617737107 ] } },
{ "type": "Feature", "properties": { "Number": 1023, "Name": "Ruadh Stac Mor", "Classifica": "Ma,M,Mur", "Metres": 918.7, "Feet": 3014, "Grid Ref": "NH018756", "Xcoord": 201853, "Ycoord": 875655, "Latitude": 57.726783, "Longitude": -5.329288, "Viewable": 797.71 }, "geometry": { "type": "Point", "coordinates": [ -5.329290492984533, 57.726803097811434 ] } },
{ "type": "Feature", "properties": { "Number": 1040, "Name": "Sgurr Mor", "Classifica": "Ma,M,Mur", "Metres": 1108.0, "Feet": 3635, "Grid Ref": "NH203718", "Xcoord": 220323, "Ycoord": 871817, "Latitude": 57.700124, "Longitude": -5.016764, "Viewable": 1047.37 }, "geometry": { "type": "Point", "coordinates": [ -5.016760485603925, 57.700146021255712 ] } },
{ "type": "Feature", "properties": { "Number": 1041, "Name": "Sgurr nan Clach Geala", "Classifica": "Ma,M,Mur", "Metres": 1093.0, "Feet": 3586, "Grid Ref": "NH184714", "Xcoord": 218428, "Ycoord": 871474, "Latitude": 57.696287, "Longitude": -5.048238, "Viewable": 1006.71 }, "geometry": { "type": "Point", "coordinates": [ -5.04824994433955, 57.696308253293921 ] } },
{ "type": "Feature", "properties": { "Number": 1042, "Name": "Sgurr Breac", "Classifica": "Ma,M,Mur", "Metres": 999.0, "Feet": 3278, "Grid Ref": "NH158711", "Xcoord": 215816, "Ycoord": 871121, "Latitude": 57.692058, "Longitude": -5.091723, "Viewable": 1036.59 }, "geometry": { "type": "Point", "coordinates": [ -5.091734129120164, 57.692079982793778 ] } },
{ "type": "Feature", "properties": { "Number": 1043, "Name": "A'Chailleach", "Classifica": "Ma,M,Mur", "Metres": 997.0, "Feet": 3271, "Grid Ref": "NH136714", "Xcoord": 213620, "Ycoord": 871414, "Latitude": 57.693782, "Longitude": -5.12873, "Viewable": 1097.64 }, "geometry": { "type": "Point", "coordinates": [ -5.128740912993928, 57.693803270317147 ] } },
{ "type": "Feature", "properties": { "Number": 1046, "Name": "Beinn Liath Mhor Fannaich", "Classifica": "Hu,M,Mur", "Metres": 954.0, "Feet": 3130, "Grid Ref": "NH219724", "Xcoord": 221959, "Ycoord": 872411, "Latitude": 57.706103, "Longitude": -4.989793, "Viewable": 972.72 }, "geometry": { "type": "Point", "coordinates": [ -4.989789690019872, 57.706124977458728 ] } },
{ "type": "Feature", "properties": { "Number": 1047, "Name": "Meall Gorm", "Classifica": "Hu,M,Mur", "Metres": 949.0, "Feet": 3114, "Grid Ref": "NH221695", "Xcoord": 222191, "Ycoord": 869584, "Latitude": 57.680836, "Longitude": -4.983818, "Viewable": 777.17 }, "geometry": { "type": "Point", "coordinates": [ -4.983814758405065, 57.680858529696913 ] } },
{ "type": "Feature", "properties": { "Number": 1049, "Name": "Meall a'Chrasgaidh", "Classifica": "Hu,M,Mur", "Metres": 934.0, "Feet": 3064, "Grid Ref": "NH184733", "Xcoord": 218475, "Ycoord": 873323, "Latitude": 57.712891, "Longitude": -5.048845, "Viewable": 634.95 }, "geometry": { "type": "Point", "coordinates": [ -5.048857289976441, 57.712911817197543 ] } },
{ "type": "Feature", "properties": { "Number": 1050, "Name": "Fionn Bheinn", "Classifica": "Ma,M,Mur", "Metres": 933.0, "Feet": 3061, "Grid Ref": "NH147621", "Xcoord": 214749, "Ycoord": 862149, "Latitude": 57.611148, "Longitude": -5.102713, "Viewable": 1003.33 }, "geometry": { "type": "Point", "coordinates": [ -5.102723237832324, 57.611171219653755 ] } },
{ "type": "Feature", "properties": { "Number": 1051, "Name": "Sgurr nan Each", "Classifica": "Hu,M,Mur", "Metres": 923.0, "Feet": 3028, "Grid Ref": "NH184697", "Xcoord": 218400, "Ycoord": 869700, "Latitude": 57.680366, "Longitude": -5.047378, "Viewable": 411.52 }, "geometry": { "type": "Point", "coordinates": [ -5.047381773937665, 57.680385026502641 ] } },
{ "type": "Feature", "properties": { "Number": 1052, "Name": "An Coileachan", "Classifica": "Hu,M,Mur,sMa", "Metres": 923.0, "Feet": 3028, "Grid Ref": "NH241680", "Xcoord": 224177, "Ycoord": 868018, "Latitude": 57.667569, "Longitude": -4.949418, "Viewable": 1178.45 }, "geometry": { "type": "Point", "coordinates": [ -4.949415134171296, 57.66759140432049 ] } },
{ "type": "Feature", "properties": { "Number": 1062, "Name": "Beinn Dearg", "Classifica": "Ma,M,Mur", "Metres": 1084.0, "Feet": 3556, "Grid Ref": "NH259811", "Xcoord": 225932, "Ycoord": 881182, "Latitude": 57.78634, "Longitude": -4.929573, "Viewable": 1400.92 }, "geometry": { "type": "Point", "coordinates": [ -4.929572026666585, 57.786360653826499 ] } },
{ "type": "Feature", "properties": { "Number": 1063, "Name": "Cona' Mheall", "Classifica": "Ma,M,Mur", "Metres": 978.0, "Feet": 3209, "Grid Ref": "NH275816", "Xcoord": 227512, "Ycoord": 881640, "Latitude": 57.79106, "Longitude": -4.903366, "Viewable": 645.05 }, "geometry": { "type": "Point", "coordinates": [ -4.903365044592612, 57.79108011233928 ] } },
{ "type": "Feature", "properties": { "Number": 1064, "Name": "Meall nan Ceapraichean", "Classifica": "Hu,M,Mur", "Metres": 977.0, "Feet": 3205, "Grid Ref": "NH257825", "Xcoord": 225725, "Ycoord": 882547, "Latitude": 57.798505, "Longitude": -4.934044, "Viewable": 1174.02 }, "geometry": { "type": "Point", "coordinates": [ -4.934042937050728, 57.798524666790982 ] } },
{ "type": "Feature", "properties": { "Number": 1066, "Name": "Am Faochagach", "Classifica": "Ma,M,Mur", "Metres": 953.0, "Feet": 3127, "Grid Ref": "NH303793", "Xcoord": 230361, "Ycoord": 879372, "Latitude": 57.771801, "Longitude": -4.853899, "Viewable": 1092.05 }, "geometry": { "type": "Point", "coordinates": [ -4.853899102655233, 57.771821792047341 ] } },
{ "type": "Feature", "properties": { "Number": 1069, "Name": "Seana Bhraigh", "Classifica": "Ma,M,Mur", "Metres": 926.0, "Feet": 3038, "Grid Ref": "NH281878", "Xcoord": 228180, "Ycoord": 887883, "Latitude": 57.847321, "Longitude": -4.896636, "Viewable": 1392.35 }, "geometry": { "type": "Point", "coordinates": [ -4.896635523571217, 57.847340104020759 ] } },
{ "type": "Feature", "properties": { "Number": 1088, "Name": "Ben Wyvis - Glas Leathad Mor", "Classifica": "Ma,M,Mur", "Metres": 1046.0, "Feet": 3432, "Grid Ref": "NH462683", "Xcoord": 246295, "Ycoord": 868377, "Latitude": 57.678895, "Longitude": -4.579282, "Viewable": 3059.04 }, "geometry": { "type": "Point", "coordinates": [ -4.579285998528604, 57.678909576503514 ] } }
]
}
