{
"type": "FeatureCollection",
"crs": { "type": "name", "properties": { "name": "urn:ogc:def:crs:OGC:1.3:CRS84" } },
                                                                                
"features": [
{ "type": "Feature", "properties": { "Number": 178, "Name": "Aonach Eagach - Sgorr nam Fiannaidh", "Classifica": "Ma,M,Mur", "Metres": 967.0, "Feet": 3173, "Grid Ref": "NN140583", "Xcoord": 214043, "Ycoord": 758307, "Latitude": 56.679396, "Longitude": -5.037144, "Viewable": 631.37 }, "geometry": { "type": "Point", "coordinates": [ -5.037163029883993, 56.679411393971861 ] } },
{ "type": "Feature", "properties": { "Number": 179, "Name": "Aonach Eagach - Meall Dearg", "Classifica": "Hu,M,Mur", "Metres": 953.0, "Feet": 3127, "Grid Ref": "NN161583", "Xcoord": 216128, "Ycoord": 758364, "Latitude": 56.680732, "Longitude": -5.003202, "Viewable": 551.01 }, "geometry": { "type": "Point", "coordinates": [ -5.003221597667999, 56.680747490816657 ] } },
{ "type": "Feature", "properties": { "Number": 191, "Name": "Bidean nam Bian", "Classifica": "Ma,M,Mur,CoH", "Metres": 1150.0, "Feet": 3773, "Grid Ref": "NN143542", "Xcoord": 214341, "Ycoord": 754208, "Latitude": 56.642741, "Longitude": -5.029333, "Viewable": 2093.69 }, "geometry": { "type": "Point", "coordinates": [ -5.029352296575269, 56.642757150427322 ] } },
{ "type": "Feature", "properties": { "Number": 194, "Name": "Stob Coire Sgreamhach", "Classifica": "Hu,M,Mur", "Metres": 1072.0, "Feet": 3517, "Grid Ref": "NN154536", "Xcoord": 215487, "Ycoord": 753664, "Latitude": 56.638314, "Longitude": -5.010284, "Viewable": 845.48 }, "geometry": { "type": "Point", "coordinates": [ -5.010303435041324, 56.638329838759503 ] } },
{ "type": "Feature", "properties": { "Number": 199, "Name": "Sgor na h-Ulaidh", "Classifica": "Ma,M,Mur", "Metres": 994.0, "Feet": 3261, "Grid Ref": "NN111518", "Xcoord": 211116, "Ycoord": 751797, "Latitude": 56.619822, "Longitude": -5.080078, "Viewable": 575.79 }, "geometry": { "type": "Point", "coordinates": [ -5.080096307242775, 56.619838583393971 ] } },
{ "type": "Feature", "properties": { "Number": 237, "Name": "Stob Ghabhar", "Classifica": "Ma,M,Mur", "Metres": 1090.0, "Feet": 3576, "Grid Ref": "NN230455", "Xcoord": 223016, "Ycoord": 745514, "Latitude": 56.568093, "Longitude": -4.882114, "Viewable": 554.06 }, "geometry": { "type": "Point", "coordinates": [ -4.882136027082328, 56.568111493494541 ] } },
{ "type": "Feature", "properties": { "Number": 238, "Name": "Ben Starav", "Classifica": "Ma,M,Mur", "Metres": 1078.0, "Feet": 3537, "Grid Ref": "NN125427", "Xcoord": 212573, "Ycoord": 742717, "Latitude": 56.538948, "Longitude": -5.049799, "Viewable": 1028.5 }, "geometry": { "type": "Point", "coordinates": [ -5.049816929267415, 56.538966371010453 ] } },
{ "type": "Feature", "properties": { "Number": 278, "Name": "Ben Nevis", "Classifica": "Ma,M,Mur,CoH,CoU,CoA", "Metres": 1344.0, "Feet": 4409, "Grid Ref": "NN166712", "Xcoord": 216676, "Ycoord": 771283, "Latitude": 56.79685, "Longitude": -5.003508, "Viewable": 3454.84 }, "geometry": { "type": "Point", "coordinates": [ -5.003528959242606, 56.796862774329121 ] } },
{ "type": "Feature", "properties": { "Number": 292, "Name": "Stob a'Choire Mheadhoin", "Classifica": "Hu,M,Mur,sMa", "Metres": 1105.0, "Feet": 3625, "Grid Ref": "NN316736", "Xcoord": 231600, "Ycoord": 773600, "Latitude": 56.823277, "Longitude": -4.761005, "Viewable": 844.84 }, "geometry": { "type": "Point", "coordinates": [ -4.761015220555818, 56.823293465222648 ] } },
{ "type": "Feature", "properties": { "Number": 295, "Name": "Sgurr a'Mhaim", "Classifica": "Ma,M,Mur", "Metres": 1099.0, "Feet": 3606, "Grid Ref": "NN164667", "Xcoord": 216466, "Ycoord": 766730, "Latitude": 56.75592, "Longitude": -5.003674, "Viewable": 775.08 }, "geometry": { "type": "Point", "coordinates": [ -5.003694533482893, 56.755934227643827 ] } },
{ "type": "Feature", "properties": { "Number": 303, "Name": "Am Bodach", "Classifica": "Ma,M,Mur", "Metres": 1032.0, "Feet": 3386, "Grid Ref": "NN176650", "Xcoord": 217637, "Ycoord": 765096, "Latitude": 56.74172, "Longitude": -4.983386, "Viewable": 951.61 }, "geometry": { "type": "Point", "coordinates": [ -4.983406719563914, 56.741734570230378 ] } },
{ "type": "Feature", "properties": { "Number": 309, "Name": "Stob Ban", "Classifica": "Ma,M,Mur", "Metres": 999.0, "Feet": 3278, "Grid Ref": "NN147654", "Xcoord": 214775, "Ycoord": 765443, "Latitude": 56.743706, "Longitude": -5.03036, "Viewable": 603.66 }, "geometry": { "type": "Point", "coordinates": [ -5.030380075341562, 56.74371967663371 ] } },
{ "type": "Feature", "properties": { "Number": 345, "Name": "Ben Alder", "Classifica": "Ma,M,Mur", "Metres": 1148.0, "Feet": 3766, "Grid Ref": "NN496718", "Xcoord": 249614, "Ycoord": 771854, "Latitude": 56.813786, "Longitude": -4.465122, "Viewable": 2082.27 }, "geometry": { "type": "Point", "coordinates": [ -4.465137117274049, 56.813800128859604 ] } },
{ "type": "Feature", "properties": { "Number": 346, "Name": "Geal-charn", "Classifica": "Ma,M,Mur", "Metres": 1132.0, "Feet": 3714, "Grid Ref": "NN469746", "Xcoord": 246992, "Ycoord": 774631, "Latitude": 56.837854, "Longitude": -4.509695, "Viewable": 1903.89 }, "geometry": { "type": "Point", "coordinates": [ -4.509709856998947, 56.837867963742397 ] } },
{ "type": "Feature", "properties": { "Number": 347, "Name": "Aonach Beag", "Classifica": "M,Mur,sHu", "Metres": 1115.7, "Feet": 3660, "Grid Ref": "NN457741", "Xcoord": 245787, "Ycoord": 774189, "Latitude": 56.833489, "Longitude": -4.529158, "Viewable": 1466.08 }, "geometry": { "type": "Point", "coordinates": [ -4.529172705545435, 56.833502736108279 ] } },
{ "type": "Feature", "properties": { "Number": 348, "Name": "Beinn Eibhinn", "Classifica": "Hu,M,Mur", "Metres": 1103.2, "Feet": 3619, "Grid Ref": "NN449733", "Xcoord": 244965, "Ycoord": 773302, "Latitude": 56.825255, "Longitude": -4.542077, "Viewable": 608.6 }, "geometry": { "type": "Point", "coordinates": [ -4.542090575895859, 56.825268724361742 ] } },
{ "type": "Feature", "properties": { "Number": 518, "Name": "Ben Macdui [Beinn Macduibh]", "Classifica": "Ma,M,Mur,CoH,CoU,CoA", "Metres": 1309.0, "Feet": 4295, "Grid Ref": "NN988989", "Xcoord": 298899, "Ycoord": 798943, "Latitude": 57.070368, "Longitude": -3.669099, "Viewable": 4570.33 }, "geometry": { "type": "Point", "coordinates": [ -3.669099512465734, 57.070379220462421 ] } },
{ "type": "Feature", "properties": { "Number": 658, "Name": "Creag Meagaidh", "Classifica": "Ma,M,Mur", "Metres": 1128.0, "Feet": 3701, "Grid Ref": "NN418875", "Xcoord": 241840, "Ycoord": 787549, "Latitude": 56.952051, "Longitude": -4.602102, "Viewable": 1986.23 }, "geometry": { "type": "Point", "coordinates": [ -4.602116508723091, 56.952070584197493 ] } },
{ "type": "Feature", "properties": { "Number": 662, "Name": "Stob Poite Coire Ardair", "Classifica": "Hu,M,Mur", "Metres": 1054.0, "Feet": 3458, "Grid Ref": "NN428888", "Xcoord": 242800, "Ycoord": 788800, "Latitude": 56.963609, "Longitude": -4.58712, "Viewable": 136.16 }, "geometry": { "type": "Point", "coordinates": [ -4.587128639432613, 56.963624433276401 ] } },
{ "type": "Feature", "properties": { "Number": 668, "Name": "Carn Liath", "Classifica": "M,Mur", "Metres": 1006.0, "Feet": 3301, "Grid Ref": "NN472903", "Xcoord": 247200, "Ycoord": 790300, "Latitude": 56.978546, "Longitude": -4.515741, "Viewable": 389.74 }, "geometry": { "type": "Point", "coordinates": [ -4.515749107151332, 56.978561325611771 ] } },
{ "type": "Feature", "properties": { "Number": 683, "Name": "Gleouraich", "Classifica": "Ma,M,Mur", "Metres": 1035.0, "Feet": 3396, "Grid Ref": "NH039053", "Xcoord": 203944, "Ycoord": 805344, "Latitude": 57.097154, "Longitude": -5.238051, "Viewable": 782.44 }, "geometry": { "type": "Point", "coordinates": [ -5.23805329423944, 57.097169590440942 ] } },
{ "type": "Feature", "properties": { "Number": 684, "Name": "Sgurr a'Mhaoraich", "Classifica": "Ma,M,Mur", "Metres": 1027.0, "Feet": 3369, "Grid Ref": "NG983065", "Xcoord": 198392, "Ycoord": 806549, "Latitude": 57.105562, "Longitude": -5.330483, "Viewable": 745.69 }, "geometry": { "type": "Point", "coordinates": [ -5.330500235468167, 57.105577138489807 ] } },
{ "type": "Feature", "properties": { "Number": 690, "Name": "Sgurr an Lochain", "Classifica": "Hu,M,Mur", "Metres": 1004.0, "Feet": 3294, "Grid Ref": "NH005104", "Xcoord": 200580, "Ycoord": 810421, "Latitude": 57.141232, "Longitude": -5.297527, "Viewable": 628.6 }, "geometry": { "type": "Point", "coordinates": [ -5.29752930314419, 57.141255588766676 ] } },
{ "type": "Feature", "properties": { "Number": 691, "Name": "Spidean Mialach", "Classifica": "Ma,M,Mur", "Metres": 996.0, "Feet": 3268, "Grid Ref": "NH065043", "Xcoord": 206591, "Ycoord": 804307, "Latitude": 57.088973, "Longitude": -5.193631, "Viewable": 751.29 }, "geometry": { "type": "Point", "coordinates": [ -5.193634747772929, 57.088988785001312 ] } },
{ "type": "Feature", "properties": { "Number": 693, "Name": "Maol Chinn-dearg", "Classifica": "Hu,M,Mur", "Metres": 981.0, "Feet": 3219, "Grid Ref": "NH032087", "Xcoord": 203221, "Ycoord": 808766, "Latitude": 57.127537, "Longitude": -5.252655, "Viewable": 417.67 }, "geometry": { "type": "Point", "coordinates": [ -5.252657604725616, 57.127551502326554 ] } },
{ "type": "Feature", "properties": { "Number": 701, "Name": "Sgurr na Sgine", "Classifica": "Ma,M,Mur", "Metres": 946.0, "Feet": 3104, "Grid Ref": "NG946113", "Xcoord": 194617, "Ycoord": 811368, "Latitude": 57.147098, "Longitude": -5.39665, "Viewable": 102.14 }, "geometry": { "type": "Point", "coordinates": [ -5.396666966178255, 57.147120621384502 ] } },
{ "type": "Feature", "properties": { "Number": 708, "Name": "Creag nan Damh", "Classifica": "Ma,M,Mur", "Metres": 918.0, "Feet": 3012, "Grid Ref": "NG983112", "Xcoord": 198370, "Ycoord": 811201, "Latitude": 57.147263, "Longitude": -5.334597, "Viewable": 427.51 }, "geometry": { "type": "Point", "coordinates": [ -5.334614704455023, 57.147285864126303 ] } },
{ "type": "Feature", "properties": { "Number": 733, "Name": "Sgurr Mor", "Classifica": "Ma,M,Mur", "Metres": 1003.0, "Feet": 3291, "Grid Ref": "NM965980", "Xcoord": 196534, "Ycoord": 798039, "Latitude": 57.028428, "Longitude": -5.354204, "Viewable": 835.14 }, "geometry": { "type": "Point", "coordinates": [ -5.354220067571761, 57.028444089839631 ] } },
{ "type": "Feature", "properties": { "Number": 737, "Name": "Meall Buidhe", "Classifica": "Ma,M,Mur", "Metres": 946.0, "Feet": 3104, "Grid Ref": "NM849989", "Xcoord": 184901, "Ycoord": 798977, "Latitude": 57.031553, "Longitude": -5.546285, "Viewable": 1011.9 }, "geometry": { "type": "Point", "coordinates": [ -5.546297750605468, 57.031578343192763 ] } },
{ "type": "Feature", "properties": { "Number": 739, "Name": "Luinne Bheinn", "Classifica": "Ma,M,Mur", "Metres": 939.0, "Feet": 3081, "Grid Ref": "NG869007", "Xcoord": 186984, "Ycoord": 800742, "Latitude": 57.048346, "Longitude": -5.513527, "Viewable": 721.34 }, "geometry": { "type": "Point", "coordinates": [ -5.513540504832743, 57.048370256974245 ] } },
{ "type": "Feature", "properties": { "Number": 773, "Name": "Gulvain [Gaor Bheinn]", "Classifica": "Ma,M,Mur", "Metres": 987.0, "Feet": 3238, "Grid Ref": "NN002875", "Xcoord": 200267, "Ycoord": 787572, "Latitude": 56.936184, "Longitude": -5.284525, "Viewable": 866.62 }, "geometry": { "type": "Point", "coordinates": [ -5.284541540899108, 56.93620256284256 ] } },
{ "type": "Feature", "properties": { "Number": 774, "Name": "Sgurr Thuilm", "Classifica": "Ma,M,Mur", "Metres": 963.0, "Feet": 3159, "Grid Ref": "NM939879", "Xcoord": 193904, "Ycoord": 787980, "Latitude": 56.937055, "Longitude": -5.38924, "Viewable": 637.61 }, "geometry": { "type": "Point", "coordinates": [ -5.389254862406088, 56.937072930374448 ] } },
{ "type": "Feature", "properties": { "Number": 815, "Name": "Sgurr Fhuaran", "Classifica": "Ma,M,Mur", "Metres": 1067.0, "Feet": 3501, "Grid Ref": "NG978166", "Xcoord": 197847, "Ycoord": 816679, "Latitude": 57.196158, "Longitude": -5.347684, "Viewable": 578.1 }, "geometry": { "type": "Point", "coordinates": [ -5.347685883393633, 57.1961807850534 ] } },
{ "type": "Feature", "properties": { "Number": 825, "Name": "Sgurr na Ciste Duibhe", "Classifica": "Ma,M,Mur", "Metres": 1027.0, "Feet": 3369, "Grid Ref": "NG984149", "Xcoord": 198398, "Ycoord": 814952, "Latitude": 57.180914, "Longitude": -5.337167, "Viewable": 697.45 }, "geometry": { "type": "Point", "coordinates": [ -5.337185016470358, 57.18093619951275 ] } },
{ "type": "Feature", "properties": { "Number": 827, "Name": "Sgurr na Carnach", "Classifica": "Hu,M,Mur", "Metres": 1002.0, "Feet": 3287, "Grid Ref": "NG977158", "Xcoord": 197714, "Ycoord": 815890, "Latitude": 57.189024, "Longitude": -5.34924, "Viewable": 126.99 }, "geometry": { "type": "Point", "coordinates": [ -5.349241856687399, 57.189046695346953 ] } },
{ "type": "Feature", "properties": { "Number": 828, "Name": "Aonach Meadhoin", "Classifica": "Ma,M,Mur", "Metres": 1001.0, "Feet": 3284, "Grid Ref": "NH048137", "Xcoord": 204885, "Ycoord": 813766, "Latitude": 57.173082, "Longitude": -5.229121, "Viewable": 409.02 }, "geometry": { "type": "Point", "coordinates": [ -5.229124703663191, 57.173104622020162 ] } },
{ "type": "Feature", "properties": { "Number": 839, "Name": "Saileag", "Classifica": "M,Mur,sHu", "Metres": 956.0, "Feet": 3136, "Grid Ref": "NH017148", "Xcoord": 201774, "Ycoord": 814827, "Latitude": 57.181264, "Longitude": -5.281331, "Viewable": 319.65 }, "geometry": { "type": "Point", "coordinates": [ -5.281334024352797, 57.181286510800334 ] } },
{ "type": "Feature", "properties": { "Number": 862, "Name": "A'Chralaig", "Classifica": "Ma,M,Mur", "Metres": 1120.0, "Feet": 3675, "Grid Ref": "NH094148", "Xcoord": 209428, "Ycoord": 814798, "Latitude": 57.184247, "Longitude": -5.154892, "Viewable": 2466.1 }, "geometry": { "type": "Point", "coordinates": [ -5.154897389436341, 57.184270428988732 ] } },
{ "type": "Feature", "properties": { "Number": 864, "Name": "Mullach Fraoch-choire", "Classifica": "Ma,M,Mur", "Metres": 1102.0, "Feet": 3615, "Grid Ref": "NH094171", "Xcoord": 209489, "Ycoord": 817160, "Latitude": 57.205459, "Longitude": -5.155692, "Viewable": 912.72 }, "geometry": { "type": "Point", "coordinates": [ -5.155697925863062, 57.20548129632396 ] } },
{ "type": "Feature", "properties": { "Number": 871, "Name": "Carn Ghluasaid", "Classifica": "M,Mur", "Metres": 957.0, "Feet": 3140, "Grid Ref": "NH145125", "Xcoord": 214575, "Ycoord": 812522, "Latitude": 57.16595, "Longitude": -5.068174, "Viewable": 762.16 }, "geometry": { "type": "Point", "coordinates": [ -5.068180892739016, 57.165964472433288 ] } },
{ "type": "Feature", "properties": { "Number": 892, "Name": "Sgurr Choinnich", "Classifica": "Hu,M,Mur", "Metres": 999.0, "Feet": 3278, "Grid Ref": "NH076446", "Xcoord": 207626, "Ycoord": 844627, "Latitude": 57.451031, "Longitude": -5.207898, "Viewable": 504.92 }, "geometry": { "type": "Point", "coordinates": [ -5.20790459844681, 57.451047872865452 ] } },
{ "type": "Feature", "properties": { "Number": 898, "Name": "Bidein a'Choire Sheasgaich", "Classifica": "Ma,M,Mur", "Metres": 945.0, "Feet": 3100, "Grid Ref": "NH049412", "Xcoord": 204908, "Ycoord": 841265, "Latitude": 57.419719, "Longitude": -5.25044, "Viewable": 178.11 }, "geometry": { "type": "Point", "coordinates": [ -5.25044499827944, 57.419737216985411 ] } },
{ "type": "Feature", "properties": { "Number": 1042, "Name": "Sgurr Breac", "Classifica": "Ma,M,Mur", "Metres": 999.0, "Feet": 3278, "Grid Ref": "NH158711", "Xcoord": 215816, "Ycoord": 871121, "Latitude": 57.692058, "Longitude": -5.091723, "Viewable": 1036.59 }, "geometry": { "type": "Point", "coordinates": [ -5.091734129120164, 57.692079982793778 ] } }
]
}
