{
"type": "FeatureCollection",
"crs": { "type": "name", "properties": { "name": "urn:ogc:def:crs:OGC:1.3:CRS84" } },
                                                                                
"features": [
{ "type": "Feature", "properties": { "Number": 1, "Name": "Ben Chonzie", "Classifica": "Ma,M,Mur", "Metres": 931.0, "Feet": 3054, "Grid Ref": "NN773308", "Xcoord": 277324, "Ycoord": 730857, "Latitude": 56.453851, "Longitude": -3.992057 }, "geometry": { "type": "Point", "coordinates": [ -3.99206200693323, 56.453856530406412 ] } },
{ "type": "Feature", "properties": { "Number": 27, "Name": "Stob Binnein", "Classifica": "Ma,M,Mur", "Metres": 1165.0, "Feet": 3822, "Grid Ref": "NN434227", "Xcoord": 243481, "Ycoord": 722714, "Latitude": 56.370735, "Longitude": -4.535754 }, "geometry": { "type": "Point", "coordinates": [ -4.535764148329166, 56.3707494599198 ] } },
{ "type": "Feature", "properties": { "Number": 103, "Name": "Schiehallion", "Classifica": "Ma,M,Mur", "Metres": 1083.0, "Feet": 3553, "Grid Ref": "NN713547", "Xcoord": 271393, "Ycoord": 754756, "Latitude": 56.666828, "Longitude": -4.100076 }, "geometry": { "type": "Point", "coordinates": [ -4.100081581565044, 56.666837133441902 ] } },
{ "type": "Feature", "properties": { "Number": 141, "Name": "Ben Lawers", "Classifica": "Ma,M,Mur,CoH,CoU,CoA", "Metres": 1214.0, "Feet": 3983, "Grid Ref": "NN635414", "Xcoord": 263551, "Ycoord": 741423, "Latitude": 56.544912, "Longitude": -4.220892 }, "geometry": { "type": "Point", "coordinates": [ -4.220893941012826, 56.544923728277958 ] } },
{ "type": "Feature", "properties": { "Number": 150, "Name": "Meall Ghaordaidh", "Classifica": "Ma,M,Mur", "Metres": 1039.0, "Feet": 3409, "Grid Ref": "NN514397", "Xcoord": 251443, "Ycoord": 739704, "Latitude": 56.52581, "Longitude": -4.416638 }, "geometry": { "type": "Point", "coordinates": [ -4.416652099640396, 56.525821187234897 ] } },
{ "type": "Feature", "properties": { "Number": 154, "Name": "Meall Greigh", "Classifica": "Ma,M,Mur", "Metres": 1001.0, "Feet": 3284, "Grid Ref": "NN674438", "Xcoord": 267401, "Ycoord": 743808, "Latitude": 56.567426, "Longitude": -4.159543 }, "geometry": { "type": "Point", "coordinates": [ -4.159546000467555, 56.567437701653247 ] } },
{ "type": "Feature", "properties": { "Number": 354, "Name": "Beinn Bheoil", "Classifica": "Ma,M,Mur", "Metres": 1019.0, "Feet": 3343, "Grid Ref": "NN517717", "Xcoord": 251716, "Ycoord": 771723, "Latitude": 56.813285, "Longitude": -4.430663 }, "geometry": { "type": "Point", "coordinates": [ -4.430662846884802, 56.81329941288255 ] } },
{ "type": "Feature", "properties": { "Number": 383, "Name": "Beinn Udlamain", "Classifica": "Ma,M,Mur", "Metres": 1011.0, "Feet": 3317, "Grid Ref": "NN579739", "Xcoord": 257949, "Ycoord": 773977, "Latitude": 56.835463, "Longitude": -4.329912 }, "geometry": { "type": "Point", "coordinates": [ -4.329914080025146, 56.835477368553079 ] } },
{ "type": "Feature", "properties": { "Number": 386, "Name": "A'Mharconaich", "Classifica": "Hu,M,Mur", "Metres": 975.0, "Feet": 3199, "Grid Ref": "NN604762", "Xcoord": 260423, "Ycoord": 776292, "Latitude": 56.856993, "Longitude": -4.290668 }, "geometry": { "type": "Point", "coordinates": [ -4.290670637329467, 56.857007277511059 ] } },
{ "type": "Feature", "properties": { "Number": 406, "Name": "Beinn Dearg", "Classifica": "Ma,M,Mur", "Metres": 1008.0, "Feet": 3307, "Grid Ref": "NN852777", "Xcoord": 285290, "Ycoord": 777785, "Latitude": 56.87721, "Longitude": -3.88381 }, "geometry": { "type": "Point", "coordinates": [ -3.88380534041963, 56.877224771395241 ] } },
{ "type": "Feature", "properties": { "Number": 407, "Name": "An Sgarsoch", "Classifica": "Ma,M,Mur", "Metres": 1006.0, "Feet": 3301, "Grid Ref": "NN933836", "Xcoord": 293333, "Ycoord": 783666, "Latitude": 56.931937, "Longitude": -3.754384 }, "geometry": { "type": "Point", "coordinates": [ -3.75438221530339, 56.931951034660415 ] } },
{ "type": "Feature", "properties": { "Number": 408, "Name": "Carn an Fhidhleir [Carn Ealar]", "Classifica": "Ma,M,Mur", "Metres": 994.0, "Feet": 3261, "Grid Ref": "NN904841", "Xcoord": 290470, "Ycoord": 784186, "Latitude": 56.935938, "Longitude": -3.801629 }, "geometry": { "type": "Point", "coordinates": [ -3.801626261865756, 56.93595125911412 ] } },
{ "type": "Feature", "properties": { "Number": 409, "Name": "Carn a'Chlamain", "Classifica": "Ma,M,Mur", "Metres": 963.0, "Feet": 3159, "Grid Ref": "NN915758", "Xcoord": 291590, "Ycoord": 775807, "Latitude": 56.860965, "Longitude": -3.779651 }, "geometry": { "type": "Point", "coordinates": [ -3.779647869429781, 56.860979812633659 ] } },
{ "type": "Feature", "properties": { "Number": 421, "Name": "Beinn a'Ghlo - Carn nan Gabhar", "Classifica": "Ma,M,Mur", "Metres": 1121.0, "Feet": 3678, "Grid Ref": "NN971733", "Xcoord": 297118, "Ycoord": 773314, "Latitude": 56.839837, "Longitude": -3.688022 }, "geometry": { "type": "Point", "coordinates": [ -3.688020790055512, 56.839852557144795 ] } },
{ "type": "Feature", "properties": { "Number": 422, "Name": "Beinn a'Ghlo - Braigh Coire Chruinn-bhalgain", "Classifica": "Ma,M,Mur", "Metres": 1070.0, "Feet": 3510, "Grid Ref": "NN945724", "Xcoord": 294565, "Ycoord": 772411, "Latitude": 56.831156, "Longitude": -3.729475 }, "geometry": { "type": "Point", "coordinates": [ -3.729473194694906, 56.831171530904811 ] } },
{ "type": "Feature", "properties": { "Number": 425, "Name": "Beinn Iutharn Mhor", "Classifica": "Ma,M,Mur", "Metres": 1045.0, "Feet": 3428, "Grid Ref": "NO045792", "Xcoord": 304566, "Ycoord": 779280, "Latitude": 56.895003, "Longitude": -3.56823 }, "geometry": { "type": "Point", "coordinates": [ -3.568231422071947, 56.89501814414416 ] } },
{ "type": "Feature", "properties": { "Number": 426, "Name": "Carn an Righ", "Classifica": "Ma,M,Mur", "Metres": 1029.0, "Feet": 3376, "Grid Ref": "NO028772", "Xcoord": 302871, "Ycoord": 777266, "Latitude": 56.876565, "Longitude": -3.595272 }, "geometry": { "type": "Point", "coordinates": [ -3.595272772876817, 56.876580400801124 ] } },
{ "type": "Feature", "properties": { "Number": 428, "Name": "Carn a'Gheoidh", "Classifica": "Ma,M,Mur", "Metres": 975.0, "Feet": 3199, "Grid Ref": "NO107767", "Xcoord": 310702, "Ycoord": 776702, "Latitude": 56.873074, "Longitude": -3.466633 }, "geometry": { "type": "Point", "coordinates": [ -3.466636576760508, 56.8730898952738 ] } },
{ "type": "Feature", "properties": { "Number": 432, "Name": "Carn Bhac", "Classifica": "Ma,M,Mur", "Metres": 946.0, "Feet": 3104, "Grid Ref": "NO051832", "Xcoord": 305098, "Ycoord": 783255, "Latitude": 56.930809, "Longitude": -3.560989 }, "geometry": { "type": "Point", "coordinates": [ -3.560991467184193, 56.930822972302352 ] } },
{ "type": "Feature", "properties": { "Number": 433, "Name": "An Socach", "Classifica": "Ma,M,Mur", "Metres": 944.0, "Feet": 3097, "Grid Ref": "NO079799", "Xcoord": 307900, "Ycoord": 779900, "Latitude": 56.901249, "Longitude": -3.513748 }, "geometry": { "type": "Point", "coordinates": [ -3.513749058662352, 56.901260643588287 ] } },
{ "type": "Feature", "properties": { "Number": 435, "Name": "The Cairnwell", "Classifica": "Hu,M,Mur", "Metres": 933.0, "Feet": 3061, "Grid Ref": "NO134773", "Xcoord": 313485, "Ycoord": 777375, "Latitude": 56.879646, "Longitude": -3.42122 }, "geometry": { "type": "Point", "coordinates": [ -3.421224505647298, 56.879661507579669 ] } },
{ "type": "Feature", "properties": { "Number": 457, "Name": "Lochnagar - Cac Carn Beag", "Classifica": "Ma,M,Mur", "Metres": 1155.0, "Feet": 3789, "Grid Ref": "NO243861", "Xcoord": 324373, "Ycoord": 786139, "Latitude": 56.960263, "Longitude": -3.245244 }, "geometry": { "type": "Point", "coordinates": [ -3.245236420830211, 56.960277441300491 ] } },
{ "type": "Feature", "properties": { "Number": 459, "Name": "Carn a'Choire Bhoidheach", "Classifica": "M,Mur", "Metres": 1110.0, "Feet": 3642, "Grid Ref": "NO226845", "Xcoord": 322671, "Ycoord": 784557, "Latitude": 56.945773, "Longitude": -3.272724 }, "geometry": { "type": "Point", "coordinates": [ -3.272731923768839, 56.945787663282445 ] } },
{ "type": "Feature", "properties": { "Number": 461, "Name": "Glas Maol", "Classifica": "Ma,M,Mur,CoH,CoU", "Metres": 1068.0, "Feet": 3504, "Grid Ref": "NO166765", "Xcoord": 316699, "Ycoord": 776577, "Latitude": 56.873068, "Longitude": -3.368237 }, "geometry": { "type": "Point", "coordinates": [ -3.368242306779357, 56.873083554161347 ] } },
{ "type": "Feature", "properties": { "Number": 463, "Name": "Cairn of Claise", "Classifica": "Hu,M,Mur", "Metres": 1064.0, "Feet": 3491, "Grid Ref": "NO185788", "Xcoord": 318500, "Ycoord": 778800, "Latitude": 56.893357, "Longitude": -3.339419 }, "geometry": { "type": "Point", "coordinates": [ -3.339418824778605, 56.893368274911772 ] } },
{ "type": "Feature", "properties": { "Number": 465, "Name": "Carn an t-Sagairt Mor", "Classifica": "M,Mur", "Metres": 1047.0, "Feet": 3435, "Grid Ref": "NO208843", "Xcoord": 320800, "Ycoord": 784300, "Latitude": 56.943151, "Longitude": -3.303397 }, "geometry": { "type": "Point", "coordinates": [ -3.303397272499356, 56.943162805246423 ] } },
{ "type": "Feature", "properties": { "Number": 467, "Name": "Carn an Tuirc", "Classifica": "M,Mur", "Metres": 1019.0, "Feet": 3343, "Grid Ref": "NO174804", "Xcoord": 317400, "Ycoord": 780400, "Latitude": 56.907531, "Longitude": -3.357991 }, "geometry": { "type": "Point", "coordinates": [ -3.35799075083474, 56.907542792050556 ] } },
{ "type": "Feature", "properties": { "Number": 468, "Name": "Cairn Bannoch", "Classifica": "M,Mur", "Metres": 1012.0, "Feet": 3320, "Grid Ref": "NO222825", "Xcoord": 322286, "Ycoord": 782554, "Latitude": 56.927719, "Longitude": -3.278435 }, "geometry": { "type": "Point", "coordinates": [ -3.278442892067615, 56.927734013195526 ] } },
{ "type": "Feature", "properties": { "Number": 472, "Name": "Creag Leacach", "Classifica": "M,Mur", "Metres": 987.0, "Feet": 3238, "Grid Ref": "NO154745", "Xcoord": 315467, "Ycoord": 774549, "Latitude": 56.85464, "Longitude": -3.387768 }, "geometry": { "type": "Point", "coordinates": [ -3.387772742848489, 56.854647540038549 ] } },
{ "type": "Feature", "properties": { "Number": 479, "Name": "Tolmount", "Classifica": "M,Mur", "Metres": 958.0, "Feet": 3143, "Grid Ref": "NO210800", "Xcoord": 321050, "Ycoord": 780018, "Latitude": 56.904733, "Longitude": -3.297946 }, "geometry": { "type": "Point", "coordinates": [ -3.297953226751834, 56.904748827841267 ] } },
{ "type": "Feature", "properties": { "Number": 518, "Name": "Ben Macdui [Beinn Macduibh]", "Classifica": "Ma,M,Mur,CoH,CoU,CoA", "Metres": 1309.0, "Feet": 4295, "Grid Ref": "NN988989", "Xcoord": 298899, "Ycoord": 798943, "Latitude": 57.070368, "Longitude": -3.669099 }, "geometry": { "type": "Point", "coordinates": [ -3.669099512465734, 57.070379220462421 ] } },
{ "type": "Feature", "properties": { "Number": 519, "Name": "Braeriach", "Classifica": "Ma,M,Mur", "Metres": 1296.0, "Feet": 4252, "Grid Ref": "NN953999", "Xcoord": 295315, "Ycoord": 799901, "Latitude": 57.078169, "Longitude": -3.728581 }, "geometry": { "type": "Point", "coordinates": [ -3.728580783883529, 57.078179977584583 ] } },
{ "type": "Feature", "properties": { "Number": 521, "Name": "Cairn Toul", "Classifica": "Ma,M,Mur", "Metres": 1291.0, "Feet": 4236, "Grid Ref": "NN963972", "Xcoord": 296329, "Ycoord": 797228, "Latitude": 57.054397, "Longitude": -3.710757 }, "geometry": { "type": "Point", "coordinates": [ -3.710756759669017, 57.054408366486456 ] } },
{ "type": "Feature", "properties": { "Number": 538, "Name": "Beinn Bhrotain", "Classifica": "Ma,M,Mur", "Metres": 1157.0, "Feet": 3796, "Grid Ref": "NN954922", "Xcoord": 295412, "Ycoord": 792292, "Latitude": 57.009868, "Longitude": -3.723813 }, "geometry": { "type": "Point", "coordinates": [ -3.723812806956967, 57.00988020568748 ] } },
{ "type": "Feature", "properties": { "Number": 539, "Name": "Derry Cairngorm", "Classifica": "Hu,M,Mur,sMa", "Metres": 1155.0, "Feet": 3789, "Grid Ref": "NO017980", "Xcoord": 301734, "Ycoord": 798032, "Latitude": 57.062801, "Longitude": -3.622004 }, "geometry": { "type": "Point", "coordinates": [ -3.622006225533656, 57.062812871535137 ] } },
{ "type": "Feature", "properties": { "Number": 549, "Name": "Monadh Mor", "Classifica": "Hu,M,Mur", "Metres": 1113.0, "Feet": 3652, "Grid Ref": "NN938942", "Xcoord": 293864, "Ycoord": 794216, "Latitude": 57.02679, "Longitude": -3.750102 }, "geometry": { "type": "Point", "coordinates": [ -3.750101030355451, 57.026802294245719 ] } },
{ "type": "Feature", "properties": { "Number": 567, "Name": "Carn a'Mhaim", "Classifica": "Ma,M,Mur", "Metres": 1037.0, "Feet": 3402, "Grid Ref": "NN994951", "Xcoord": 299458, "Ycoord": 795147, "Latitude": 57.036404, "Longitude": -3.658363 }, "geometry": { "type": "Point", "coordinates": [ -3.658363655517496, 57.036415959793985 ] } },
{ "type": "Feature", "properties": { "Number": 575, "Name": "The Devil's Point", "Classifica": "M,Mur", "Metres": 1004.0, "Feet": 3294, "Grid Ref": "NN976951", "Xcoord": 297610, "Ycoord": 795116, "Latitude": 57.035719, "Longitude": -3.688787 }, "geometry": { "type": "Point", "coordinates": [ -3.688787517148704, 57.035730755214139 ] } },
{ "type": "Feature", "properties": { "Number": 587, "Name": "Beinn Bhreac", "Classifica": "M,Mur", "Metres": 931.0, "Feet": 3054, "Grid Ref": "NO058970", "Xcoord": 305869, "Ycoord": 797074, "Latitude": 57.055063, "Longitude": -3.553488 }, "geometry": { "type": "Point", "coordinates": [ -3.553491066496706, 57.055074226353696 ] } }
]
}
