{
"type": "FeatureCollection",
"crs": { "type": "name", "properties": { "name": "urn:ogc:def:crs:OGC:1.3:CRS84" } },
                                                                                
"features": [
{ "type": "Feature", "properties": { "Number": 518, "Name": "Ben Macdui [Beinn Macduibh]", "Classifica": "Ma,M,Mur,CoH,CoU,CoA", "Metres": 1309.0, "Feet": 4295, "Grid Ref": "NN988989", "Xcoord": 298899, "Ycoord": 798943, "Latitude": 57.070368, "Longitude": -3.669099, "Viewable": 4570.33 }, "geometry": { "type": "Point", "coordinates": [ -3.669099512465734, 57.070379220462421 ] } },
{ "type": "Feature", "properties": { "Number": 519, "Name": "Braeriach", "Classifica": "Ma,M,Mur", "Metres": 1296.0, "Feet": 4252, "Grid Ref": "NN953999", "Xcoord": 295315, "Ycoord": 799901, "Latitude": 57.078169, "Longitude": -3.728581, "Viewable": 3686.65 }, "geometry": { "type": "Point", "coordinates": [ -3.728580783883529, 57.078179977584583 ] } },
{ "type": "Feature", "properties": { "Number": 571, "Name": "Mullach Clach a'Bhlair", "Classifica": "Hu,M,Mur", "Metres": 1019.0, "Feet": 3343, "Grid Ref": "NN882927", "Xcoord": 288285, "Ycoord": 792701, "Latitude": 57.01187, "Longitude": -3.841287, "Viewable": 678.2 }, "geometry": { "type": "Point", "coordinates": [ -3.841283450325847, 57.011881869137305 ] } },
{ "type": "Feature", "properties": { "Number": 626, "Name": "Carn Sgulain", "Classifica": "M,Mur", "Metres": 920.0, "Feet": 3018, "Grid Ref": "NH682058", "Xcoord": 268299, "Ycoord": 805814, "Latitude": 57.124304, "Longitude": -4.177029, "Viewable": 751.7 }, "geometry": { "type": "Point", "coordinates": [ -4.177036814437611, 57.124321566980129 ] } },
{ "type": "Feature", "properties": { "Number": 803, "Name": "Carn Eige [Carn Eighe]", "Classifica": "Ma,M,Mur,CoH", "Metres": 1183.0, "Feet": 3881, "Grid Ref": "NH123261", "Xcoord": 212357, "Ycoord": 826197, "Latitude": 57.287702, "Longitude": -5.115126, "Viewable": 2895.56 }, "geometry": { "type": "Point", "coordinates": [ -5.115133233590298, 57.28772302799166 ] } },
{ "type": "Feature", "properties": { "Number": 804, "Name": "Mam Sodhail", "Classifica": "Hu,M,Mur", "Metres": 1181.0, "Feet": 3875, "Grid Ref": "NH119253", "Xcoord": 211962, "Ycoord": 825351, "Latitude": 57.279951, "Longitude": -5.121026, "Viewable": 3011.5 }, "geometry": { "type": "Point", "coordinates": [ -5.121033309424234, 57.279972431026664 ] } },
{ "type": "Feature", "properties": { "Number": 810, "Name": "Tom a'Choinich", "Classifica": "Hu,M,Mur,sMa", "Metres": 1112.0, "Feet": 3648, "Grid Ref": "NH164273", "Xcoord": 216403, "Ycoord": 827335, "Latitude": 57.299554, "Longitude": -5.048945, "Viewable": 1682.74 }, "geometry": { "type": "Point", "coordinates": [ -5.048953904304225, 57.299575067005392 ] } },
{ "type": "Feature", "properties": { "Number": 884, "Name": "Sgurr a'Choire Ghlais", "Classifica": "Ma,M,Mur", "Metres": 1083.0, "Feet": 3553, "Grid Ref": "NH258430", "Xcoord": 225882, "Ycoord": 843016, "Latitude": 57.443947, "Longitude": -4.902963, "Viewable": 2122.31 }, "geometry": { "type": "Point", "coordinates": [ -4.902958898057218, 57.443965771145983 ] } },
{ "type": "Feature", "properties": { "Number": 885, "Name": "Sgurr a'Chaorachain", "Classifica": "Ma,M,Mur", "Metres": 1053.0, "Feet": 3455, "Grid Ref": "NH087447", "Xcoord": 208749, "Ycoord": 844737, "Latitude": 57.452492, "Longitude": -5.1893, "Viewable": 987.99 }, "geometry": { "type": "Point", "coordinates": [ -5.189306953608693, 57.452508903221116 ] } },
{ "type": "Feature", "properties": { "Number": 886, "Name": "Sgurr Fhuar-thuill", "Classifica": "Hu,M,Mur,sMa", "Metres": 1049.0, "Feet": 3442, "Grid Ref": "NH235437", "Xcoord": 223580, "Ycoord": 843754, "Latitude": 57.44968, "Longitude": -4.94178, "Viewable": 1640.2 }, "geometry": { "type": "Point", "coordinates": [ -4.941791476472146, 57.449697611129437 ] } },
{ "type": "Feature", "properties": { "Number": 892, "Name": "Sgurr Choinnich", "Classifica": "Hu,M,Mur", "Metres": 999.0, "Feet": 3278, "Grid Ref": "NH076446", "Xcoord": 207626, "Ycoord": 844627, "Latitude": 57.451031, "Longitude": -5.207898, "Viewable": 504.92 }, "geometry": { "type": "Point", "coordinates": [ -5.20790459844681, 57.451047872865452 ] } },
{ "type": "Feature", "properties": { "Number": 895, "Name": "Carn nan Gobhar", "Classifica": "Hu,M,Mur", "Metres": 992.0, "Feet": 3255, "Grid Ref": "NH273438", "Xcoord": 227303, "Ycoord": 843890, "Latitude": 57.452331, "Longitude": -4.879935, "Viewable": 2461.46 }, "geometry": { "type": "Point", "coordinates": [ -4.879931902065454, 57.452349317361076 ] } },
{ "type": "Feature", "properties": { "Number": 896, "Name": "Lurg Mhor", "Classifica": "Ma,M,Mur", "Metres": 987.0, "Feet": 3238, "Grid Ref": "NH064404", "Xcoord": 206481, "Ycoord": 840451, "Latitude": 57.413091, "Longitude": -5.22365, "Viewable": 719.86 }, "geometry": { "type": "Point", "coordinates": [ -5.223655686828506, 57.413109377063648 ] } },
{ "type": "Feature", "properties": { "Number": 899, "Name": "Moruisg", "Classifica": "Ma,M,Mur", "Metres": 928.0, "Feet": 3045, "Grid Ref": "NH101499", "Xcoord": 210113, "Ycoord": 849938, "Latitude": 57.499703, "Longitude": -5.170646, "Viewable": 504.86 }, "geometry": { "type": "Point", "coordinates": [ -5.170654627569195, 57.499728199126288 ] } },
{ "type": "Feature", "properties": { "Number": 926, "Name": "Sgurr na Lapaich", "Classifica": "Ma,M,Mur", "Metres": 1150.0, "Feet": 3773, "Grid Ref": "NH160351", "Xcoord": 216102, "Ycoord": 835126, "Latitude": 57.369319, "Longitude": -5.059743, "Viewable": 2551.19 }, "geometry": { "type": "Point", "coordinates": [ -5.05975181485052, 57.369338804802695 ] } },
{ "type": "Feature", "properties": { "Number": 953, "Name": "Liathach - Spidean a'Choire Leith", "Classifica": "Ma,M,Mur", "Metres": 1055.0, "Feet": 3461, "Grid Ref": "NG929579", "Xcoord": 192936, "Ycoord": 857969, "Latitude": 57.564189, "Longitude": -5.463575, "Viewable": 699.32 }, "geometry": { "type": "Point", "coordinates": [ -5.463577674939199, 57.564212637401894 ] } },
{ "type": "Feature", "properties": { "Number": 954, "Name": "Liathach - Mullach an Rathain", "Classifica": "Ma,M,Mur", "Metres": 1023.0, "Feet": 3356, "Grid Ref": "NG911576", "Xcoord": 191184, "Ycoord": 857691, "Latitude": 57.560891, "Longitude": -5.492566, "Viewable": 885.96 }, "geometry": { "type": "Point", "coordinates": [ -5.492568707951095, 57.560914304330034 ] } },
{ "type": "Feature", "properties": { "Number": 955, "Name": "Beinn Eighe - Ruadh-stac Mor", "Classifica": "Ma,M,Mur", "Metres": 1010.0, "Feet": 3314, "Grid Ref": "NG951611", "Xcoord": 195142, "Ycoord": 861151, "Latitude": 57.593726, "Longitude": -5.429453, "Viewable": 1029.43 }, "geometry": { "type": "Point", "coordinates": [ -5.4294570723097, 57.593748493508556 ] } },
{ "type": "Feature", "properties": { "Number": 956, "Name": "Beinn Eighe - Spidean Coire nan Clach", "Classifica": "Ma,M,Mur", "Metres": 993.0, "Feet": 3258, "Grid Ref": "NG966597", "Xcoord": 196615, "Ycoord": 859780, "Latitude": 57.582098, "Longitude": -5.403706, "Viewable": 625.99 }, "geometry": { "type": "Point", "coordinates": [ -5.403710261342403, 57.582121282610728 ] } },
{ "type": "Feature", "properties": { "Number": 957, "Name": "Beinn Alligin - Sgurr Mhor", "Classifica": "Ma,M,Mur", "Metres": 986.0, "Feet": 3235, "Grid Ref": "NG865612", "Xcoord": 186564, "Ycoord": 861270, "Latitude": 57.59082, "Longitude": -5.572781, "Viewable": 1225.83 }, "geometry": { "type": "Point", "coordinates": [ -5.572781393536327, 57.590842581938659 ] } },
{ "type": "Feature", "properties": { "Number": 968, "Name": "Beinn Alligin - Tom na Gruagaich", "Classifica": "Ma,M,Mur", "Metres": 922.0, "Feet": 3025, "Grid Ref": "NG859601", "Xcoord": 185958, "Ycoord": 860154, "Latitude": 57.580528, "Longitude": -5.581913, "Viewable": 1035.89 }, "geometry": { "type": "Point", "coordinates": [ -5.581913522095197, 57.580551049068475 ] } },
{ "type": "Feature", "properties": { "Number": 981, "Name": "Sgorr Ruadh", "Classifica": "Ma,M,Mur", "Metres": 962.0, "Feet": 3156, "Grid Ref": "NG959505", "Xcoord": 195906, "Ycoord": 850509, "Latitude": 57.498648, "Longitude": -5.407766, "Viewable": 786.81 }, "geometry": { "type": "Point", "coordinates": [ -5.407769274708741, 57.498672977691953 ] } },
{ "type": "Feature", "properties": { "Number": 983, "Name": "Beinn Liath Mhor", "Classifica": "Ma,M,Mur", "Metres": 926.0, "Feet": 3038, "Grid Ref": "NG964519", "Xcoord": 196408, "Ycoord": 851980, "Latitude": 57.512064, "Longitude": -5.400633, "Viewable": 162.63 }, "geometry": { "type": "Point", "coordinates": [ -5.400636295699175, 57.512088747963865 ] } },
{ "type": "Feature", "properties": { "Number": 1014, "Name": "A'Mhaighdean", "Classifica": "Ma,M,Mur", "Metres": 967.0, "Feet": 3173, "Grid Ref": "NH007749", "Xcoord": 200773, "Ycoord": 874917, "Latitude": 57.719688, "Longitude": -5.346774, "Viewable": 1137.96 }, "geometry": { "type": "Point", "coordinates": [ -5.346780781494364, 57.719707900285158 ] } },
{ "type": "Feature", "properties": { "Number": 1023, "Name": "Ruadh Stac Mor", "Classifica": "Ma,M,Mur", "Metres": 918.7, "Feet": 3014, "Grid Ref": "NH018756", "Xcoord": 201853, "Ycoord": 875655, "Latitude": 57.726783, "Longitude": -5.329288, "Viewable": 797.71 }, "geometry": { "type": "Point", "coordinates": [ -5.329290492984533, 57.726803097811434 ] } },
{ "type": "Feature", "properties": { "Number": 1047, "Name": "Meall Gorm", "Classifica": "Hu,M,Mur", "Metres": 949.0, "Feet": 3114, "Grid Ref": "NH221695", "Xcoord": 222191, "Ycoord": 869584, "Latitude": 57.680836, "Longitude": -4.983818, "Viewable": 777.17 }, "geometry": { "type": "Point", "coordinates": [ -4.983814758405065, 57.680858529696913 ] } },
{ "type": "Feature", "properties": { "Number": 1052, "Name": "An Coileachan", "Classifica": "Hu,M,Mur,sMa", "Metres": 923.0, "Feet": 3028, "Grid Ref": "NH241680", "Xcoord": 224177, "Ycoord": 868018, "Latitude": 57.667569, "Longitude": -4.949418, "Viewable": 1178.45 }, "geometry": { "type": "Point", "coordinates": [ -4.949415134171296, 57.66759140432049 ] } },
{ "type": "Feature", "properties": { "Number": 1066, "Name": "Am Faochagach", "Classifica": "Ma,M,Mur", "Metres": 953.0, "Feet": 3127, "Grid Ref": "NH303793", "Xcoord": 230361, "Ycoord": 879372, "Latitude": 57.771801, "Longitude": -4.853899, "Viewable": 1092.05 }, "geometry": { "type": "Point", "coordinates": [ -4.853899102655233, 57.771821792047341 ] } },
{ "type": "Feature", "properties": { "Number": 1088, "Name": "Ben Wyvis - Glas Leathad Mor", "Classifica": "Ma,M,Mur", "Metres": 1046.0, "Feet": 3432, "Grid Ref": "NH462683", "Xcoord": 246295, "Ycoord": 868377, "Latitude": 57.678895, "Longitude": -4.579282, "Viewable": 3059.04 }, "geometry": { "type": "Point", "coordinates": [ -4.579285998528604, 57.678909576503514 ] } },
{ "type": "Feature", "properties": { "Number": 1239, "Name": "Sgurr Alasdair", "Classifica": "Ma,M,Mur", "Metres": 992.0, "Feet": 3255, "Grid Ref": "NG450207", "Xcoord": 145000, "Ycoord": 820786, "Latitude": 57.206615, "Longitude": -6.224179, "Viewable": 996.91 }, "geometry": { "type": "Point", "coordinates": [ -6.224196834379231, 57.206642764740174 ] } },
{ "type": "Feature", "properties": { "Number": 1240, "Name": "Sgurr Dearg - Inaccessible Pinnacle", "Classifica": "Ma,M,Mur", "Metres": 986.0, "Feet": 3235, "Grid Ref": "NG444215", "Xcoord": 144404, "Ycoord": 821566, "Latitude": 57.21327, "Longitude": -6.234819, "Viewable": 1131.99 }, "geometry": { "type": "Point", "coordinates": [ -6.234836952918991, 57.213298385197938 ] } },
{ "type": "Feature", "properties": { "Number": 1243, "Name": "Sgurr a'Ghreadaidh", "Classifica": "Hu,M,Mur", "Metres": 972.0, "Feet": 3189, "Grid Ref": "NG445232", "Xcoord": 144500, "Ycoord": 823200, "Latitude": 57.227964, "Longitude": -6.234914, "Viewable": 1480.01 }, "geometry": { "type": "Point", "coordinates": [ -6.234931637006647, 57.227989888423068 ] } },
{ "type": "Feature", "properties": { "Number": 1245, "Name": "Sgurr na Banachdich", "Classifica": "Hu,M,Mur", "Metres": 965.0, "Feet": 3166, "Grid Ref": "NG440224", "Xcoord": 144045, "Ycoord": 822449, "Latitude": 57.22098, "Longitude": -6.241655, "Viewable": 1311.12 }, "geometry": { "type": "Point", "coordinates": [ -6.241673313197476, 57.221008202191491 ] } },
{ "type": "Feature", "properties": { "Number": 1247, "Name": "Bruach na Frithe", "Classifica": "Hu,M,Mur", "Metres": 958.0, "Feet": 3143, "Grid Ref": "NG460251", "Xcoord": 146084, "Ycoord": 825201, "Latitude": 57.24677, "Longitude": -6.210796, "Viewable": 1777.84 }, "geometry": { "type": "Point", "coordinates": [ -6.210814244546882, 57.24679693648681 ] } },
{ "type": "Feature", "properties": { "Number": 1248, "Name": "Sgurr Mhic Choinnich", "Classifica": "M,Mur", "Metres": 948.0, "Feet": 3110, "Grid Ref": "NG450210", "Xcoord": 145022, "Ycoord": 821047, "Latitude": 57.208965, "Longitude": -6.224083, "Viewable": 546.67 }, "geometry": { "type": "Point", "coordinates": [ -6.224101189907483, 57.20899317148416 ] } },
{ "type": "Feature", "properties": { "Number": 1250, "Name": "Sgurr Dubh Mor", "Classifica": "M,Mur", "Metres": 944.0, "Feet": 3097, "Grid Ref": "NG457205", "Xcoord": 145758, "Ycoord": 820547, "Latitude": 57.204894, "Longitude": -6.211421, "Viewable": 1258.94 }, "geometry": { "type": "Point", "coordinates": [ -6.211439471605518, 57.204922670482887 ] } },
{ "type": "Feature", "properties": { "Number": 1254, "Name": "Am Basteir", "Classifica": "M,Mur", "Metres": 934.0, "Feet": 3064, "Grid Ref": "NG465253", "Xcoord": 146561, "Ycoord": 825302, "Latitude": 57.247939, "Longitude": -6.203016, "Viewable": 725.87 }, "geometry": { "type": "Point", "coordinates": [ -6.203034407648706, 57.247966132074126 ] } },
{ "type": "Feature", "properties": { "Number": 1255, "Name": "Bla Bheinn [Blaven] [Blabheinn]", "Classifica": "Ma,M,Mur", "Metres": 928.0, "Feet": 3045, "Grid Ref": "NG529217", "Xcoord": 152989, "Ycoord": 821747, "Latitude": 57.2196, "Longitude": -6.093231, "Viewable": 1598.89 }, "geometry": { "type": "Point", "coordinates": [ -6.093251473052459, 57.219628129565656 ] } },
{ "type": "Feature", "properties": { "Number": 1258, "Name": "Sgurr nan Eag", "Classifica": "Hu,M,Mur", "Metres": 924.0, "Feet": 3031, "Grid Ref": "NG457195", "Xcoord": 145708, "Ycoord": 819538, "Latitude": 57.195827, "Longitude": -6.211216, "Viewable": 1033.51 }, "geometry": { "type": "Point", "coordinates": [ -6.211233880634439, 57.195855655572203 ] } },
{ "type": "Feature", "properties": { "Number": 1259, "Name": "Sgurr a'Mhadaidh", "Classifica": "M,Mur", "Metres": 918.0, "Feet": 3012, "Grid Ref": "NG446235", "Xcoord": 144699, "Ycoord": 823509, "Latitude": 57.230841, "Longitude": -6.231944, "Viewable": 1366.86 }, "geometry": { "type": "Point", "coordinates": [ -6.231962290552693, 57.230868988475251 ] } }
]
}
