{
"type": "FeatureCollection",
"crs": { "type": "name", "properties": { "name": "urn:ogc:def:crs:OGC:1.3:CRS84" } },
                                                                                
"features": [
{ "type": "Feature", "properties": { "Number": 421, "Name": "Beinn a'Ghlo - Carn nan Gabhar", "Classifica": "Ma,M,Mur", "Metres": 1121.0, "Feet": 3678, "Grid Ref": "NN971733", "Xcoord": 297118, "Ycoord": 773314, "Latitude": 56.839837, "Longitude": -3.688022, "Viewable": 3436.57 }, "geometry": { "type": "Point", "coordinates": [ -3.688020790055512, 56.839852557144795 ] } },
{ "type": "Feature", "properties": { "Number": 518, "Name": "Ben Macdui [Beinn Macduibh]", "Classifica": "Ma,M,Mur,CoH,CoU,CoA", "Metres": 1309.0, "Feet": 4295, "Grid Ref": "NN988989", "Xcoord": 298899, "Ycoord": 798943, "Latitude": 57.070368, "Longitude": -3.669099, "Viewable": 4570.33 }, "geometry": { "type": "Point", "coordinates": [ -3.669099512465734, 57.070379220462421 ] } },
{ "type": "Feature", "properties": { "Number": 525, "Name": "Cairn Gorm", "Classifica": "Hu,M,Mur,sMa", "Metres": 1244.0, "Feet": 4081, "Grid Ref": "NJ005040", "Xcoord": 300519, "Ycoord": 804067, "Latitude": 57.116732, "Longitude": -3.644428, "Viewable": 4038.33 }, "geometry": { "type": "Point", "coordinates": [ -3.644429601408166, 57.116742590420714 ] } },
{ "type": "Feature", "properties": { "Number": 549, "Name": "Monadh Mor", "Classifica": "Hu,M,Mur", "Metres": 1113.0, "Feet": 3652, "Grid Ref": "NN938942", "Xcoord": 293864, "Ycoord": 794216, "Latitude": 57.02679, "Longitude": -3.750102, "Viewable": 1710.43 }, "geometry": { "type": "Point", "coordinates": [ -3.750101030355451, 57.026802294245719 ] } },
{ "type": "Feature", "properties": { "Number": 557, "Name": "Bynack More", "Classifica": "Ma,M,Mur", "Metres": 1090.0, "Feet": 3576, "Grid Ref": "NJ041063", "Xcoord": 304189, "Ycoord": 806330, "Latitude": 57.137833, "Longitude": -3.584716, "Viewable": 1506.4 }, "geometry": { "type": "Point", "coordinates": [ -3.584719420558073, 57.137843413846134 ] } },
{ "type": "Feature", "properties": { "Number": 621, "Name": "Carn Dearg", "Classifica": "Ma,M,Mur", "Metres": 945.0, "Feet": 3100, "Grid Ref": "NH635024", "Xcoord": 263569, "Ycoord": 802399, "Latitude": 57.09227, "Longitude": -4.25323, "Viewable": 408.7 }, "geometry": { "type": "Point", "coordinates": [ -4.253235872154809, 57.092288130695664 ] } },
{ "type": "Feature", "properties": { "Number": 624, "Name": "Geal Charn", "Classifica": "Hu,M,Mur", "Metres": 926.0, "Feet": 3038, "Grid Ref": "NN561987", "Xcoord": 256143, "Ycoord": 798769, "Latitude": 57.057427, "Longitude": -4.373589, "Viewable": 744.72 }, "geometry": { "type": "Point", "coordinates": [ -4.373592477792414, 57.057445526872527 ] } },
{ "type": "Feature", "properties": { "Number": 626, "Name": "Carn Sgulain", "Classifica": "M,Mur", "Metres": 920.0, "Feet": 3018, "Grid Ref": "NH682058", "Xcoord": 268299, "Ycoord": 805814, "Latitude": 57.124304, "Longitude": -4.177029, "Viewable": 751.7 }, "geometry": { "type": "Point", "coordinates": [ -4.177036814437611, 57.124321566980129 ] } },
{ "type": "Feature", "properties": { "Number": 658, "Name": "Creag Meagaidh", "Classifica": "Ma,M,Mur", "Metres": 1128.0, "Feet": 3701, "Grid Ref": "NN418875", "Xcoord": 241840, "Ycoord": 787549, "Latitude": 56.952051, "Longitude": -4.602102, "Viewable": 1986.23 }, "geometry": { "type": "Point", "coordinates": [ -4.602116508723091, 56.952070584197493 ] } },
{ "type": "Feature", "properties": { "Number": 662, "Name": "Stob Poite Coire Ardair", "Classifica": "Hu,M,Mur", "Metres": 1054.0, "Feet": 3458, "Grid Ref": "NN428888", "Xcoord": 242800, "Ycoord": 788800, "Latitude": 56.963609, "Longitude": -4.58712, "Viewable": 136.16 }, "geometry": { "type": "Point", "coordinates": [ -4.587128639432613, 56.963624433276401 ] } },
{ "type": "Feature", "properties": { "Number": 668, "Name": "Carn Liath", "Classifica": "M,Mur", "Metres": 1006.0, "Feet": 3301, "Grid Ref": "NN472903", "Xcoord": 247200, "Ycoord": 790300, "Latitude": 56.978546, "Longitude": -4.515741, "Viewable": 389.74 }, "geometry": { "type": "Point", "coordinates": [ -4.515749107151332, 56.978561325611771 ] } },
{ "type": "Feature", "properties": { "Number": 691, "Name": "Spidean Mialach", "Classifica": "Ma,M,Mur", "Metres": 996.0, "Feet": 3268, "Grid Ref": "NH065043", "Xcoord": 206591, "Ycoord": 804307, "Latitude": 57.088973, "Longitude": -5.193631, "Viewable": 751.29 }, "geometry": { "type": "Point", "coordinates": [ -5.193634747772929, 57.088988785001312 ] } },
{ "type": "Feature", "properties": { "Number": 692, "Name": "Druim Shionnach", "Classifica": "Hu,M,Mur", "Metres": 987.0, "Feet": 3238, "Grid Ref": "NH074084", "Xcoord": 207440, "Ycoord": 808483, "Latitude": 57.126785, "Longitude": -5.182857, "Viewable": 543.56 }, "geometry": { "type": "Point", "coordinates": [ -5.182860362688416, 57.12680015973276 ] } },
{ "type": "Feature", "properties": { "Number": 803, "Name": "Carn Eige [Carn Eighe]", "Classifica": "Ma,M,Mur,CoH", "Metres": 1183.0, "Feet": 3881, "Grid Ref": "NH123261", "Xcoord": 212357, "Ycoord": 826197, "Latitude": 57.287702, "Longitude": -5.115126, "Viewable": 2895.56 }, "geometry": { "type": "Point", "coordinates": [ -5.115133233590298, 57.28772302799166 ] } },
{ "type": "Feature", "properties": { "Number": 804, "Name": "Mam Sodhail", "Classifica": "Hu,M,Mur", "Metres": 1181.0, "Feet": 3875, "Grid Ref": "NH119253", "Xcoord": 211962, "Ycoord": 825351, "Latitude": 57.279951, "Longitude": -5.121026, "Viewable": 3011.5 }, "geometry": { "type": "Point", "coordinates": [ -5.121033309424234, 57.279972431026664 ] } },
{ "type": "Feature", "properties": { "Number": 805, "Name": "Sgurr nan Ceathreamhnan", "Classifica": "Ma,M,Mur", "Metres": 1151.0, "Feet": 3776, "Grid Ref": "NH057228", "Xcoord": 205702, "Ycoord": 822850, "Latitude": 57.254902, "Longitude": -5.222731, "Viewable": 1704.29 }, "geometry": { "type": "Point", "coordinates": [ -5.222735447767367, 57.254923228088394 ] } },
{ "type": "Feature", "properties": { "Number": 818, "Name": "Toll Creagach", "Classifica": "Ma,M,Mur", "Metres": 1054.0, "Feet": 3458, "Grid Ref": "NH194282", "Xcoord": 219401, "Ycoord": 828280, "Latitude": 57.309227, "Longitude": -4.999953, "Viewable": 1278.57 }, "geometry": { "type": "Point", "coordinates": [ -4.99996269918986, 57.309247837009487 ] } },
{ "type": "Feature", "properties": { "Number": 826, "Name": "Beinn Fhionnlaidh", "Classifica": "Ma,M,Mur", "Metres": 1005.0, "Feet": 3297, "Grid Ref": "NH115282", "Xcoord": 211559, "Ycoord": 828273, "Latitude": 57.305995, "Longitude": -5.129927, "Viewable": 480.76 }, "geometry": { "type": "Point", "coordinates": [ -5.129934156931337, 57.306015001183439 ] } },
{ "type": "Feature", "properties": { "Number": 898, "Name": "Bidein a'Choire Sheasgaich", "Classifica": "Ma,M,Mur", "Metres": 945.0, "Feet": 3100, "Grid Ref": "NH049412", "Xcoord": 204908, "Ycoord": 841265, "Latitude": 57.419719, "Longitude": -5.25044, "Viewable": 178.11 }, "geometry": { "type": "Point", "coordinates": [ -5.25044499827944, 57.419737216985411 ] } },
{ "type": "Feature", "properties": { "Number": 931, "Name": "An Socach", "Classifica": "Ma,M,Mur", "Metres": 1069.0, "Feet": 3507, "Grid Ref": "NH100332", "Xcoord": 210061, "Ycoord": 833274, "Latitude": 57.350229, "Longitude": -5.158603, "Viewable": 265.51 }, "geometry": { "type": "Point", "coordinates": [ -5.158609670850295, 57.35024870196326 ] } },
{ "type": "Feature", "properties": { "Number": 953, "Name": "Liathach - Spidean a'Choire Leith", "Classifica": "Ma,M,Mur", "Metres": 1055.0, "Feet": 3461, "Grid Ref": "NG929579", "Xcoord": 192936, "Ycoord": 857969, "Latitude": 57.564189, "Longitude": -5.463575, "Viewable": 699.32 }, "geometry": { "type": "Point", "coordinates": [ -5.463577674939199, 57.564212637401894 ] } },
{ "type": "Feature", "properties": { "Number": 954, "Name": "Liathach - Mullach an Rathain", "Classifica": "Ma,M,Mur", "Metres": 1023.0, "Feet": 3356, "Grid Ref": "NG911576", "Xcoord": 191184, "Ycoord": 857691, "Latitude": 57.560891, "Longitude": -5.492566, "Viewable": 885.96 }, "geometry": { "type": "Point", "coordinates": [ -5.492568707951095, 57.560914304330034 ] } },
{ "type": "Feature", "properties": { "Number": 955, "Name": "Beinn Eighe - Ruadh-stac Mor", "Classifica": "Ma,M,Mur", "Metres": 1010.0, "Feet": 3314, "Grid Ref": "NG951611", "Xcoord": 195142, "Ycoord": 861151, "Latitude": 57.593726, "Longitude": -5.429453, "Viewable": 1029.43 }, "geometry": { "type": "Point", "coordinates": [ -5.4294570723097, 57.593748493508556 ] } },
{ "type": "Feature", "properties": { "Number": 956, "Name": "Beinn Eighe - Spidean Coire nan Clach", "Classifica": "Ma,M,Mur", "Metres": 993.0, "Feet": 3258, "Grid Ref": "NG966597", "Xcoord": 196615, "Ycoord": 859780, "Latitude": 57.582098, "Longitude": -5.403706, "Viewable": 625.99 }, "geometry": { "type": "Point", "coordinates": [ -5.403710261342403, 57.582121282610728 ] } },
{ "type": "Feature", "properties": { "Number": 957, "Name": "Beinn Alligin - Sgurr Mhor", "Classifica": "Ma,M,Mur", "Metres": 986.0, "Feet": 3235, "Grid Ref": "NG865612", "Xcoord": 186564, "Ycoord": 861270, "Latitude": 57.59082, "Longitude": -5.572781, "Viewable": 1225.83 }, "geometry": { "type": "Point", "coordinates": [ -5.572781393536327, 57.590842581938659 ] } },
{ "type": "Feature", "properties": { "Number": 968, "Name": "Beinn Alligin - Tom na Gruagaich", "Classifica": "Ma,M,Mur", "Metres": 922.0, "Feet": 3025, "Grid Ref": "NG859601", "Xcoord": 185958, "Ycoord": 860154, "Latitude": 57.580528, "Longitude": -5.581913, "Viewable": 1035.89 }, "geometry": { "type": "Point", "coordinates": [ -5.581913522095197, 57.580551049068475 ] } },
{ "type": "Feature", "properties": { "Number": 981, "Name": "Sgorr Ruadh", "Classifica": "Ma,M,Mur", "Metres": 962.0, "Feet": 3156, "Grid Ref": "NG959505", "Xcoord": 195906, "Ycoord": 850509, "Latitude": 57.498648, "Longitude": -5.407766, "Viewable": 786.81 }, "geometry": { "type": "Point", "coordinates": [ -5.407769274708741, 57.498672977691953 ] } },
{ "type": "Feature", "properties": { "Number": 982, "Name": "Maol Chean-dearg", "Classifica": "Ma,M,Mur", "Metres": 933.0, "Feet": 3061, "Grid Ref": "NG924499", "Xcoord": 192406, "Ycoord": 849911, "Latitude": 57.491697, "Longitude": -5.465549, "Viewable": 613.72 }, "geometry": { "type": "Point", "coordinates": [ -5.465551027918687, 57.491721609267501 ] } },
{ "type": "Feature", "properties": { "Number": 983, "Name": "Beinn Liath Mhor", "Classifica": "Ma,M,Mur", "Metres": 926.0, "Feet": 3038, "Grid Ref": "NG964519", "Xcoord": 196408, "Ycoord": 851980, "Latitude": 57.512064, "Longitude": -5.400633, "Viewable": 162.63 }, "geometry": { "type": "Point", "coordinates": [ -5.400636295699175, 57.512088747963865 ] } }
]
}
